# Time (s),Altitude (m),Vertical velocity (m/s),Vertical acceleration (m/s²),Total velocity (m/s),Total acceleration (m/s²),Position East of launch (m),Position North of launch (m),Lateral distance (m),Lateral direction (°),Lateral velocity (m/s),Lateral acceleration (m/s²),Latitude (°),Longitude (°),Gravitational acceleration (m/s²),Angle of attack (°),Roll rate (°/s),Pitch rate (°/s),Yaw rate (°/s),Mass (g),Motor mass (g),Longitudinal moment of inertia (kg·m²),Rotational moment of inertia (kg·m²),CP location (cm),CG location (cm),Stability margin calibers (​),Mach number (​),Reynolds number (​),Thrust (N),Drag force (N),Drag coefficient (​),Axial drag coefficient (​),Friction drag coefficient (​),Pressure drag coefficient (​),Base drag coefficient (​),Normal force coefficient (​),Pitch moment coefficient (​),Yaw moment coefficient (​),Side force coefficient (​),Roll moment coefficient (​),Roll forcing coefficient (​),Roll damping coefficient (​),Pitch damping coefficient (​),Coriolis acceleration (m/s²),Reference length (cm),Reference area (cm²),Vertical orientation (zenith) (°),Lateral orientation (azimuth) (°),Wind velocity (m/s),Air temperature (°C),Air pressure (mbar),Speed of sound (m/s),Simulation time step (s),Computation time (s)
0.01,-1.76e-4,-0.035,-3.518,0.035,3.518,0,0,0,0,0,0,28.61,-80.6,9.792,91.016,0,0,0,2.577e4,8057.547,24.863,0.095,NaN,232.693,NaN,0.006,5.011e5,161.698,-4.86e-7,0.764,-1.059e-5,0.596,0.117,0.051,NaN,NaN,NaN,NaN,NaN,NaN,NaN,NaN,4.506e-6,15.558,190.094,90,0,1.985,15,1013.25,340.389,0.01,0.001
0.02,4.516e-4,0.09,9.034,0.09,9.034,0,0,0,0,0,0,28.61,-80.6,9.792,87.408,0,0,0,2.577e4,8051.093,24.857,0.095,NaN,232.67,NaN,0.006,5.041e5,485.095,8.032e-6,0.763,1.729e-4,0.595,0.117,0.051,NaN,NaN,NaN,NaN,NaN,NaN,NaN,NaN,1.156e-5,15.558,190.094,90,0,1.995,15,1013.25,340.389,0.01,0.002
0.03,0.002,0.306,21.593,0.306,21.593,0,0,0,0,0,0,28.61,-80.6,9.792,81.319,0,0,0,2.576e4,8044.64,24.851,0.095,NaN,232.647,NaN,0.006,5.121e5,808.492,2.906e-4,0.761,0.006,0.593,0.117,0.051,NaN,NaN,NaN,NaN,NaN,NaN,NaN,NaN,3.921e-5,15.558,190.094,90,0,2.005,15,1013.25,340.389,0.01,0.002
0.04,0.007,0.648,34.158,0.648,34.158,0,0,0,0,0,0,28.61,-80.6,9.792,72.186,0,0,0,2.575e4,8038.187,24.845,0.095,NaN,232.623,NaN,0.006,5.344e5,1131.889,0.002,0.756,0.047,0.588,0.117,0.051,NaN,NaN,NaN,NaN,NaN,NaN,NaN,NaN,8.293e-5,15.558,190.094,90,0,2.016,15,1013.249,340.389,0.01,0.002
0.05,0.016,1.115,46.729,1.115,46.729,0,0,0,0,0,0,28.61,-80.6,9.792,61.176,0,0,0,2.575e4,8031.733,24.839,0.095,NaN,232.6,NaN,0.007,5.837e5,1455.286,0.01,0.745,0.168,0.577,0.117,0.051,NaN,NaN,NaN,NaN,NaN,NaN,NaN,NaN,1.428e-4,15.558,190.094,90,0,2.026,15,1013.248,340.389,0.01,0.002
0.06,0.03,1.708,59.306,1.708,59.306,0,0,0,0,0,0,28.61,-80.6,9.792,49.541,0,0,0,2.574e4,8025.28,24.833,0.095,NaN,232.577,NaN,0.008,6.644e5,1778.683,0.03,0.73,0.378,0.562,0.117,0.051,NaN,NaN,NaN,NaN,NaN,NaN,NaN,NaN,2.187e-4,15.558,190.094,90,0,2.003,15,1013.246,340.389,0.01,0.003
0.07,0.051,2.427,71.888,2.427,71.888,0,0,0,0,0,0,28.61,-80.6,9.792,39.199,0,0,0,2.573e4,8018.827,24.827,0.095,NaN,232.553,NaN,0.009,7.904e5,2102.08,0.068,0.71,0.595,0.542,0.117,0.051,NaN,NaN,NaN,NaN,NaN,NaN,NaN,NaN,3.107e-4,15.558,190.094,90,0,1.979,15,1013.244,340.389,0.01,0.003
0.08,0.079,3.271,84.476,3.271,84.476,0,0,0,0,0,0,28.61,-80.6,9.792,30.871,0,0,0,2.573e4,8012.373,24.821,0.095,NaN,232.53,NaN,0.011,9.62e5,2425.477,0.126,0.689,0.748,0.521,0.117,0.051,NaN,NaN,NaN,NaN,NaN,NaN,NaN,NaN,4.188e-4,15.558,190.094,90,0,1.956,14.999,1013.241,340.389,0.01,0.003
0.09,0.117,4.203,93.164,4.203,93.164,0,0,0,0,0,0,28.61,-80.6,9.792,24.69,0,0,0,2.572e4,8000.507,24.81,0.095,NaN,232.487,NaN,0.014,1.168e6,2647.848,0.204,0.67,0.821,0.501,0.117,0.051,NaN,NaN,NaN,NaN,NaN,NaN,NaN,NaN,5.381e-4,15.558,190.094,90,0,1.932,14.999,1013.236,340.388,0.01,0.003
0.1,0.163,5.14,93.758,5.14,93.758,0,0,0,0,0,0,28.61,-80.6,9.792,20.372,0,0,0,2.57e4,7987.288,24.798,0.095,NaN,232.439,NaN,0.016,1.384e6,2661.853,0.294,0.654,0.839,0.485,0.117,0.051,NaN,NaN,NaN,NaN,NaN,NaN,NaN,NaN,6.581e-4,15.558,190.094,90,0,1.909,14.999,1013.231,340.388,0.01,0.004
0.11,0.219,6.081,94.107,6.081,94.107,0,0,0,0,0,0,28.61,-80.6,9.792,17.725,0,0,0,2.569e4,7974.069,24.786,0.095,NaN,232.391,NaN,0.019,1.611e6,2669.543,0.394,0.64,0.831,0.471,0.117,0.051,NaN,NaN,NaN,NaN,NaN,NaN,NaN,NaN,7.786e-4,15.558,190.094,90,0,1.944,14.999,1013.224,340.388,0.01,0.004
0.12,0.285,7.025,94.456,7.025,94.456,0,0,0,0,0,0,28.61,-80.6,9.792,15.729,0,0,0,2.568e4,7960.85,24.774,0.095,NaN,232.343,NaN,0.021,1.842e6,2677.233,0.504,0.628,0.813,0.459,0.117,0.051,NaN,NaN,NaN,NaN,NaN,NaN,NaN,NaN,8.995e-4,15.558,190.094,90,0,1.979,14.998,1013.217,340.388,0.01,0.004
0.13,0.36,7.973,94.804,7.973,94.804,0,0,0,0,0,0,28.61,-80.6,9.792,14.173,0,0,0,2.566e4,7947.631,24.762,0.095,NaN,232.295,NaN,0.024,2.076e6,2684.924,0.622,0.618,0.79,0.449,0.117,0.051,NaN,NaN,NaN,NaN,NaN,NaN,NaN,NaN,0.001,15.558,190.094,90,0,2.013,14.998,1013.208,340.387,0.01,0.004
0.14,0.444,8.924,95.153,8.924,95.153,0,0,0,0,0,0,28.61,-80.6,9.792,12.927,0,0,0,2.565e4,7934.412,24.75,0.094,NaN,232.247,NaN,0.027,2.311e6,2692.614,0.747,0.609,0.765,0.441,0.117,0.051,NaN,NaN,NaN,NaN,NaN,NaN,NaN,NaN,0.001,15.558,190.094,90,0,2.048,14.997,1013.198,340.387,0.01,0.005
0.15,0.539,9.879,95.502,9.879,95.502,0,0,0,0,0,0,28.61,-80.6,9.792,11.908,0,0,0,2.564e4,7921.192,24.738,0.094,NaN,232.199,NaN,0.03,2.548e6,2700.305,0.882,0.601,0.743,0.433,0.117,0.051,NaN,NaN,NaN,NaN,NaN,NaN,NaN,NaN,0.001,15.558,190.094,90,0,2.083,14.996,1013.187,340.387,0.01,0.005
0.16,0.642,10.837,95.851,10.837,95.851,0,0,0,0,0,0,28.61,-80.6,9.792,10.811,0,0,0,2.562e4,7907.973,24.725,0.094,NaN,232.151,NaN,0.032,2.785e6,2707.995,1.019,0.594,0.719,0.426,0.117,0.051,NaN,NaN,NaN,NaN,NaN,NaN,NaN,NaN,0.001,15.558,190.094,90,0,2.07,14.996,1013.175,340.386,0.01,0.005
0.169,0.746,11.725,96.185,11.725,96.185,0,0,0,0,0,0,28.61,-80.6,9.792,9.95,0,0,0,2.561e4,7895.775,24.714,0.094,NaN,232.106,NaN,0.035,3.005e6,2715.388,1.154,0.589,0.699,0.42,0.117,0.051,NaN,NaN,NaN,NaN,NaN,NaN,NaN,NaN,0.002,15.558,190.094,90,0,2.057,14.995,1013.162,340.386,0.009,0.006
0.178,0.85,12.548,96.493,12.548,96.493,0,0,0,0,0,0,28.61,-80.6,9.792,9.257,0,0,0,2.56e4,7884.501,24.704,0.094,NaN,232.065,NaN,0.037,3.209e6,2722.216,1.287,0.584,0.684,0.416,0.117,0.051,NaN,NaN,NaN,NaN,NaN,NaN,NaN,NaN,0.002,15.558,190.094,90,0,2.045,14.994,1013.15,340.386,0.009,0.006
0.186,0.953,13.319,96.779,13.319,96.779,0,0,0,0,0,0,28.61,-80.6,9.792,8.684,0,0,0,2.559e4,7873.965,24.694,0.094,NaN,232.026,NaN,0.04,3.401e6,2728.56,1.427,0.584,0.675,0.416,0.117,0.051,NaN,NaN,NaN,NaN,NaN,NaN,NaN,NaN,0.002,15.558,190.094,90,0,2.034,14.994,1013.138,340.385,0.008,0.006
0.193,1.055,14.047,97.048,14.047,97.048,0,0,0,0,0,0,28.61,-80.6,9.792,8.199,0,0,0,2.558e4,7864.04,24.685,0.094,NaN,231.99,NaN,0.042,3.582e6,2734.512,1.565,0.584,0.668,0.416,0.117,0.051,NaN,NaN,NaN,NaN,NaN,NaN,NaN,NaN,0.002,15.558,190.094,90,0,2.024,14.993,1013.126,340.385,0.008,0.006
0.204,1.22,15.144,97.384,15.144,97.384,-1.268e-5,0,1.268e-5,-180,0.002,0.205,28.61,-80.6,9.792,7.527,0,0.022,-4.395e-6,2.556e4,7849.152,24.671,0.094,249.397,231.935,1.122,0.045,3.855e6,2741.729,1.785,0.585,0.657,0.416,0.117,0.051,1.909,2.143,4.951e-4,0,0,0,0,8.706e-6,0.002,15.558,190.094,90,0.004,2.003,14.992,1013.107,340.384,0.011,0.007
0.221,1.49,16.796,97.887,16.796,97.888,-8.054e-5,0,8.054e-5,-180,0.006,0.213,28.61,-80.6,9.792,6.637,0,0.061,-5.289e-6,2.554e4,7826.82,24.65,0.094,251.152,231.853,1.24,0.05,4.268e6,2752.556,2.143,0.585,0.644,0.416,0.117,0.051,1.628,2.019,-1.029e-4,0,0,0,0,5.215e-5,0.002,15.558,190.094,89.999,0.005,1.96,14.99,1013.075,340.383,0.017,0.007
0.247,1.947,19.294,98.642,19.294,98.642,-2.967e-4,0,2.967e-4,-180,0.011,0.221,28.61,-80.6,9.792,5.577,0,0.128,-1.993e-5,2.551e4,7793.322,24.619,0.094,253.42,231.73,1.394,0.057,4.893e6,2768.796,2.751,0.585,0.629,0.416,0.117,0.051,1.312,1.829,-1.653e-4,0,0,0,0,1.771e-4,0.002,15.558,190.094,89.997,0.005,1.896,14.987,1013.022,340.381,0.025,0.007
0.285,2.752,23.069,99.427,23.069,99.428,-8.938e-4,0,8.938e-4,-180,0.02,0.253,28.61,-80.6,9.792,4.832,0,0.255,-8.719e-6,2.546e4,7741.607,24.571,0.094,255.143,231.539,1.517,0.068,5.843e6,2784.303,3.864,0.585,0.619,0.416,0.118,0.051,1.103,1.673,1.214e-4,0,0,0,0,4.889e-4,0.003,15.558,190.094,89.99,0.003,1.975,14.982,1012.927,340.378,0.038,0.007
0.335,4.03,28.067,100.073,28.067,100.073,-0.002,0,0.002,-180,0.034,0.272,28.61,-80.6,9.792,4.031,0,0.474,-5.401e-5,2.539e4,7673.456,24.507,0.094,257.131,231.287,1.661,0.083,7.1e6,2794.997,5.62,0.585,0.61,0.416,0.118,0.052,0.889,1.477,-4.46e-4,0,0,0,0,0.001,0.004,15.558,190.094,89.972,0.003,2.026,14.974,1012.777,340.373,0.05,0.008
0.385,5.559,33.1,100.763,33.1,100.763,-0.004,0,0.004,-180,0.047,0.275,28.61,-80.6,9.792,3.524,0,0.752,-7.972e-5,2.532e4,7605.305,24.443,0.094,258.468,231.033,1.763,0.097,8.368e6,2807.107,7.74,0.585,0.605,0.416,0.118,0.052,0.761,1.34,-3.553e-4,0,0,0,0,0.002,0.004,15.558,190.094,89.941,0.002,2.12,14.964,1012.598,340.367,0.05,0.008
0.435,7.341,38.166,101.43,38.166,101.43,-0.007,0,0.007,-180,0.06,0.226,28.61,-80.6,9.792,2.992,0,1.096,-1.884e-5,2.525e4,7536.869,24.378,0.094,259.941,230.776,1.875,0.112,9.643e6,2818.835,10.198,0.585,0.6,0.415,0.118,0.052,0.631,1.18,4.018e-4,0,0,0,0,0.003,0.005,15.558,190.094,89.895,0.002,2.125,14.952,1012.389,340.36,0.05,0.008
0.485,9.377,43.258,101.93,43.258,101.93,-0.01,0,0.01,180,0.069,0.134,28.61,-80.6,9.792,2.558,0,1.485,7.334e-5,2.518e4,7467.955,24.313,0.094,261.203,230.517,1.972,0.127,1.092e7,2826.568,13.016,0.586,0.597,0.415,0.118,0.052,0.529,1.038,1.791e-4,0,0,0,0,0.005,0.006,15.558,190.094,89.831,0.002,2.13,14.939,1012.15,340.352,0.05,0.008
0.535,11.667,48.372,102.376,48.372,102.376,-0.014,2.757e-8,0.014,180,0.073,0.014,28.61,-80.6,9.792,2.165,0,1.922,-1.122e-4,2.511e4,7399.041,24.247,0.094,262.393,230.255,2.066,0.142,1.221e7,2833.238,16.195,0.586,0.594,0.415,0.119,0.052,0.44,0.902,-1.372e-4,0,0,0,0,0.006,0.006,15.558,190.094,89.746,0.002,2.116,14.924,1011.882,340.343,0.05,0.009
0.585,14.214,53.509,102.808,53.509,102.809,-0.017,8.783e-8,0.017,180,0.067,0.221,28.61,-80.6,9.792,1.816,0,2.385,-1.626e-5,2.505e4,7330.115,24.181,0.094,263.492,229.993,2.153,0.157,1.35e7,2839.904,19.745,0.587,0.592,0.415,0.119,0.053,0.363,0.774,-8.471e-5,0,0,0,0,0.008,0.007,15.558,190.094,89.638,0.002,2.102,14.908,1011.583,340.333,0.05,0.009
0.635,17.019,58.661,103.118,58.661,103.119,-0.02,2.065e-7,0.02,179.999,0.049,0.507,28.61,-80.6,9.792,1.451,-4.262e-7,2.862,-1.915e-4,2.498e4,7260.872,24.114,0.094,264.682,229.728,2.247,0.172,1.48e7,2843.767,23.657,0.587,0.591,0.415,0.12,0.053,0.285,0.631,4.601e-5,0,0,0,0,0.01,0.008,15.558,190.094,89.507,0.002,2.04,14.889,1011.254,340.322,0.05,0.009
0.685,20.081,63.823,103.313,63.823,103.316,-0.022,3.876e-7,0.022,179.999,0.016,0.808,28.61,-80.6,9.792,1.248,0,3.325,1.51e-4,2.491e4,7191.63,24.047,0.094,265.375,229.461,2.308,0.188,1.609e7,2845.182,27.974,0.588,0.59,0.414,0.12,0.053,0.243,0.549,-4.713e-4,0,0,0,0,0.011,0.008,15.558,190.094,89.353,0.001,2.128,14.869,1010.895,340.31,0.05,0.009
0.735,23.401,68.995,103.493,68.995,103.5,-0.022,6.237e-7,0.022,179.998,0.033,1.198,28.61,-80.6,9.792,0.996,0,3.81,7.707e-5,2.484e4,7122.387,23.979,0.094,266.249,229.193,2.382,0.203,1.739e7,2846.597,32.655,0.588,0.59,0.414,0.12,0.053,0.191,0.443,4.345e-4,0,0,0,0,0.012,0.009,15.558,190.094,89.174,8.735e-5,2.161,14.848,1010.505,340.297,0.05,0.01
0.785,26.98,74.175,103.654,74.175,103.668,-0.018,8.765e-7,0.018,179.997,0.106,1.702,28.61,-80.6,9.792,0.658,1.642e-6,4.221,5.109e-4,2.477e4,7053.076,23.911,0.093,267.449,228.923,2.476,0.218,1.869e7,2847.925,37.7,0.589,0.589,0.414,0.121,0.054,0.124,0.295,2.998e-4,0,0,0,0,0.013,0.009,15.558,190.094,88.973,-9.598e-5,2.076,14.825,1010.086,340.283,0.05,0.01
0.835,30.819,79.362,103.784,79.362,103.809,-0.011,1.146e-6,0.011,179.994,0.204,2.24,28.61,-80.6,9.792,0.394,0,4.507,6.401e-5,2.47e4,6983.734,23.843,0.093,268.422,228.651,2.556,0.233,1.999e7,2848.979,43.151,0.589,0.59,0.414,0.121,0.054,0.074,0.175,-1.832e-7,0,0,0,0,0.013,0.01,15.558,190.094,88.754,-3.933e-5,2.067,14.8,1009.635,340.268,0.05,0.01
0.885,34.917,84.555,103.896,84.556,103.934,0.003,1.441e-6,0.003,0.032,0.33,2.813,28.61,-80.6,9.792,0.168,-9.613e-7,4.688,5.606e-5,2.463e4,6914.391,23.774,0.093,269.282,228.378,2.629,0.249,2.13e7,2850.011,49.001,0.59,0.59,0.413,0.122,0.055,0.031,0.069,-1.536e-4,0,0,0,0,0.012,0.011,15.558,190.094,88.524,-5.998e-5,2.096,14.773,1009.155,340.251,0.05,0.011
0.935,39.274,89.753,103.988,89.754,104.044,0.023,1.759e-6,0.023,0.004,0.486,3.427,28.61,-80.6,9.792,0.058,-2.035e-6,-4.711,0.002,2.456e4,6845.02,23.705,0.093,269.725,228.103,2.675,0.264,2.26e7,2851.046,55.253,0.591,0.591,0.413,0.123,0.055,0.011,0.039,1.791e-4,0,0,0,0,-0.011,0.011,15.558,190.094,88.288,-1.712e-4,2.103,14.745,1008.644,340.234,0.05,0.011
0.985,43.892,94.955,104.061,94.958,104.14,0.052,2.1e-6,0.052,0.002,0.674,4.053,28.61,-80.6,9.792,0.257,-9.877e-7,-4.543,6.031e-4,2.449e4,6775.592,23.635,0.093,269.014,227.827,2.647,0.279,2.39e7,2852.101,61.911,0.592,0.592,0.413,0.123,0.056,0.048,0.136,-2.925e-5,0,0,0,0,-0.009,0.012,15.558,190.094,88.056,-2.481e-4,2.121,14.715,1008.102,340.216,0.05,0.011
1.035,48.77,100.161,104.115,100.165,104.221,0.091,2.498e-6,0.091,0.002,0.892,4.687,28.61,-80.6,9.792,0.45,1.705e-6,-4.165,-5.593e-4,2.442e4,6706.165,23.565,0.093,268.342,227.548,2.622,0.295,2.52e7,2853.161,68.979,0.592,0.593,0.412,0.124,0.056,0.084,0.228,2.154e-4,0,0,0,0,-0.007,0.013,15.558,190.094,87.838,-1.908e-4,2.1,14.683,1007.53,340.197,0.05,0.012
1.085,53.908,105.369,104.15,105.375,104.285,0.142,2.995e-6,0.142,0.001,1.142,5.306,28.61,-80.6,9.792,0.635,-1.55e-6,-3.532,9.807e-4,2.435e4,6636.736,23.495,0.093,267.713,227.269,2.6,0.31,2.65e7,2854.222,76.458,0.593,0.594,0.412,0.125,0.057,0.12,0.317,1.189e-4,0,0,0,0,-0.005,0.013,15.558,190.094,87.645,-8.919e-5,2.02,14.65,1006.927,340.177,0.05,0.012
1.135,59.307,110.579,104.191,110.588,104.356,0.206,3.625e-6,0.206,0.001,1.422,5.867,28.61,-80.6,9.792,0.797,0,-2.614,9.895e-4,2.428e4,6567.181,23.424,0.093,267.18,226.987,2.584,0.325,2.78e7,2855.802,84.349,0.594,0.595,0.412,0.126,0.057,0.152,0.395,3.617e-4,0,0,0,0,-0.002,0.014,15.558,190.094,87.49,3.989e-4,1.883,14.615,1006.294,340.155,0.05,0.012
1.185,64.966,115.792,104.246,115.805,104.431,0.284,4.619e-6,0.284,9.313e-4,1.726,6.22,28.61,-80.6,9.792,0.844,0,-1.435,1.535e-5,2.421e4,6497.626,23.353,0.093,267.054,226.703,2.594,0.341,2.91e7,2857.872,92.614,0.595,0.596,0.411,0.126,0.058,0.161,0.42,-4.67e-5,0,0,0,0,-6.201e-4,0.015,15.558,190.094,87.389,6.941e-4,1.845,14.578,1005.631,340.133,0.05,0.013
1.235,70.886,121.008,104.295,121.025,104.489,0.378,6.146e-6,0.378,9.308e-4,2.042,6.367,28.61,-80.6,9.792,0.82,0,-0.149,9.777e-4,2.414e4,6428.071,23.281,0.093,267.178,226.418,2.62,0.356,3.04e7,2859.941,101.252,0.596,0.597,0.411,0.127,0.058,0.157,0.411,4.477e-4,0,0,0,0,-6.137e-6,0.015,15.558,190.094,87.349,0.001,1.826,14.539,1004.936,340.11,0.05,0.013
1.285,77.067,126.224,104.314,126.247,104.503,0.488,8.318e-6,0.488,9.76e-4,2.359,6.279,28.61,-80.6,9.792,0.73,0,1.187,7.258e-4,2.407e4,6358.489,23.209,0.093,267.535,226.131,2.661,0.371,3.169e7,2861.337,110.26,0.597,0.598,0.41,0.128,0.059,0.139,0.37,-4.605e-4,0,0,0,0,3.57e-4,0.016,15.558,190.094,87.376,0.001,1.816,14.499,1004.211,340.085,0.05,0.013
1.335,83.509,131.437,104.236,131.464,104.403,0.614,1.13e-5,0.614,0.001,2.665,5.915,28.61,-80.6,9.792,0.563,2.842e-6,2.415,0.002,2.4e4,6288.893,23.137,0.093,268.172,225.843,2.721,0.387,3.299e7,2860.452,119.632,0.598,0.599,0.41,0.129,0.059,0.106,0.288,3.104e-4,0,0,0,0,0.001,0.017,15.558,190.094,87.467,0.002,1.858,14.457,1003.456,340.06,0.05,0.013
1.385,90.211,136.646,104.143,136.677,104.278,0.754,1.519e-5,0.754,0.001,2.946,5.294,28.61,-80.6,9.792,0.331,2.358e-6,3.345,0.002,2.394e4,6219.297,23.064,0.092,269.057,225.553,2.796,0.402,3.428e7,2859.38,129.394,0.599,0.599,0.409,0.13,0.06,0.062,0.171,-3.547e-4,0,0,0,0,0.002,0.018,15.558,190.094,87.613,0.002,1.963,14.414,1002.67,340.034,0.05,0.014
1.435,97.173,141.849,104.032,141.885,104.133,0.908,2.029e-5,0.908,0.001,3.192,4.586,28.61,-80.6,9.792,0.12,-3.031e-6,3.822,8.895e-4,2.387e4,6149.74,22.991,0.092,269.888,225.261,2.869,0.417,3.557e7,2858.263,139.58,0.6,0.6,0.409,0.131,0.061,0.022,0.061,-4.124e-4,0,0,0,0,0.003,0.018,15.558,190.094,87.794,0.003,1.979,14.368,1001.853,340.006,0.05,0.014
1.485,104.395,147.045,103.869,147.084,103.939,1.073,2.69e-5,1.073,0.001,3.402,3.804,28.61,-80.6,9.792,0.09,2.915e-6,-3.858,0.001,2.38e4,6080.273,22.917,0.092,270.051,224.968,2.898,0.433,3.685e7,2856.412,150.191,0.602,0.602,0.408,0.132,0.062,0.017,0.051,-3.466e-4,0,0,0,0,-0.003,0.019,15.558,190.094,87.988,0.003,1.998,14.321,1001.006,339.978,0.05,0.014
1.535,111.877,152.231,103.673,152.273,103.717,1.248,3.486e-5,1.248,0.002,3.572,3.003,28.61,-80.6,9.792,0.288,-4.89e-7,-3.321,2.589e-4,2.373e4,6010.806,22.843,0.092,269.363,224.673,2.873,0.448,3.813e7,2854.303,161.234,0.603,0.603,0.408,0.133,0.062,0.054,0.157,3.745e-4,0,0,0,0,-0.002,0.019,15.558,190.094,88.17,0.003,2.066,14.273,1000.129,339.948,0.05,0.015
1.585,119.618,157.407,103.452,157.451,103.478,1.43,4.4e-5,1.43,0.002,3.704,2.341,28.61,-80.6,9.792,0.432,1.137e-6,-2.245,-4.6e-4,2.366e4,5941.339,22.769,0.092,268.891,224.376,2.861,0.463,3.94e7,2852.194,172.682,0.604,0.605,0.407,0.134,0.063,0.082,0.234,-4.121e-4,0,0,0,0,-8.215e-4,0.02,15.558,190.094,88.311,0.002,2.135,14.222,999.221,339.918,0.05,0.015
1.635,127.618,162.572,103.209,162.616,103.226,1.617,5.41e-5,1.617,0.002,3.808,1.863,28.61,-80.6,9.792,0.533,-1.973e-6,-0.732,0.002,2.359e4,5872.032,22.694,0.092,268.583,224.079,2.861,0.479,4.067e7,2850.173,184.526,0.606,0.606,0.406,0.135,0.064,0.101,0.29,2.445e-4,0,0,0,0,-8.177e-5,0.021,15.558,190.094,88.386,0.001,2.294,14.17,998.283,339.886,0.05,0.015
1.685,135.875,167.724,102.943,167.769,102.961,1.81,6.482e-5,1.81,0.002,3.898,1.899,28.61,-80.6,9.792,0.49,-9.655e-7,1.073,0.001,2.352e4,5802.73,22.619,0.092,268.794,223.779,2.893,0.494,4.193e7,2848.249,196.662,0.607,0.607,0.406,0.136,0.065,0.093,0.268,-2.469e-4,0,0,0,0,1.651e-4,0.021,15.558,190.094,88.376,-7.979e-4,2.297,14.117,997.314,339.854,0.05,0.016
1.735,144.39,172.862,102.651,172.908,102.678,2.008,7.542e-5,2.008,0.002,4.004,2.386,28.61,-80.6,9.792,0.349,-3.186e-7,2.592,0.005,2.345e4,5733.427,22.544,0.092,269.367,223.478,2.95,0.509,4.318e7,2846.325,209.123,0.608,0.609,0.405,0.138,0.066,0.066,0.192,1.321e-4,0,0,0,0,9.076e-4,0.022,15.558,190.094,88.282,-0.004,2.233,14.061,996.315,339.82,0.05,0.016
1.785,153.161,177.983,102.311,178.031,102.36,2.211,8.465e-5,2.211,0.002,4.142,3.159,28.61,-80.6,9.792,0.168,2.134e-6,3.591,0.006,2.338e4,5664.275,22.468,0.092,270.109,223.176,3.017,0.524,4.443e7,2843.99,221.971,0.61,0.61,0.405,0.139,0.066,0.031,0.093,4.864e-4,0,0,0,0,0.002,0.023,15.558,190.094,88.124,-0.007,2.203,14.004,995.287,339.786,0.05,0.016
1.835,162.188,183.084,101.875,183.135,101.957,2.422,9.154e-5,2.422,0.002,4.323,4.071,28.61,-80.6,9.792,0.023,2.354e-6,-3.871,0.035,2.331e4,5595.218,22.392,0.092,270.72,222.872,3.076,0.539,4.567e7,2840.054,235.227,0.611,0.611,0.404,0.14,0.067,0.004,0.015,-4.201e-4,0,0,0,0,-0.002,0.023,15.558,190.094,87.933,-0.006,2.201,13.946,994.228,339.75,0.05,0.018
1.885,171.469,188.162,101.409,188.217,101.529,2.644,9.641e-5,2.644,0.002,4.549,4.931,28.61,-80.6,9.792,0.181,4.697e-6,-3.373,0.003,2.324e4,5526.162,22.315,0.092,270.23,222.567,3.064,0.554,4.691e7,2835.957,248.888,0.613,0.613,0.403,0.141,0.068,0.034,0.105,-4.761e-4,0,0,0,0,-0.001,0.024,15.558,190.094,87.749,-0.002,2.242,13.885,993.14,339.713,0.05,0.019
1.935,181.003,193.215,100.923,193.275,101.079,2.878,1.009e-4,2.878,0.002,4.815,5.609,28.61,-80.6,9.792,0.291,3.843e-7,-2.218,0.003,2.317e4,5457.229,22.239,0.092,269.92,222.26,3.063,0.569,4.813e7,2831.738,262.92,0.614,0.614,0.402,0.143,0.069,0.055,0.168,-1.514e-4,0,0,0,0,-5.32e-4,0.025,15.558,190.094,87.607,0.003,2.264,13.823,992.021,339.676,0.05,0.019
1.985,190.79,198.239,100.322,198.305,100.497,3.126,1.077e-4,3.126,0.002,5.105,5.931,28.61,-80.6,9.792,0.333,9.748e-7,-0.583,0.003,2.31e4,5388.658,22.162,0.091,269.876,221.953,3.08,0.584,4.935e7,2824.947,277.262,0.616,0.616,0.402,0.144,0.07,0.063,0.193,4.8e-4,0,0,0,0,-3.489e-5,0.025,15.558,190.094,87.537,0.008,2.258,13.76,990.874,339.637,0.05,0.019
2.035,200.827,203.231,99.681,203.302,99.85,3.389,1.196e-4,3.389,0.002,5.401,5.797,28.61,-80.6,9.792,0.297,1.669e-6,1.163,4.138e-5,2.304e4,5320.087,22.085,0.091,270.126,221.644,3.116,0.599,5.055e7,2817.119,291.877,0.618,0.618,0.401,0.145,0.071,0.056,0.174,3.901e-4,0,0,0,0,1.322e-4,0.026,15.558,190.094,87.554,0.01,2.223,13.695,989.696,339.598,0.05,0.02
2.085,211.112,208.19,99.048,208.268,99.181,3.666,1.373e-4,3.666,0.002,5.676,5.141,28.61,-80.6,9.792,0.174,-3.726e-6,2.563,-8.493e-4,2.297e4,5251.515,22.007,0.091,270.707,221.334,3.174,0.614,5.174e7,2809.292,306.774,0.619,0.619,0.4,0.147,0.072,0.033,0.103,-6.047e-5,0,0,0,0,6.121e-4,0.027,15.558,190.094,87.652,0.007,2.235,13.628,988.49,339.557,0.05,0.02
2.135,221.645,213.115,98.328,213.197,98.421,3.955,1.595e-4,3.955,0.002,5.91,4.294,28.61,-80.6,9.792,0.038,2.498e-6,3.162,-0.005,2.29e4,5183.668,21.93,0.091,271.342,221.025,3.234,0.628,5.292e7,2799.835,321.974,0.621,0.621,0.4,0.148,0.073,0.007,0.022,1.843e-4,0,0,0,0,8.888e-4,0.027,15.558,190.094,87.8,0.004,2.146,13.559,987.255,339.516,0.05,0.021
2.185,232.423,217.997,97.49,218.083,97.549,4.256,1.834e-4,4.256,0.002,6.101,3.407,28.61,-80.6,9.791,0.089,2.4e-6,-2.996,-0.005,2.283e4,5115.889,21.852,0.091,271.291,220.714,3.251,0.643,5.409e7,2788.127,337.469,0.623,0.623,0.399,0.15,0.074,0.017,0.055,-3.367e-4,0,0,0,0,-7.623e-4,0.028,15.558,190.094,87.958,1.469e-4,2.023,13.489,985.991,339.473,0.05,0.021
2.235,243.444,222.838,96.627,222.925,96.661,4.565,2.072e-4,4.565,0.003,6.249,2.594,28.61,-80.6,9.791,0.201,-3.149e-6,-1.972,-0.002,2.276e4,5048.11,21.774,0.091,271.011,220.402,3.253,0.657,5.524e7,2776.406,353.26,0.624,0.624,0.398,0.151,0.075,0.038,0.123,4.389e-4,0,0,0,0,-3.162e-4,0.029,15.558,190.094,88.085,3.385e-4,2.001,13.418,984.698,339.43,0.05,0.021
2.285,254.706,227.632,95.694,227.721,95.719,4.88,2.31e-4,4.88,0.003,6.364,2.173,28.61,-80.6,9.791,0.25,0,-0.261,-0.006,2.27e4,4981.012,21.696,0.091,270.975,220.09,3.271,0.671,5.638e7,2763.847,369.285,0.626,0.626,0.397,0.153,0.076,0.047,0.154,4.076e-4,0,0,0,0,-5.312e-6,0.029,15.558,190.094,88.141,0.005,2.034,13.344,983.377,339.386,0.05,0.022
2.335,266.206,232.371,94.572,232.461,94.604,5.201,2.576e-4,5.201,0.003,6.475,2.466,28.61,-80.6,9.791,0.187,-3.544e-6,1.513,-0.01,2.263e4,4914.379,21.618,0.091,271.359,219.78,3.315,0.685,5.75e7,2747.781,385.439,0.628,0.628,0.396,0.154,0.077,0.035,0.117,1.526e-4,0,0,0,0,1.711e-4,0.03,15.558,190.094,88.106,0.014,1.975,13.27,982.029,339.34,0.05,0.022
2.385,277.941,237.053,93.405,237.145,93.457,5.528,2.911e-4,5.528,0.003,6.614,3.105,28.61,-80.6,9.791,0.088,3.734e-6,2.576,-0.014,2.256e4,4847.745,21.54,0.091,271.88,219.467,3.369,0.699,5.861e7,2731.327,401.786,0.63,0.63,0.396,0.156,0.078,0.017,0.056,-1.44e-4,0,0,0,0,4.767e-4,0.03,15.558,190.094,87.997,0.018,2.033,13.193,980.652,339.294,0.05,0.023
2.435,289.91,241.675,92.198,241.77,92.297,5.863,3.34e-4,5.863,0.003,6.796,4.269,28.61,-80.6,9.791,0.089,4.162e-6,-2.707,-0.015,2.25e4,4781.448,21.462,0.091,272.055,219.154,3.4,0.713,5.969e7,2714.815,418.301,0.631,0.631,0.395,0.157,0.079,0.017,0.057,4.131e-5,0,0,0,0,-5.067e-4,0.031,15.558,190.094,87.857,0.017,1.852,13.116,979.248,339.247,0.05,0.023
2.485,302.107,246.232,90.925,246.333,91.058,6.209,3.863e-4,6.209,0.004,7.033,4.92,28.61,-80.6,9.791,0.175,-5.053e-6,-1.254,9.433e-4,2.243e4,4716.245,21.385,0.091,271.886,218.844,3.409,0.726,6.076e7,2696.896,435.005,0.633,0.633,0.394,0.159,0.08,0.033,0.113,1.652e-4,0,0,0,0,-1.047e-4,0.032,15.558,190.094,87.754,0.015,1.839,13.036,977.818,339.199,0.05,0.024
2.535,314.532,250.726,89.634,250.832,89.774,6.567,4.468e-4,6.567,0.004,7.283,5.016,28.61,-80.6,9.791,0.185,-1.483e-6,0.404,-0.006,2.237e4,4651.041,21.307,0.091,272.008,218.533,3.437,0.74,6.181e7,2678.37,451.799,0.635,0.635,0.393,0.16,0.082,0.035,0.121,3.281e-4,0,0,0,0,1.048e-5,0.032,15.558,190.094,87.734,0.011,1.814,12.956,976.361,339.15,0.05,0.024
2.585,327.179,255.155,88.362,255.266,88.472,6.937,5.123e-4,6.937,0.004,7.522,4.413,28.61,-80.6,9.791,0.108,-5.568e-7,1.963,-0.017,2.23e4,4585.838,21.229,0.09,272.461,218.22,3.487,0.753,6.284e7,2659.844,468.657,0.637,0.637,0.392,0.162,0.083,0.02,0.071,-3.763e-4,0,0,0,0,2.388e-4,0.033,15.558,190.094,87.8,0.001,1.797,12.873,974.877,339.1,0.05,0.025
2.635,340.046,259.52,87.089,259.635,87.153,7.318,5.761e-4,7.318,0.005,7.715,3.337,28.61,-80.6,9.791,0.025,9.289e-6,-2.39,-0.062,2.224e4,4521.951,21.152,0.09,272.988,217.911,3.54,0.766,6.385e7,2641.336,485.625,0.639,0.639,0.392,0.164,0.084,0.005,0.017,-1.04e-4,0,0,0,0,-3.425e-4,0.033,15.558,190.094,87.918,-0.006,1.855,12.79,973.368,339.049,0.05,0.025
2.685,353.129,263.822,85.796,263.939,85.829,7.708,6.325e-4,7.708,0.005,7.853,2.384,28.61,-80.6,9.791,0.134,3.951e-6,-1.449,-0.014,2.217e4,4458.251,21.075,0.09,272.711,217.601,3.542,0.779,6.484e7,2622.856,502.704,0.641,0.641,0.391,0.165,0.085,0.025,0.09,-7.588e-5,0,0,0,0,-1.218e-4,0.034,15.558,190.094,88.02,-0.005,1.916,12.705,971.834,338.998,0.05,0.026
2.735,366.426,268.058,84.469,268.176,84.496,8.103,6.831e-4,8.103,0.005,7.959,2.141,28.61,-80.6,9.791,0.15,-2.919e-6,0.29,-0.014,2.211e4,4394.552,20.997,0.09,272.814,217.29,3.569,0.791,6.581e7,2604.376,519.803,0.643,0.643,0.39,0.167,0.086,0.029,0.102,3.043e-4,0,0,0,0,4.734e-6,0.034,15.558,190.094,88.048,0.006,1.902,12.618,970.274,338.946,0.05,0.026
2.785,379.934,272.226,83.102,272.346,83.14,8.504,7.358e-4,8.504,0.005,8.072,2.529,28.61,-80.6,9.791,0.097,7.477e-6,1.772,-0.016,2.205e4,4331.713,20.92,0.09,273.175,216.981,3.612,0.804,6.676e7,2585.713,536.914,0.644,0.644,0.389,0.168,0.087,0.018,0.067,-4.515e-4,0,0,0,0,1.71e-4,0.035,15.558,190.094,87.99,0.021,1.946,12.53,968.69,338.892,0.05,0.027
2.835,393.647,276.324,81.668,276.446,81.734,8.911,8.018e-4,8.911,0.005,8.217,3.289,28.61,-80.6,9.791,0.009,4.418e-6,2.447,-0.154,2.199e4,4269.565,20.843,0.09,273.596,216.674,3.659,0.816,6.769e7,2566.154,554.048,0.646,0.646,0.388,0.17,0.088,0.002,0.006,1.684e-4,0,0,0,0,3.166e-4,0.035,15.558,190.094,87.875,0.024,2.063,12.441,967.082,338.838,0.05,0.027
2.885,407.564,280.348,80.209,280.474,80.323,9.326,8.828e-4,9.326,0.005,8.407,4.276,28.61,-80.6,9.791,0.105,-9.492e-7,-1.861,-0.012,2.192e4,4207.417,20.766,0.09,273.502,216.365,3.673,0.828,6.86e7,2546.477,571.177,0.648,0.648,0.387,0.172,0.089,0.02,0.074,-2.332e-4,0,0,0,0,-1.778e-4,0.036,15.558,190.094,87.76,0.016,2.016,12.351,965.45,338.784,0.05,0.027
2.935,421.681,284.3,78.764,284.431,78.907,9.752,9.721e-4,9.752,0.006,8.639,4.749,28.61,-80.6,9.791,0.159,-4.908e-6,0.08,-0.001,2.186e4,4145.564,20.689,0.09,273.457,216.056,3.69,0.84,6.949e7,2526.842,588.268,0.65,0.65,0.387,0.173,0.09,0.031,0.112,4.021e-4,0,0,0,0,3.19e-7,0.036,15.558,190.094,87.714,0.005,1.877,12.259,963.794,338.728,0.05,0.028
2.985,435.993,288.183,77.415,288.32,77.534,10.19,0.001,10.19,0.006,8.87,4.304,28.61,-80.6,9.791,0.118,1.447e-6,2.129,-0.021,2.18e4,4084.933,20.613,0.09,273.778,215.751,3.73,0.851,7.035e7,2508.681,605.274,0.652,0.652,0.386,0.175,0.091,0.023,0.084,-2.507e-4,0,0,0,0,2.203e-4,0.037,15.558,190.094,87.777,-0.007,1.708,12.166,962.115,338.672,0.05,0.028
3.035,450.498,292.002,76.126,292.142,76.183,10.638,0.001,10.638,0.006,9.053,2.951,28.61,-80.6,9.791,0.017,-2.335e-6,-2.959,-0.101,2.174e4,4024.302,20.537,0.09,274.39,215.444,3.789,0.863,7.12e7,2491.247,622.258,0.654,0.654,0.385,0.176,0.092,0.003,0.012,-1.759e-4,0,0,0,0,-4.147e-4,0.037,15.558,190.094,87.918,-0.009,1.671,12.072,960.414,338.614,0.05,0.028
3.085,465.192,295.756,74.818,295.898,74.839,11.094,0.001,11.094,0.006,9.163,1.779,28.61,-80.6,9.791,0.126,-2.849e-6,-1.684,-0.013,2.168e4,3963.671,20.46,0.09,274.096,215.136,3.79,0.874,7.203e7,2473.813,639.243,0.656,0.656,0.384,0.178,0.094,0.024,0.092,2.914e-4,0,0,0,0,-1.309e-4,0.038,15.558,190.094,88.045,0.003,1.642,11.976,958.691,338.557,0.05,0.028
3.135,480.072,299.447,73.544,299.589,73.561,11.554,0.001,11.554,0.006,9.238,1.613,28.61,-80.6,9.791,0.131,-6.992e-6,0.497,-0.002,2.162e4,3904.064,20.385,0.09,274.237,214.831,3.818,0.885,7.284e7,2458.017,656.138,0.657,0.657,0.383,0.179,0.095,0.025,0.096,-3.728e-4,0,0,0,0,1.112e-5,0.038,15.558,190.094,88.072,0.017,1.568,11.88,956.946,338.498,0.05,0.029
3.185,495.135,303.08,72.376,303.224,72.412,12.018,0.001,12.018,0.006,9.331,2.261,28.61,-80.6,9.791,0.064,-5.463e-7,2.08,-0.029,2.156e4,3844.66,20.309,0.09,274.653,214.526,3.865,0.896,7.363e7,2445.218,672.99,0.659,0.659,0.383,0.181,0.096,0.012,0.047,-3.474e-4,0,0,0,0,1.901e-4,0.039,15.558,190.094,87.995,0.024,1.614,11.782,955.179,338.439,0.05,0.029
3.235,510.379,306.655,71.226,306.802,71.309,12.488,0.001,12.488,0.007,9.474,3.447,28.61,-80.6,9.791,0.052,3.915e-6,-2.248,-0.034,2.15e4,3785.256,20.232,0.09,274.894,214.219,3.9,0.907,7.441e7,2432.483,688.938,0.66,0.66,0.381,0.182,0.097,0.01,0.039,2.112e-4,0,0,0,0,-2.171e-4,0.039,15.558,190.094,87.871,0.02,1.611,11.683,953.449,338.379,0.05,0.029
3.285,525.798,310.129,69.22,310.28,69.333,12.966,0.002,12.966,0.007,9.667,3.947,28.61,-80.6,9.791,0.1,-8.169e-6,-0.677,-0.002,2.145e4,3729.406,20.16,0.089,274.863,213.928,3.917,0.917,7.517e7,2400.606,704.149,0.661,0.661,0.379,0.184,0.098,0.019,0.075,7.724e-6,0,0,0,0,-1.927e-5,0.04,15.558,190.094,87.793,0.01,1.691,11.582,951.726,338.318,0.05,0.03
3.335,541.383,313.252,62.231,313.407,62.334,13.454,0.002,13.454,0.007,9.854,3.574,28.61,-80.6,9.791,0.088,-7.339e-7,0.972,-0.014,2.139e4,3676.904,20.092,0.089,275.055,213.654,3.947,0.927,7.584e7,2260.421,717.825,0.661,0.661,0.377,0.185,0.099,0.017,0.067,-1.215e-4,0,0,0,0,3.889e-5,0.04,15.558,190.094,87.806,0.004,1.641,11.481,949.985,338.256,0.05,0.03
3.385,557.114,315.987,54.53,316.145,54.574,13.951,0.002,13.951,0.007,9.996,2.193,28.61,-80.6,9.791,0.014,-1.023e-5,-1.878,-0.032,2.134e4,3624.403,20.023,0.089,275.517,213.379,3.994,0.935,7.641e7,2103.236,729.784,0.661,0.661,0.375,0.187,0.1,0.003,0.01,1.265e-5,0,0,0,0,-1.427e-4,0.04,15.558,190.094,87.894,-0.001,1.714,11.379,948.227,338.194,0.05,0.03
3.435,572.972,318.332,46.732,318.491,46.744,14.452,0.002,14.452,0.007,10.062,1.069,28.61,-80.6,9.79,0.089,-1.508e-6,-0.669,-0.008,2.129e4,3575.33,19.959,0.089,275.33,213.12,3.999,0.942,7.688e7,1943.508,739.983,0.662,0.662,0.374,0.188,0.1,0.017,0.069,-1.062e-4,0,0,0,0,-1.785e-5,0.041,15.558,190.094,87.968,-0.001,1.792,11.276,946.456,338.132,0.05,0.03
3.485,588.931,320.036,33.935,320.195,33.943,14.956,0.002,14.956,0.007,10.087,0.725,28.61,-80.6,9.79,0.078,-7.505e-6,1.073,-0.017,2.126e4,3542.441,19.915,0.089,275.467,212.946,4.019,0.947,7.72e7,1676.645,747.099,0.662,0.662,0.373,0.189,0.101,0.015,0.061,-1.773e-5,0,0,0,0,4.538e-5,0.041,15.558,190.094,87.954,0.004,1.817,11.172,944.672,338.069,0.05,0.031
3.535,604.957,320.969,18.582,321.128,18.612,15.461,0.002,15.461,0.007,10.115,1.058,28.61,-80.6,9.79,0.004,-1.107e-5,-1.851,0.014,2.123e4,3509.553,19.872,0.089,275.799,212.771,4.051,0.95,7.733e7,1353.165,750.476,0.662,0.662,0.372,0.189,0.101,8.133e-4,0.003,4.062e-4,0,0,0,0,-1.343e-4,0.041,15.558,190.094,87.866,0.015,1.803,11.068,942.882,338.006,0.05,0.031
3.585,621.009,321.137,3.362,321.297,3.552,15.968,0.002,15.968,0.008,10.163,1.148,28.61,-80.6,9.79,0.066,-8.517e-6,-0.992,0.007,2.119e4,3476.664,19.829,0.089,275.581,212.596,4.049,0.951,7.727e7,1029.685,750.174,0.662,0.662,0.372,0.189,0.101,0.013,0.051,1.823e-4,0,0,0,0,-3.85e-5,0.041,15.558,190.094,87.784,0.019,1.844,10.963,941.089,337.943,0.05,0.032
3.635,637.054,320.676,-9.127,320.838,9.14,16.477,0.002,16.477,0.008,10.199,0.501,28.61,-80.6,9.79,0.05,0,0.283,0.002,2.118e4,3459.763,19.806,0.089,275.63,212.506,4.058,0.95,7.706e7,761.345,746.829,0.662,0.662,0.372,0.189,0.101,0.01,0.04,-2.649e-4,0,0,0,0,3.151e-6,0.041,15.558,190.094,87.769,0.022,1.987,10.859,939.296,337.88,0.05,0.032
3.685,653.068,319.848,-16.43,320.01,16.433,16.987,0.002,16.987,0.008,10.197,0.303,28.61,-80.6,9.79,8.161e-4,-2.825e-6,-0.594,0.426,2.116e4,3446.495,19.788,0.089,275.05,212.435,4.025,0.948,7.677e7,601.12,741.712,0.662,0.662,0.373,0.189,0.101,1.586e-4,1.992e-4,-2.659e-4,0,0,0,0,-1.392e-5,0.041,15.558,190.094,87.805,0.018,2.083,10.755,937.507,337.816,0.05,0.032
3.735,669.03,318.663,-23.537,318.825,23.553,17.496,0.002,17.496,0.008,10.156,0.861,28.61,-80.6,9.79,0.03,4.616e-6,-0.354,-0.007,2.115e4,3433.227,19.771,0.089,275.603,212.364,4.065,0.944,7.639e7,443.743,734.893,0.662,0.662,0.373,0.188,0.101,0.006,0.023,-4.806e-4,0,0,0,0,-4.981e-6,0.041,15.558,190.094,87.839,0.007,2.056,10.651,935.723,337.754,0.05,0.033
3.785,684.926,317.151,-30.045,317.312,30.064,18.002,0.003,18.002,0.008,10.099,1.083,28.61,-80.6,9.79,0.028,4.117e-7,0.185,0.006,2.114e4,3424.061,19.759,0.089,275.553,212.314,4.065,0.94,7.593e7,297.878,726.56,0.662,0.662,0.374,0.187,0.1,0.005,0.022,-3.668e-4,0,0,0,0,1.378e-6,0.041,15.558,190.094,87.843,-0.003,2.01,10.548,933.947,337.691,0.05,0.033
3.835,700.742,315.496,-32.911,315.655,32.927,18.506,0.003,18.506,0.008,10.042,1.042,28.61,-80.6,9.79,0.012,-1.318e-6,0.558,0.017,2.114e4,3419.434,19.752,0.089,275.573,212.29,4.068,0.935,7.544e7,228.546,717.631,0.661,0.661,0.375,0.187,0.1,0.002,0.009,2.298e-4,0,0,0,0,1.262e-5,0.04,15.558,190.094,87.82,-0.002,2.033,10.445,932.18,337.629,0.05,0.034
3.885,716.472,313.73,-35.092,313.889,35.106,19.006,0.003,19.006,0.008,9.99,0.976,28.61,-80.6,9.79,0.004,-5.916e-7,-0.639,0.022,2.113e4,3414.807,19.746,0.089,275.425,212.265,4.06,0.93,7.493e7,173.299,708.283,0.661,0.661,0.376,0.186,0.099,8.21e-4,0.004,3.803e-4,0,0,0,0,-1.673e-5,0.04,15.558,190.094,87.786,0.008,2.109,10.343,930.423,337.567,0.05,0.034
3.935,732.112,311.857,-37.236,312.015,37.25,19.505,0.003,19.505,0.008,9.939,1.012,28.61,-80.6,9.79,0.011,3.095e-6,-0.481,-0.018,2.113e4,3410.603,19.741,0.089,275.389,212.242,4.059,0.925,7.439e7,118.355,698.531,0.661,0.661,0.377,0.185,0.099,0.002,0.008,-4.556e-4,0,0,0,0,-9.609e-6,0.04,15.558,190.094,87.756,0.018,2.215,10.241,928.676,337.505,0.05,0.035
3.985,747.656,309.926,-38.394,310.083,38.408,20,0.003,20,0.009,9.886,1.047,28.61,-80.6,9.79,0.013,1.295e-6,-0.278,-0.013,2.112e4,3409.114,19.739,0.089,275.243,212.234,4.05,0.919,7.384e7,84.011,688.603,0.661,0.661,0.378,0.184,0.098,0.002,0.01,-2.735e-4,0,0,0,0,-3.255e-6,0.04,15.558,190.094,87.738,0.018,2.284,10.14,926.939,337.444,0.05,0.035
4.035,763.103,307.966,-38.961,308.123,38.973,20.493,0.003,20.493,0.009,9.835,0.966,28.61,-80.6,9.79,0.024,3.036e-7,0.029,0.004,2.112e4,3407.626,19.737,0.089,275.077,212.226,4.04,0.914,7.328e7,62.171,678.626,0.66,0.66,0.38,0.183,0.097,0.005,0.019,8.769e-5,0,0,0,0,3.607e-8,0.039,15.558,190.094,87.732,0.01,2.224,10.04,925.213,337.383,0.05,0.036
4.085,778.452,305.978,-39.517,306.135,39.534,20.984,0.003,20.984,0.009,9.783,1.159,28.61,-80.6,9.79,0.005,0,0.417,-0.012,2.112e4,3406.137,19.735,0.089,275.022,212.218,4.037,0.908,7.272e7,40.33,668.635,0.66,0.66,0.381,0.183,0.097,0.001,0.004,3.123e-5,0,0,0,0,7.483e-6,0.039,15.558,190.094,87.746,0.004,2.228,9.94,923.498,337.323,0.05,0.036
4.135,793.701,303.973,-39.869,304.128,39.889,21.471,0.003,21.471,0.009,9.72,1.245,28.61,-80.6,9.79,0.004,3.466e-7,-0.317,-0.024,2.112e4,3405.57,19.734,0.089,275.122,212.215,4.043,0.902,7.216e7,22.858,658.659,0.66,0.66,0.382,0.182,0.096,6.737e-4,0.003,3.273e-5,0,0,0,0,-4.389e-6,0.039,15.558,190.094,87.766,0.003,2.165,9.841,921.795,337.263,0.05,0.037
4.185,808.849,301.974,-39.736,302.128,39.763,21.956,0.003,21.956,0.009,9.653,1.45,28.61,-80.6,9.79,0.028,-5.568e-7,-0.163,-0.005,2.112e4,3405.272,19.734,0.089,274.805,212.214,4.023,0.896,7.159e7,15.199,648.354,0.659,0.659,0.383,0.181,0.096,0.005,0.022,-2.666e-4,0,0,0,0,-1.179e-6,0.039,15.558,190.094,87.78,0.01,2.208,9.742,920.102,337.203,0.05,0.037
4.235,823.898,299.982,-39.59,300.135,39.615,22.436,0.004,22.436,0.009,9.578,1.424,28.61,-80.6,9.79,0.026,3.562e-7,0.442,-0.002,2.112e4,3404.974,19.733,0.089,274.723,212.212,4.018,0.89,7.104e7,7.91,637.948,0.658,0.658,0.383,0.18,0.095,0.005,0.019,6.655e-5,0,0,0,0,8.746e-6,0.038,15.558,190.094,87.772,0.013,2.24,9.645,918.421,337.144,0.05,0.037
4.264,832.658,298.82,-39.584,298.972,39.605,22.716,0.004,22.716,0.009,9.538,1.281,28.61,-80.6,9.79,0.009,0,0.64,0.004,2.112e4,3404.8,19.733,0.089,274.739,212.211,4.019,0.887,7.071e7,2.133,631.922,0.658,0.658,0.383,0.18,0.095,0.002,0.006,4.364e-4,0,0,0,0,1.854e-5,0.038,15.558,190.094,87.755,0.013,2.218,9.588,917.442,337.109,0.029,0.038
4.308,845.735,297.087,-39.273,297.239,39.286,23.134,0.004,23.134,0.009,9.488,1.011,28.61,-80.6,9.79,0.023,-1.749e-6,-0.479,0.006,2.112e4,3404.8,19.733,0.089,274.597,212.211,4.01,0.882,7.023e7,0,623.01,0.657,0.657,0.384,0.179,0.094,0.004,0.017,2.19e-4,0,0,0,0,-1.051e-5,0.038,15.558,190.094,87.729,0.009,2.165,9.503,915.981,337.058,0.044,0.038
4.358,860.54,295.135,-38.806,295.286,38.817,23.607,0.004,23.607,0.009,9.441,0.916,28.61,-80.6,9.79,0.033,-7.346e-7,-0.038,-0.003,2.112e4,3404.8,19.733,0.089,274.466,212.211,4.002,0.876,6.968e7,0,613.079,0.656,0.656,0.384,0.178,0.094,0.006,0.025,1.055e-4,0,0,0,0,-6.767e-8,0.038,15.558,190.094,87.716,0.001,2.154,9.406,914.327,336.999,0.05,0.039
4.408,875.249,293.206,-38.346,293.357,38.357,24.078,0.004,24.078,0.009,9.398,0.887,28.61,-80.6,9.79,0.034,-3.546e-7,0.579,-0.014,2.112e4,3404.8,19.733,0.089,274.374,212.211,3.996,0.871,6.914e7,0,603.348,0.655,0.655,0.384,0.177,0.093,0.006,0.026,5.493e-5,0,0,0,0,1.573e-5,0.038,15.558,190.094,87.73,-0.004,2.041,9.311,912.684,336.941,0.05,0.039
4.458,889.861,291.3,-37.888,291.45,37.903,24.546,0.004,24.546,0.009,9.349,1.087,28.61,-80.6,9.789,0.005,-5.485e-6,0.869,-0.029,2.112e4,3404.8,19.733,0.089,274.374,212.211,3.996,0.865,6.861e7,0,593.836,0.654,0.654,0.385,0.177,0.093,0.001,0.004,-1.204e-4,0,0,0,0,3.589e-5,0.037,15.558,190.094,87.77,-0.002,1.97,9.216,911.051,336.884,0.05,0.04
4.508,904.379,289.417,-37.439,289.566,37.461,25.012,0.004,25.012,0.009,9.289,1.301,28.61,-80.6,9.789,0.026,1.346e-6,-0.742,-0.015,2.112e4,3404.8,19.733,0.089,274.274,212.211,3.989,0.86,6.809e7,0,584.534,0.653,0.653,0.385,0.176,0.092,0.005,0.019,-2.709e-4,0,0,0,0,-2.657e-5,0.037,15.558,190.094,87.814,0.009,1.9,9.122,909.429,336.827,0.05,0.04
4.558,918.803,287.557,-37,287.704,37.032,25.475,0.004,25.475,0.009,9.216,1.517,28.61,-80.6,9.789,0.056,-1.881e-6,-0.04,-8.919e-4,2.112e4,3404.8,19.733,0.089,274.063,212.211,3.976,0.855,6.757e7,0,575.458,0.652,0.652,0.386,0.175,0.092,0.011,0.043,-4.725e-6,0,0,0,0,-7.858e-8,0.037,15.558,190.094,87.835,0.019,1.96,9.028,907.817,336.77,0.05,0.04
4.608,933.135,285.717,-36.583,285.863,36.61,25.934,0.004,25.934,0.009,9.14,1.399,28.61,-80.6,9.789,0.043,1.738e-6,0.785,-0.002,2.112e4,3404.8,19.733,0.089,274.028,212.211,3.973,0.849,6.706e7,0,566.565,0.651,0.651,0.386,0.174,0.091,0.008,0.033,4.053e-4,0,0,0,0,3.044e-5,0.037,15.558,190.094,87.814,0.019,1.991,8.935,906.216,336.713,0.05,0.041
4.658,947.375,283.898,-36.186,284.043,36.199,26.389,0.004,26.389,0.01,9.08,0.989,28.61,-80.6,9.789,0.01,9.525e-7,-1.022,-0.012,2.112e4,3404.8,19.733,0.089,274.091,212.211,3.978,0.844,6.655e7,0,557.847,0.651,0.651,0.386,0.174,0.091,0.002,0.008,3.248e-4,0,0,0,0,-5.235e-5,0.036,15.558,190.094,87.763,0.011,1.95,8.842,904.625,336.657,0.05,0.041
4.708,961.525,282.098,-35.796,282.243,35.801,26.842,0.005,26.842,0.01,9.043,0.636,28.61,-80.6,9.789,0.057,0,-0.454,-0.009,2.112e4,3404.8,19.733,0.089,273.819,212.211,3.96,0.839,6.605e7,0,549.316,0.65,0.65,0.387,0.173,0.09,0.011,0.043,-4.62e-4,0,0,0,0,-1.047e-5,0.036,15.558,190.094,87.721,-0.003,1.881,8.75,903.044,336.601,0.05,0.041
4.758,975.586,280.318,-35.398,280.463,35.405,27.294,0.005,27.294,0.01,9.011,0.692,28.61,-80.6,9.789,0.048,4.911e-7,0.282,-0.014,2.112e4,3404.8,19.733,0.089,273.764,212.211,3.957,0.834,6.556e7,0,540.972,0.649,0.649,0.387,0.172,0.09,0.009,0.037,2.687e-5,0,0,0,0,4.076e-6,0.036,15.558,190.094,87.718,-0.012,1.913,8.659,901.473,336.546,0.05,0.042
4.808,989.557,278.558,-35.002,278.703,35.013,27.743,0.005,27.743,0.01,8.973,0.907,28.61,-80.6,9.789,0.016,-1.033e-6,0.807,-0.018,2.112e4,3404.8,19.733,0.089,273.788,212.211,3.958,0.828,6.508e7,0,532.791,0.648,0.648,0.387,0.172,0.089,0.003,0.012,-4.828e-4,0,0,0,0,3.389e-5,0.036,15.558,190.094,87.75,-0.008,1.893,8.568,899.912,336.491,0.05,0.042
4.858,1003.442,276.818,-34.609,276.962,34.633,28.191,0.005,28.191,0.01,8.917,1.284,28.61,-80.6,9.789,0.04,-3.401e-6,-0.609,-0.005,2.112e4,3404.8,19.733,0.089,273.675,212.211,3.951,0.823,6.46e7,0,524.809,0.647,0.647,0.388,0.171,0.089,0.008,0.03,-1.887e-4,0,0,0,0,-1.956e-5,0.035,15.558,190.094,87.791,0.01,1.973,8.478,898.38,336.436,0.05,0.042
4.908,1017.24,275.097,-34.234,275.239,34.264,28.635,0.005,28.635,0.01,8.846,1.423,28.61,-80.6,9.789,0.062,6.767e-7,0.185,-0.004,2.112e4,3404.8,19.733,0.089,273.506,212.211,3.94,0.818,6.413e7,0,517.019,0.647,0.647,0.388,0.17,0.088,0.012,0.046,1.777e-4,0,0,0,0,1.823e-6,0.035,15.558,190.094,87.803,0.023,2.024,8.388,896.912,336.382,0.05,0.043
4.958,1030.952,273.394,-33.882,273.535,33.901,29.075,0.005,29.075,0.01,8.781,1.143,28.61,-80.6,9.789,0.024,-1.793e-6,0.701,-0.021,2.112e4,3404.8,19.733,0.089,273.558,212.211,3.943,0.814,6.366e7,0,509.354,0.646,0.646,0.388,0.17,0.088,0.005,0.018,3.163e-4,0,0,0,0,2.652e-5,0.035,15.558,190.094,87.777,0.028,1.943,8.299,895.453,336.328,0.05,0.043
5.008,1044.579,271.709,-33.535,271.849,33.548,29.513,0.005,29.513,0.01,8.729,0.928,28.61,-80.6,9.789,0.007,1.613e-6,-0.891,-0.099,2.112e4,3404.8,19.733,0.089,273.752,212.211,3.956,0.809,6.32e7,0,501.867,0.645,0.645,0.389,0.169,0.087,0.001,0.005,-3.301e-4,0,0,0,0,-4.343e-5,0.035,15.558,190.094,87.733,0.026,1.99,8.21,894.004,336.274,0.05,0.043
5.058,1058.123,270.041,-33.198,270.18,33.204,29.949,0.005,29.949,0.01,8.692,0.655,28.61,-80.6,9.789,0.046,-1.954e-6,-0.451,-0.007,2.112e4,3404.8,19.733,0.089,273.393,212.211,3.933,0.804,6.275e7,0,494.516,0.644,0.644,0.389,0.168,0.087,0.009,0.034,9.955e-5,0,0,0,0,-1.126e-5,0.035,15.558,190.094,87.696,0.02,1.937,8.122,892.563,336.221,0.05,0.043
5.108,1071.584,268.389,-32.855,268.529,32.863,30.382,0.005,30.382,0.01,8.658,0.707,28.61,-80.6,9.789,0.038,-2.229e-6,0.043,-3.199e-4,2.112e4,3404.8,19.733,0.089,273.346,212.211,3.93,0.799,6.23e7,0,487.323,0.644,0.644,0.389,0.168,0.087,0.007,0.028,1.956e-4,0,0,0,0,1.051e-7,0.034,15.558,190.094,87.687,0.012,2.001,8.035,891.131,336.168,0.05,0.044
5.158,1084.962,266.755,-32.518,266.894,32.527,30.814,0.005,30.814,0.01,8.623,0.756,28.61,-80.6,9.789,0.028,7.241e-7,0.548,-0.002,2.112e4,3404.8,19.733,0.089,273.301,212.211,3.927,0.794,6.186e7,0,480.25,0.643,0.643,0.39,0.167,0.086,0.005,0.021,-2.578e-4,0,0,0,0,1.701e-5,0.034,15.558,190.094,87.704,0.007,1.937,7.948,889.708,336.115,0.05,0.044
5.208,1098.259,265.138,-32.18,265.276,32.196,31.245,0.005,31.245,0.01,8.579,1.002,28.61,-80.6,9.789,0.012,5.56e-7,-0.589,-0.02,2.112e4,3404.8,19.733,0.089,273.359,212.211,3.93,0.79,6.142e7,0,473.329,0.642,0.642,0.39,0.167,0.086,0.002,0.01,1.057e-4,0,0,0,0,-1.992e-5,0.034,15.558,190.094,87.736,0.005,1.972,7.861,888.294,336.063,0.05,0.044
5.258,1111.476,263.537,-31.854,263.675,31.873,31.672,0.006,31.672,0.01,8.525,1.092,28.61,-80.6,9.789,0.03,-4.205e-6,-0.337,0.006,2.112e4,3404.8,19.733,0.089,273.184,212.211,3.919,0.785,6.098e7,0,466.529,0.642,0.642,0.39,0.166,0.085,0.006,0.022,-4.336e-4,0,0,0,0,-6.609e-6,0.034,15.558,190.094,87.761,0.007,1.924,7.775,886.888,336.011,0.05,0.044
5.308,1124.613,261.952,-31.539,262.089,31.557,32.097,0.006,32.097,0.01,8.47,1.081,28.61,-80.6,9.789,0.031,-5.573e-7,0.055,-0.012,2.112e4,3404.8,19.733,0.089,273.111,212.211,3.915,0.78,6.055e7,0,459.861,0.641,0.641,0.391,0.165,0.085,0.006,0.023,-1.377e-4,0,0,0,0,1.782e-7,0.034,15.558,190.094,87.767,0.012,1.89,7.69,885.49,335.959,0.05,0.045
5.358,1137.672,260.383,-31.234,260.519,31.248,32.519,0.006,32.519,0.01,8.419,0.93,28.61,-80.6,9.789,0.009,-2.477e-6,0.319,-0.016,2.112e4,3404.8,19.733,0.089,273.111,212.211,3.915,0.776,6.013e7,0,453.312,0.64,0.64,0.391,0.165,0.085,0.002,0.006,4.66e-4,0,0,0,0,6.051e-6,0.033,15.558,190.094,87.756,0.02,1.824,7.605,884.101,335.908,0.05,0.045
5.408,1150.652,258.828,-30.937,258.964,30.946,32.939,0.006,32.939,0.01,8.379,0.732,28.61,-80.6,9.789,0.022,-1.863e-6,-0.164,-2.865e-4,2.112e4,3404.8,19.733,0.089,273.06,212.211,3.911,0.771,5.971e7,0,446.882,0.64,0.64,0.391,0.164,0.084,0.004,0.016,3.629e-4,0,0,0,0,-1.614e-6,0.033,15.558,190.094,87.741,0.024,1.723,7.521,882.721,335.856,0.05,0.046
5.458,1163.555,257.289,-30.636,257.424,30.647,33.357,0.006,33.357,0.01,8.34,0.828,28.61,-80.6,9.789,0.005,-1.69e-6,-0.089,-0.003,2.112e4,3404.8,19.733,0.089,273.152,212.211,3.917,0.767,5.929e7,0,440.599,0.639,0.639,0.391,0.164,0.084,9.116e-4,0.004,3.506e-4,0,0,0,0,-4.783e-7,0.033,15.558,190.094,87.735,0.024,1.817,7.437,881.348,335.806,0.05,0.046
5.508,1176.381,255.765,-30.344,255.899,30.354,33.773,0.006,33.773,0.01,8.299,0.78,28.61,-80.6,9.789,0.011,-1.518e-6,3.868e-4,-5.697e-4,2.112e4,3404.8,19.733,0.089,272.997,212.211,3.907,0.762,5.888e7,0,434.413,0.638,0.638,0.392,0.163,0.083,0.002,0.008,1.294e-4,0,0,0,0,0,0.033,15.558,190.094,87.734,0.021,1.771,7.354,879.984,335.755,0.05,0.046
5.558,1189.131,254.255,-30.061,254.389,30.068,34.187,0.006,34.187,0.011,8.265,0.644,28.61,-80.6,9.789,0.031,-2.243e-6,0.306,-0.004,2.112e4,3404.8,19.733,0.089,272.825,212.211,3.896,0.758,5.847e7,0,428.327,0.638,0.638,0.392,0.163,0.083,0.006,0.023,-2.971e-4,0,0,0,0,5.848e-6,0.033,15.558,190.094,87.741,0.014,1.619,7.271,878.628,335.705,0.05,0.046
5.608,1201.807,252.759,-29.775,252.893,29.784,34.6,0.006,34.6,0.011,8.231,0.749,28.61,-80.6,9.789,0.011,-4.094e-7,0.578,-0.02,2.112e4,3404.8,19.733,0.089,272.8,212.211,3.895,0.754,5.807e7,0,422.366,0.637,0.637,0.392,0.162,0.083,0.002,0.008,-1.413e-4,0,0,0,0,2.108e-5,0.032,15.558,190.094,87.764,0.009,1.591,7.188,877.279,335.655,0.05,0.047
5.658,1214.408,251.277,-29.488,251.41,29.506,35.01,0.007,35.01,0.011,8.185,1.03,28.61,-80.6,9.788,0.04,-2.703e-6,-0.306,-0.002,2.112e4,3404.8,19.733,0.089,272.682,212.211,3.887,0.749,5.767e7,0,416.537,0.636,0.636,0.393,0.162,0.082,0.008,0.029,-2.512e-4,0,0,0,0,-5.967e-6,0.032,15.558,190.094,87.789,0.009,1.709,7.106,875.939,335.605,0.05,0.047
5.708,1226.935,249.81,-29.218,249.942,29.233,35.418,0.007,35.418,0.011,8.135,0.954,28.61,-80.6,9.788,0.03,-1.376e-6,0.012,-0.002,2.112e4,3404.8,19.733,0.089,272.673,212.211,3.886,0.745,5.728e7,0,410.78,0.636,0.636,0.393,0.161,0.082,0.006,0.022,-1.62e-4,0,0,0,0,9.563e-9,0.032,15.558,190.094,87.796,0.01,1.611,7.025,874.606,335.556,0.05,0.047
5.758,1239.389,248.355,-28.951,248.487,28.966,35.824,0.007,35.824,0.011,8.087,0.933,28.61,-80.6,9.788,0.028,-1.409e-6,0.345,0.006,2.112e4,3404.8,19.733,0.089,272.625,212.211,3.883,0.741,5.689e7,0,405.143,0.635,0.635,0.393,0.161,0.082,0.005,0.021,-2.581e-4,0,0,0,0,7.77e-6,0.032,15.558,190.094,87.786,0.011,1.639,6.944,873.282,335.507,0.05,0.048
5.808,1251.77,246.914,-28.69,247.045,28.705,36.227,0.007,36.227,0.011,8.041,0.905,28.61,-80.6,9.788,0.024,-3.579e-6,0.658,0.005,2.112e4,3404.8,19.733,0.089,272.598,212.211,3.882,0.737,5.65e7,0,399.614,0.635,0.635,0.393,0.16,0.081,0.004,0.017,-2.777e-4,0,0,0,0,2.868e-5,0.032,15.558,190.094,87.76,0.009,1.724,6.863,871.965,335.458,0.05,0.048
5.858,1264.08,245.486,-28.44,245.616,28.449,36.628,0.007,36.628,0.011,8.001,0.7,28.61,-80.6,9.788,0.013,-5.435e-7,-0.692,0.009,2.112e4,3404.8,19.733,0.089,272.55,212.211,3.878,0.732,5.612e7,0,394.167,0.634,0.634,0.394,0.16,0.081,0.002,0.01,-1.398e-4,0,0,0,0,-3.211e-5,0.031,15.558,190.094,87.724,0.009,1.695,6.783,870.655,335.41,0.05,0.048
5.908,1276.319,244.07,-28.192,244.2,28.198,37.027,0.007,37.027,0.011,7.97,0.565,28.61,-80.6,9.788,0.038,-2.279e-6,-0.399,0.008,2.112e4,3404.8,19.733,0.089,272.421,212.211,3.87,0.728,5.574e7,0,388.819,0.634,0.634,0.394,0.159,0.081,0.007,0.028,1.761e-4,0,0,0,0,-1.076e-5,0.031,15.558,190.094,87.695,0.011,1.686,6.704,869.353,335.361,0.05,0.048
5.958,1288.488,242.667,-27.94,242.797,27.948,37.425,0.007,37.425,0.011,7.94,0.668,28.61,-80.6,9.788,0.018,-1.502e-6,-0.145,0.006,2.112e4,3404.8,19.733,0.089,272.467,212.211,3.873,0.724,5.537e7,0,383.579,0.633,0.633,0.394,0.159,0.08,0.003,0.014,2.167e-4,0,0,0,0,-1.443e-6,0.031,15.558,190.094,87.683,0.018,1.807,6.625,868.059,335.314,0.05,0.049
6.008,1300.586,241.276,-27.694,241.406,27.703,37.821,0.007,37.821,0.011,7.905,0.693,28.61,-80.6,9.788,0.012,-1.356e-6,-0.029,0.003,2.112e4,3404.8,19.733,0.089,272.475,212.211,3.874,0.72,5.5e7,0,378.417,0.632,0.632,0.394,0.158,0.08,0.002,0.009,-1.222e-4,0,0,0,0,-5.661e-8,0.031,15.558,190.094,87.68,0.025,1.823,6.546,866.772,335.266,0.05,0.049
6.058,1312.615,239.897,-27.457,240.027,27.463,38.215,0.008,38.215,0.011,7.874,0.579,28.61,-80.6,9.788,0.032,-6.982e-7,0.275,0.009,2.112e4,3404.8,19.733,0.089,272.324,212.211,3.864,0.716,5.463e7,0,373.323,0.632,0.632,0.395,0.158,0.08,0.006,0.023,4.829e-4,0,0,0,0,5.294e-6,0.031,15.558,190.094,87.685,0.029,1.683,6.468,865.492,335.219,0.05,0.049
6.108,1324.576,238.531,-27.214,238.659,27.225,38.608,0.008,38.608,0.011,7.841,0.758,28.61,-80.6,9.788,0.005,-1.783e-6,-0.39,0.037,2.112e4,3404.8,19.733,0.089,272.214,212.211,3.857,0.712,5.427e7,0,368.342,0.631,0.631,0.395,0.157,0.079,0.001,0.004,3.872e-4,0,0,0,0,-1.077e-5,0.031,15.558,190.094,87.703,0.029,1.754,6.39,864.22,335.171,0.05,0.049
6.158,1336.469,237.176,-26.974,237.304,26.991,38.999,0.008,38.999,0.012,7.797,0.963,28.61,-80.6,9.788,0.048,-1.585e-6,-0.098,0.004,2.112e4,3404.8,19.733,0.089,272.131,212.211,3.852,0.708,5.391e7,0,363.455,0.631,0.631,0.395,0.157,0.079,0.009,0.035,-3.74e-4,0,0,0,0,-6.886e-7,0.03,15.558,190.094,87.718,0.029,1.866,6.313,862.955,335.125,0.05,0.05
6.208,1348.294,235.833,-26.746,235.96,26.763,39.388,0.008,39.388,0.012,7.748,0.967,28.61,-80.6,9.788,0.051,-2.169e-6,0.388,0.001,2.112e4,3404.8,19.733,0.089,272.087,212.211,3.849,0.704,5.355e7,0,358.637,0.63,0.63,0.395,0.156,0.079,0.01,0.037,3.773e-4,0,0,0,0,1.09e-5,0.03,15.558,190.094,87.71,0.023,1.896,6.236,861.697,335.078,0.05,0.05
6.258,1360.052,234.501,-26.527,234.628,26.539,39.774,0.008,39.774,0.012,7.703,0.812,28.61,-80.6,9.788,0.021,-1.478e-6,0.72,-3.015e-5,2.112e4,3404.8,19.733,0.089,272.161,212.211,3.853,0.701,5.32e7,0,353.89,0.63,0.63,0.396,0.156,0.078,0.004,0.015,2.589e-4,0,0,0,0,3.801e-5,0.03,15.558,190.094,87.681,0.017,1.878,6.16,860.446,335.032,0.05,0.05
6.308,1371.744,233.18,-26.312,233.306,26.32,40.158,0.008,40.158,0.012,7.667,0.662,28.61,-80.6,9.788,0.01,-3.918e-6,-0.761,0.025,2.112e4,3404.8,19.733,0.089,272.114,212.211,3.85,0.697,5.285e7,0,349.229,0.629,0.629,0.396,0.156,0.078,0.002,0.007,-2.721e-4,0,0,0,0,-4.294e-5,0.03,15.558,190.094,87.641,0.012,1.892,6.084,859.203,334.986,0.05,0.05
6.358,1383.37,231.87,-26.098,231.996,26.105,40.541,0.008,40.541,0.012,7.635,0.6,28.61,-80.6,9.788,0.023,-3.061e-6,-0.633,0.012,2.112e4,3404.8,19.733,0.089,272.045,212.211,3.846,0.693,5.25e7,0,344.652,0.629,0.629,0.396,0.155,0.078,0.004,0.016,1.039e-4,0,0,0,0,-3.006e-5,0.03,15.558,190.094,87.606,0.01,1.963,6.008,857.966,334.94,0.05,0.051
6.408,1394.931,230.57,-25.887,230.696,25.893,40.922,0.009,40.922,0.012,7.608,0.523,28.61,-80.6,9.788,0.039,-7.865e-7,-0.347,-4.496e-4,2.112e4,3404.8,19.733,0.089,271.95,212.211,3.84,0.689,5.216e7,0,340.143,0.628,0.628,0.396,0.155,0.078,0.007,0.028,-1.605e-5,0,0,0,0,-9.135e-6,0.03,15.558,190.094,87.582,0.008,1.971,5.933,856.736,334.894,0.05,0.051
6.458,1406.428,229.281,-25.677,229.407,25.682,41.302,0.009,41.302,0.012,7.583,0.523,28.61,-80.6,9.788,0.038,-1.702e-6,0.031,0.002,2.112e4,3404.8,19.733,0.089,271.914,212.211,3.838,0.685,5.182e7,0,335.706,0.628,0.628,0.396,0.154,0.077,0.007,0.028,6.967e-5,0,0,0,0,7.236e-8,0.029,15.558,190.094,87.574,0.009,1.976,5.858,855.513,334.849,0.05,0.051
6.508,1417.86,228.003,-25.462,228.128,25.473,41.68,0.009,41.68,0.012,7.551,0.72,28.61,-80.6,9.788,0.006,-1.787e-6,-0.135,-0.006,2.112e4,3404.8,19.733,0.089,272.042,212.211,3.846,0.682,5.148e7,0,331.357,0.627,0.627,0.397,0.154,0.077,0.001,0.004,-3.24e-4,0,0,0,0,-1.424e-6,0.029,15.558,190.094,87.581,0.011,2.113,5.784,854.297,334.804,0.05,0.051
6.558,1429.228,226.735,-25.256,226.859,25.269,42.057,0.009,42.057,0.012,7.513,0.792,28.61,-80.6,9.788,0.024,-1.696e-6,-0.007,-0.001,2.112e4,3404.8,19.733,0.089,271.906,212.211,3.837,0.678,5.115e7,0,327.067,0.627,0.627,0.397,0.153,0.077,0.004,0.017,4.409e-4,0,0,0,0,0,0.029,15.558,190.094,87.586,0.015,2.145,5.71,853.088,334.759,0.05,0.052
6.608,1440.533,225.477,-25.057,225.601,25.069,42.431,0.009,42.431,0.012,7.473,0.753,28.61,-80.6,9.788,0.017,-1.344e-6,0.185,-0.002,2.112e4,3404.8,19.733,0.089,271.874,212.211,3.835,0.674,5.081e7,0,322.837,0.626,0.626,0.397,0.153,0.076,0.003,0.012,4.869e-6,0,0,0,0,2.728e-6,0.029,15.558,190.094,87.581,0.019,2.12,5.637,851.886,334.715,0.05,0.052
6.658,1451.776,224.229,-24.866,224.352,24.873,42.804,0.009,42.804,0.012,7.44,0.608,28.61,-80.6,9.788,0.013,-1.959e-6,-0.182,0.005,2.112e4,3404.8,19.733,0.089,271.876,212.211,3.835,0.671,5.048e7,0,318.665,0.626,0.626,0.397,0.153,0.076,0.002,0.009,-3.181e-4,0,0,0,0,-2.659e-6,0.029,15.558,190.094,87.571,0.023,2.016,5.563,850.69,334.67,0.05,0.052
6.708,1462.956,222.99,-24.674,223.114,24.68,43.175,0.009,43.175,0.013,7.412,0.532,28.61,-80.6,9.788,0.029,-1.395e-6,0.02,0.004,2.112e4,3404.8,19.733,0.089,271.774,212.211,3.829,0.667,5.016e7,0,314.564,0.626,0.626,0.397,0.152,0.076,0.005,0.02,3.887e-4,0,0,0,0,3.146e-8,0.029,15.558,190.094,87.566,0.027,1.951,5.491,849.5,334.626,0.05,0.052
6.758,1474.075,221.762,-24.482,221.885,24.488,43.545,0.01,43.545,0.013,7.384,0.577,28.61,-80.6,9.788,0.017,-2.114e-6,0.174,-0.003,2.112e4,3404.8,19.733,0.089,271.803,212.211,3.83,0.663,4.984e7,0,310.536,0.625,0.625,0.398,0.152,0.076,0.003,0.013,3.536e-4,0,0,0,0,2.48e-6,0.028,15.558,190.094,87.571,0.024,1.958,5.419,848.318,334.583,0.05,0.053
6.808,1485.133,220.542,-24.294,220.665,24.3,43.914,0.01,43.914,0.013,7.356,0.557,28.61,-80.6,9.788,0.019,-1.019e-6,0.346,-6.814e-4,2.112e4,3404.8,19.733,0.089,271.725,212.211,3.825,0.66,4.952e7,0,306.56,0.625,0.625,0.398,0.152,0.075,0.004,0.014,3.742e-4,0,0,0,0,9.936e-6,0.028,15.558,190.094,87.585,0.019,1.872,5.347,847.141,334.539,0.05,0.053
6.858,1496.13,219.332,-24.106,219.455,24.114,44.281,0.01,44.281,0.013,7.327,0.621,28.61,-80.6,9.788,0.002,-1.784e-6,0.425,-0.052,2.112e4,3404.8,19.733,0.089,271.591,212.211,3.817,0.656,4.92e7,0,302.653,0.624,0.624,0.398,0.151,0.075,2.837e-4,9.68e-4,-3.572e-4,0,0,0,0,1.517e-5,0.028,15.558,190.094,87.605,0.014,1.844,5.275,845.972,334.496,0.05,0.053
6.908,1507.066,218.132,-23.922,218.253,23.932,44.646,0.01,44.646,0.013,7.294,0.666,28.61,-80.6,9.788,0.012,-9.399e-7,-0.363,-0.012,2.112e4,3404.8,19.733,0.089,271.708,212.211,3.824,0.653,4.889e7,0,298.818,0.624,0.624,0.398,0.151,0.075,0.002,0.009,4.103e-4,0,0,0,0,-1.119e-5,0.028,15.558,190.094,87.625,0.013,1.801,5.204,844.845,334.453,0.05,0.053
6.958,1517.943,216.94,-23.745,217.061,23.753,45.01,0.01,45.01,0.013,7.262,0.632,28.61,-80.6,9.788,0.007,-1.039e-6,-0.328,-0.014,2.112e4,3404.8,19.733,0.089,271.715,212.211,3.825,0.649,4.858e7,0,295.041,0.623,0.623,0.398,0.15,0.075,0.001,0.005,6.038e-6,0,0,0,0,-9.229e-6,0.028,15.558,190.094,87.642,0.016,1.696,5.133,843.744,334.41,0.05,0.054
7.008,1528.76,215.757,-23.566,215.878,23.577,45.372,0.01,45.372,0.013,7.228,0.711,28.61,-80.6,9.788,0.029,-1.752e-6,-0.152,7.659e-4,2.112e4,3404.8,19.733,0.089,271.546,212.211,3.814,0.646,4.827e7,0,291.338,0.623,0.623,0.399,0.15,0.074,0.005,0.02,-1.409e-5,0,0,0,0,-1.997e-6,0.028,15.558,190.094,87.655,0.019,1.72,5.063,842.649,334.367,0.05,0.054
7.058,1539.519,214.583,-23.393,214.704,23.404,45.733,0.011,45.733,0.013,7.193,0.698,28.61,-80.6,9.787,0.028,-1.871e-6,0.044,0.001,2.112e4,3404.8,19.733,0.089,271.517,212.211,3.812,0.642,4.797e7,0,287.683,0.623,0.623,0.399,0.15,0.074,0.005,0.019,4.256e-4,0,0,0,0,1.663e-7,0.027,15.558,190.094,87.657,0.021,1.69,4.993,841.56,334.325,0.05,0.055
7.108,1550.219,213.418,-23.223,213.538,23.234,46.092,0.011,46.092,0.013,7.157,0.698,28.61,-80.6,9.787,0.03,-1.706e-6,0.284,-0.008,2.112e4,3404.8,19.733,0.089,271.47,212.211,3.809,0.639,4.767e7,0,284.091,0.622,0.622,0.399,0.149,0.074,0.006,0.021,-3.696e-4,0,0,0,0,7.13e-6,0.027,15.558,190.094,87.649,0.025,1.716,4.924,840.477,334.283,0.05,0.055
7.158,1560.861,212.261,-23.058,212.38,23.067,46.449,0.011,46.449,0.013,7.125,0.619,28.61,-80.6,9.787,0.011,-1.676e-6,0.4,-0.015,2.112e4,3404.8,19.733,0.089,271.477,212.211,3.809,0.636,4.737e7,0,280.545,0.622,0.622,0.399,0.149,0.074,0.002,0.008,-2.203e-4,0,0,0,0,1.433e-5,0.027,15.558,190.094,87.631,0.028,1.694,4.854,839.4,334.241,0.05,0.055
7.208,1571.445,211.112,-22.893,211.231,22.902,46.804,0.011,46.804,0.013,7.093,0.624,28.61,-80.6,9.787,0.012,-9.269e-7,0.517,-0.017,2.112e4,3404.8,19.733,0.089,271.434,212.211,3.807,0.632,4.707e7,0,277.065,0.621,0.621,0.399,0.149,0.073,0.002,0.009,2.773e-4,0,0,0,0,2.423e-5,0.027,15.558,190.094,87.608,0.029,1.773,4.786,838.329,334.199,0.05,0.056
7.258,1581.972,209.971,-22.734,210.09,22.74,47.158,0.011,47.158,0.014,7.065,0.528,28.61,-80.6,9.787,0.012,-1.888e-6,-0.502,-0.015,2.112e4,3404.8,19.733,0.089,271.498,212.211,3.811,0.629,4.678e7,0,273.626,0.621,0.621,0.399,0.148,0.073,0.002,0.008,-1.748e-4,0,0,0,0,-2.307e-5,0.027,15.558,190.094,87.582,0.031,1.757,4.717,837.263,334.158,0.05,0.056
7.308,1592.442,208.839,-22.576,208.957,22.581,47.511,0.011,47.511,0.014,7.039,0.485,28.61,-80.6,9.787,0.023,0,-0.384,-0.014,2.112e4,3404.8,19.733,0.089,271.41,212.211,3.805,0.626,4.649e7,0,270.242,0.621,0.621,0.4,0.148,0.073,0.004,0.016,4.919e-4,0,0,0,0,-1.365e-5,0.027,15.558,190.094,87.559,0.03,1.779,4.649,836.203,334.116,0.05,0.056
7.358,1602.856,207.714,-22.418,207.832,22.423,47.862,0.011,47.862,0.014,7.016,0.478,28.61,-80.6,9.787,0.024,-2.095e-6,-0.222,-0.001,2.112e4,3404.8,19.733,0.089,271.352,212.211,3.801,0.622,4.62e7,0,266.908,0.62,0.62,0.4,0.148,0.073,0.004,0.017,2.942e-4,0,0,0,0,-4.614e-6,0.027,15.558,190.094,87.544,0.026,1.807,4.581,835.149,334.075,0.05,0.057
7.408,1613.214,206.597,-22.261,206.715,22.267,48.212,0.012,48.212,0.014,6.991,0.495,28.61,-80.6,9.787,0.018,-1.477e-6,-0.086,-0.007,2.112e4,3404.8,19.733,0.089,271.334,212.211,3.8,0.619,4.592e7,0,263.622,0.62,0.62,0.4,0.147,0.072,0.003,0.012,6.146e-5,0,0,0,0,-6.924e-7,0.026,15.558,190.094,87.537,0.019,1.831,4.514,834.101,334.034,0.05,0.057
7.458,1623.516,205.488,-22.108,205.606,22.113,48.561,0.012,48.561,0.014,6.967,0.497,28.61,-80.6,9.787,0.016,-1.623e-6,0.04,-0.006,2.112e4,3404.8,19.733,0.089,271.28,212.211,3.797,0.616,4.563e7,0,260.38,0.619,0.619,0.4,0.147,0.072,0.003,0.011,-3.966e-4,0,0,0,0,1.501e-7,0.026,15.558,190.094,87.536,0.012,1.817,4.447,833.058,333.994,0.05,0.058
7.508,1633.763,204.386,-21.955,204.504,21.961,48.909,0.012,48.909,0.014,6.941,0.528,28.61,-80.599,9.787,0.006,-1.767e-6,0.109,-0.014,2.112e4,3404.8,19.733,0.089,271.195,212.211,3.791,0.613,4.535e7,0,257.186,0.619,0.619,0.4,0.147,0.072,0.001,0.004,4.49e-4,0,0,0,0,1.146e-6,0.026,15.558,190.094,87.54,0.008,1.819,4.381,832.021,333.954,0.05,0.058
7.558,1643.954,203.292,-21.805,203.41,21.812,49.255,0.012,49.255,0.014,6.914,0.546,28.61,-80.599,9.787,0.002,-1.4e-6,-0.124,-0.053,2.112e4,3404.8,19.733,0.089,271.808,212.211,3.831,0.609,4.507e7,0,254.035,0.619,0.619,0.4,0.146,0.072,3.05e-4,0.001,-3.224e-4,0,0,0,0,-1.495e-6,0.026,15.558,190.094,87.547,0.007,1.801,4.314,830.99,333.913,0.05,0.058
7.608,1654.092,202.206,-21.655,202.323,21.664,49.6,0.012,49.6,0.014,6.885,0.605,28.61,-80.599,9.787,0.02,-1.693e-6,-0.063,-0.002,2.112e4,3404.8,19.733,0.089,271.252,212.211,3.795,0.606,4.48e7,0,250.936,0.618,0.618,0.401,0.146,0.072,0.004,0.015,-3.894e-4,0,0,0,0,-3.9e-7,0.026,15.558,190.094,87.552,0.011,1.832,4.248,829.963,333.873,0.05,0.059
7.658,1664.175,201.126,-21.509,201.243,21.518,49.944,0.012,49.944,0.014,6.853,0.64,28.61,-80.599,9.787,0.032,-1.711e-6,0.138,-2.741e-4,2.112e4,3404.8,19.733,0.089,271.161,212.211,3.789,0.603,4.452e7,0,247.881,0.618,0.618,0.401,0.146,0.071,0.006,0.022,3.849e-4,0,0,0,0,1.889e-6,0.026,15.558,190.094,87.551,0.015,1.865,4.183,828.943,333.834,0.05,0.059
7.708,1674.205,200.054,-21.37,200.171,21.377,50.286,0.013,50.286,0.014,6.825,0.525,28.61,-80.599,9.787,5.993e-4,-1.6e-6,0.212,-0.018,2.112e4,3404.8,19.733,0.089,271.183,212.211,3.791,0.6,4.425e7,0,244.854,0.618,0.618,0.401,0.146,0.071,1.115e-4,2.92e-4,-3.247e-4,0,0,0,0,4.547e-6,0.026,15.558,190.094,87.541,0.022,1.766,4.118,827.928,333.794,0.05,0.059
