# Time (s),Altitude (m),Vertical velocity (m/s),Vertical acceleration (m/s²),Total velocity (m/s),Total acceleration (m/s²),Position East of launch (m),Position North of launch (m),Lateral distance (m),Lateral direction (°),Lateral velocity (m/s),Lateral acceleration (m/s²),Latitude (°),Longitude (°),Gravitational acceleration (m/s²),Angle of attack (°),Roll rate (r/s),Pitch rate (r/s),Yaw rate (r/s),Mass (g),Motor mass (g),Longitudinal moment of inertia (kg·m²),Rotational moment of inertia (kg·m²),CP location (cm),CG location (cm),Stability margin calibers (​),Mach number (​),Reynolds number (​),Thrust (N),Drag force (N),Drag coefficient (​),Axial drag coefficient (​),Friction drag coefficient (​),Pressure drag coefficient (​),Base drag coefficient (​),Normal force coefficient (​),Pitch moment coefficient (​),Yaw moment coefficient (​),Side force coefficient (​),Roll moment coefficient (​),Roll forcing coefficient (​),Roll damping coefficient (​),Pitch damping coefficient (​),Coriolis acceleration (m/s²),Reference length (cm),Reference area (cm²),Vertical orientation (zenith) (°),Lateral orientation (azimuth) (°),Wind velocity (m/s),Air temperature (°C),Air pressure (mbar),Speed of sound (m/s),Simulation time step (s),Computation time (s)
0.01,0.002,0.367,36.695,0.367,36.695,0,0,0,0,0,0,28.61,-80.6,9.792,80.532,0,0,0,3.79e4,1.481e4,36.937,0.123,NaN,250.381,NaN,0.007,5.476e5,1761.816,4.278e-4,0.671,0.007,0.538,0.013,0.12,NaN,NaN,NaN,NaN,NaN,NaN,NaN,NaN,4.697e-5,16.129,204.317,90,0,2.2,15,1013.25,340.389,0.01,0.002
0.02,0.012,1.659,129.266,1.659,129.266,0,0,0,0,0,0,28.61,-80.6,9.792,52.564,0,0,0,3.788e4,1.479e4,36.931,0.123,NaN,250.358,NaN,0.008,6.702e5,5267.872,0.026,0.649,0.28,0.516,0.013,0.12,NaN,NaN,NaN,NaN,NaN,NaN,NaN,NaN,2.124e-4,16.129,204.317,90,0,2.167,15,1013.249,340.389,0.01,0.003
0.03,0.037,3.331,167.213,3.331,167.213,0,0,0,0,0,0,28.61,-80.6,9.792,32.66,0,0,0,3.785e4,1.476e4,36.919,0.123,NaN,250.316,NaN,0.012,9.714e5,6699.978,0.124,0.612,0.633,0.478,0.013,0.12,NaN,NaN,NaN,NaN,NaN,NaN,NaN,NaN,4.264e-4,16.129,204.317,90,0,2.135,15,1013.246,340.389,0.01,0.003
0.04,0.079,5.006,167.578,5.006,167.578,0,0,0,0,0,0,28.61,-80.6,9.792,22.784,0,0,0,3.782e4,1.473e4,36.907,0.123,NaN,250.274,NaN,0.016,1.333e6,6708.442,0.27,0.583,0.732,0.449,0.013,0.12,NaN,NaN,NaN,NaN,NaN,NaN,NaN,NaN,6.409e-4,16.129,204.317,90,0,2.103,14.999,1013.241,340.389,0.01,0.004
0.05,0.137,6.684,167.939,6.684,167.939,0,0,0,0,0,0,28.61,-80.6,9.792,17.208,0,0,0,3.779e4,1.47e4,36.895,0.123,NaN,250.232,NaN,0.021,1.718e6,6716.747,0.447,0.562,0.73,0.428,0.013,0.12,NaN,NaN,NaN,NaN,NaN,NaN,NaN,NaN,8.558e-4,16.129,204.317,90,0,2.07,14.999,1013.234,340.388,0.01,0.004
0.06,0.212,8.362,167.799,8.362,167.799,0,0,0,0,0,0,28.61,-80.6,9.792,13.859,0,0,0,3.776e4,1.467e4,36.883,0.123,NaN,250.191,NaN,0.025,2.115e6,6706.186,0.645,0.546,0.694,0.412,0.013,0.12,NaN,NaN,NaN,NaN,NaN,NaN,NaN,NaN,0.001,16.129,204.317,90,0,2.063,14.999,1013.225,340.388,0.01,0.004
0.07,0.304,10.034,167.315,10.034,167.315,0,0,0,0,0,0,28.61,-80.6,9.792,11.578,0,0,0,3.773e4,1.464e4,36.871,0.122,NaN,250.149,NaN,0.03,2.515e6,6682.675,0.859,0.533,0.654,0.399,0.013,0.12,NaN,NaN,NaN,NaN,NaN,NaN,NaN,NaN,0.001,16.129,204.317,90,0,2.056,14.998,1013.214,340.388,0.01,0.005
0.08,0.413,11.696,166.83,11.696,166.83,0,0,0,0,0,0,28.61,-80.6,9.792,9.934,0,0,0,3.77e4,1.461e4,36.859,0.122,NaN,250.107,NaN,0.035,2.916e6,6659.204,1.094,0.522,0.62,0.389,0.013,0.12,NaN,NaN,NaN,NaN,NaN,NaN,NaN,NaN,0.001,16.129,204.317,90,0,2.048,14.997,1013.202,340.387,0.01,0.005
0.089,0.519,13.118,166.37,13.118,166.37,0,0,0,0,0,0,28.61,-80.6,9.792,8.849,0,0,0,3.767e4,1.458e4,36.848,0.122,NaN,250.072,NaN,0.039,3.26e6,6637.438,1.325,0.518,0.601,0.385,0.014,0.12,NaN,NaN,NaN,NaN,NaN,NaN,NaN,NaN,0.002,16.129,204.317,90,0,2.042,14.997,1013.189,340.387,0.009,0.006
0.096,0.623,14.383,165.969,14.383,165.969,0,0,0,0,0,0,28.61,-80.6,9.792,8.06,0,0,0,3.765e4,1.456e4,36.839,0.122,NaN,250.04,NaN,0.043,3.567e6,6618.426,1.558,0.518,0.59,0.385,0.014,0.12,NaN,NaN,NaN,NaN,NaN,NaN,NaN,NaN,0.002,16.129,204.317,90,0,2.037,14.996,1013.177,340.386,0.008,0.006
0.103,0.727,15.534,165.607,15.534,165.607,0,0,0,0,0,0,28.61,-80.6,9.792,7.455,0,0,0,3.763e4,1.454e4,36.831,0.122,NaN,250.01,NaN,0.046,3.847e6,6601.293,1.788,0.519,0.582,0.385,0.014,0.12,NaN,NaN,NaN,NaN,NaN,NaN,NaN,NaN,0.002,16.129,204.317,90,0,2.033,14.995,1013.165,340.386,0.007,0.006
0.11,0.831,16.599,165.508,16.599,165.508,0,0,0,0,0,0,28.61,-80.6,9.792,6.974,0,0,0,3.761e4,1.452e4,36.823,0.122,NaN,249.984,NaN,0.049,4.106e6,6594.331,2.014,0.519,0.576,0.385,0.014,0.12,NaN,NaN,NaN,NaN,NaN,NaN,NaN,NaN,0.002,16.129,204.317,90,0,2.03,14.995,1013.153,340.386,0.006,0.007
0.116,0.934,17.597,165.639,17.597,165.639,0,0,0,0,0,0,28.61,-80.6,9.792,6.575,0,0,0,3.759e4,1.45e4,36.816,0.122,NaN,249.958,NaN,0.052,4.349e6,6596.208,2.24,0.519,0.57,0.385,0.014,0.12,NaN,NaN,NaN,NaN,NaN,NaN,NaN,NaN,0.002,16.129,204.317,90,0,2.028,14.994,1013.14,340.385,0.006,0.007
0.121,1.037,18.538,165.761,18.538,165.761,0,0,0,0,0,0,28.61,-80.6,9.792,6.238,0,0,0,3.757e4,1.448e4,36.809,0.122,NaN,249.934,NaN,0.055,4.579e6,6597.971,2.464,0.519,0.566,0.385,0.014,0.12,NaN,NaN,NaN,NaN,NaN,NaN,NaN,NaN,0.002,16.129,204.317,90,0,2.026,14.993,1013.128,340.385,0.006,0.008
0.13,1.201,19.952,165.931,19.952,165.931,-7.203e-6,0,7.203e-6,-180,0.002,0.205,28.61,-80.6,9.792,5.785,0,4.879e-5,-9.715e-9,3.754e4,1.445e4,36.799,0.122,268.299,249.899,1.141,0.059,4.924e6,6600.111,2.821,0.519,0.561,0.385,0.014,0.12,1.515,1.729,-6.193e-5,0,0,0,0,2.647e-6,0.003,16.129,204.317,90,0.006,2.023,14.992,1013.109,340.384,0.009,0.008
0.143,1.469,22.076,166.185,22.076,166.185,-4.624e-5,0,4.624e-5,-180,0.004,0.221,28.61,-80.6,9.792,5.212,0,1.33e-4,-8.655e-9,3.75e4,1.442e4,36.783,0.122,269.786,249.845,1.236,0.065,5.443e6,6603.32,3.405,0.519,0.554,0.385,0.014,0.121,1.339,1.655,-1.156e-4,0,0,0,0,1.61e-5,0.003,16.129,204.317,90,0.007,2.019,14.99,1013.078,340.383,0.013,0.008
0.162,1.923,25.268,166.564,25.268,166.564,-1.732e-4,0,1.732e-4,-180,0.009,0.243,28.61,-80.6,9.792,4.564,0,2.843e-4,1.585e-8,3.745e4,1.436e4,36.76,0.122,271.548,249.764,1.351,0.074,6.223e6,6608.135,4.396,0.519,0.547,0.385,0.014,0.121,1.146,1.548,-7.51e-5,0,0,0,0,5.623e-5,0.003,16.129,204.317,89.998,0.005,2.027,14.987,1013.024,340.381,0.019,0.009
0.19,2.719,30.071,167.127,30.071,167.128,-5.339e-4,0,5.339e-4,-180,0.016,0.273,28.61,-80.6,9.792,3.87,0,5.697e-4,-8.476e-9,3.736e4,1.427e4,36.725,0.122,273.535,249.642,1.481,0.089,7.399e6,6615.356,6.138,0.52,0.54,0.384,0.014,0.121,0.948,1.404,1.741e-4,0,0,0,0,1.598e-4,0.004,16.129,204.317,89.994,0.003,2.054,14.982,1012.931,340.378,0.029,0.009
0.234,4.173,37.307,167.963,37.307,167.963,-0.002,0,0.002,-180,0.029,0.293,28.61,-80.6,9.792,3.12,0,0.001,-2.222e-7,3.722e4,1.414e4,36.673,0.122,275.811,249.458,1.634,0.11,9.172e6,6626.188,9.327,0.52,0.534,0.384,0.014,0.122,0.743,1.214,-1.966e-4,0,0,0,0,4.099e-4,0.005,16.129,204.317,89.981,0.003,2.075,14.973,1012.761,340.372,0.043,0.01
0.284,6.249,45.739,168.954,45.74,168.954,-0.003,0,0.003,180,0.043,0.264,28.61,-80.6,9.792,2.468,0,0.002,2.475e-8,3.707e4,1.398e4,36.612,0.122,277.906,249.244,1.777,0.135,1.124e7,6640.217,13.899,0.521,0.53,0.384,0.015,0.122,0.574,1.019,-4.347e-4,0,0,0,0,8.325e-4,0.006,16.129,204.317,89.953,0.002,2.052,14.959,1012.517,340.364,0.05,0.01
0.334,8.748,54.222,169.955,54.223,169.955,-0.006,1.144e-8,0.006,180,0.054,0.176,28.61,-80.6,9.792,2.005,0,0.003,3e-7,3.692e4,1.383e4,36.55,0.121,279.473,249.027,1.888,0.159,1.331e7,6655.278,19.453,0.522,0.528,0.384,0.015,0.123,0.458,0.863,4.481e-4,0,0,0,0,0.001,0.007,16.129,204.317,89.909,-2.347e-4,2.039,14.943,1012.224,340.354,0.05,0.011
0.384,11.672,62.755,170.937,62.755,170.937,-0.009,8.926e-9,0.009,180,0.06,0.034,28.61,-80.6,9.792,1.713,0,0.004,-2.157e-7,3.676e4,1.368e4,36.488,0.121,280.503,248.809,1.965,0.184,1.54e7,6670.338,26.037,0.524,0.528,0.383,0.016,0.124,0.387,0.759,-2.691e-4,0,0,0,0,0.002,0.008,16.129,204.317,89.844,-0.001,2.108,14.924,1011.881,340.343,0.05,0.011
0.434,15.025,71.34,171.976,71.34,171.976,-0.012,-3.936e-8,0.012,-180,0.056,0.233,28.61,-80.6,9.792,1.376,0,0.006,6.57e-8,3.661e4,1.352e4,36.425,0.121,281.725,248.583,2.055,0.21,1.75e7,6687.47,33.635,0.525,0.528,0.383,0.017,0.126,0.307,0.627,-4.162e-5,0,0,0,0,0.003,0.009,16.129,204.317,89.756,-0.001,2.073,14.902,1011.488,340.33,0.05,0.011
0.484,18.807,79.979,173.052,79.979,173.053,-0.014,-1.44e-7,0.014,-179.999,0.035,0.609,28.61,-80.6,9.792,1.078,0,0.007,1.432e-7,3.645e4,1.336e4,36.36,0.121,282.839,248.355,2.138,0.235,1.962e7,6706.733,42.315,0.527,0.529,0.383,0.018,0.127,0.238,0.504,-3.954e-4,0,0,0,0,0.003,0.01,16.129,204.317,89.642,-0.001,2.038,14.878,1011.044,340.315,0.05,0.012
0.534,23.024,88.671,174.105,88.671,174.108,-0.015,-3.339e-7,0.015,-179.999,0.007,1.086,28.61,-80.6,9.792,0.839,0,0.008,-9.855e-7,3.629e4,1.32e4,36.296,0.121,283.765,248.125,2.21,0.261,2.174e7,6725.995,52.126,0.529,0.531,0.382,0.019,0.129,0.183,0.402,4.46e-4,0,0,0,0,0.004,0.011,16.129,204.317,89.504,-0.001,2.059,14.85,1010.55,340.298,0.05,0.012
0.584,27.676,97.415,175.132,97.415,175.14,-0.013,-6.121e-7,0.013,-179.997,0.076,1.699,28.61,-80.6,9.792,0.59,0,0.01,-1.696e-6,3.613e4,1.304e4,36.231,0.121,284.752,247.893,2.285,0.286,2.388e7,6745.257,63.097,0.532,0.532,0.382,0.02,0.131,0.128,0.287,-8.755e-5,0,0,0,0,0.004,0.012,16.129,204.317,89.34,-1.202e-4,2.049,14.82,1010.004,340.28,0.05,0.013
0.634,32.766,106.21,176.131,106.21,176.148,-0.006,-8.927e-7,0.006,-179.992,0.18,2.448,28.61,-80.6,9.792,0.334,0,0.011,-1.741e-6,3.598e4,1.289e4,36.165,0.12,285.787,247.659,2.364,0.312,2.602e7,6764.52,75.282,0.534,0.535,0.381,0.021,0.133,0.072,0.165,-6.369e-5,0,0,0,0,0.005,0.014,16.129,204.317,89.155,8.6e-4,2.006,14.787,1009.407,340.26,0.05,0.014
0.684,38.298,115.054,177.099,115.055,177.129,0.006,-9.775e-7,0.006,-0.009,0.323,3.257,28.61,-80.6,9.792,0.139,0,0.011,-1.801e-6,3.582e4,1.273e4,36.099,0.12,286.609,247.423,2.43,0.338,2.818e7,6783.782,88.75,0.537,0.537,0.38,0.022,0.135,0.03,0.068,6.865e-5,0,0,0,0,0.004,0.015,16.129,204.317,88.955,0.002,2.055,14.751,1008.758,340.238,0.05,0.014
0.734,44.273,123.946,178.033,123.947,178.082,0.027,-6.577e-7,0.027,-0.001,0.508,4.165,28.61,-80.6,9.792,0.069,0,-0.011,-2.529e-6,3.566e4,1.257e4,36.033,0.12,286.953,247.185,2.466,0.364,3.034e7,6803.045,103.546,0.541,0.541,0.38,0.024,0.137,0.015,0.04,-1.173e-4,0,0,0,0,-0.004,0.016,16.129,204.317,88.748,0.002,2.051,14.712,1008.058,340.215,0.05,0.015
0.784,50.693,132.884,178.931,132.886,179.005,0.058,1.496e-7,0.058,1.489e-4,0.741,5.133,28.61,-80.6,9.792,0.275,0,-0.011,-1.475e-6,3.55e4,1.241e4,35.967,0.12,286.21,246.945,2.434,0.391,3.251e7,6822.307,119.737,0.544,0.544,0.379,0.025,0.14,0.059,0.147,-6.65e-5,0,0,0,0,-0.003,0.017,16.129,204.317,88.546,0.001,1.99,14.67,1007.305,340.189,0.05,0.015
0.834,57.562,141.866,179.796,141.87,179.895,0.101,1.399e-6,0.101,7.906e-4,1.02,5.959,28.61,-80.6,9.792,0.373,6.733e-9,-0.009,-4.722e-6,3.534e4,1.226e4,35.9,0.12,285.903,246.702,2.43,0.417,3.469e7,6841.57,137.37,0.548,0.548,0.378,0.027,0.143,0.08,0.197,-2.062e-4,0,0,0,0,-0.002,0.018,16.129,204.317,88.365,1.502e-4,2.101,14.626,1006.499,340.162,0.05,0.016
0.884,64.881,150.89,180.625,150.896,180.751,0.16,2.884e-6,0.16,0.001,1.338,6.757,28.61,-80.6,9.792,0.488,0,-0.007,-2.032e-6,3.519e4,1.21e4,35.832,0.119,285.543,246.458,2.423,0.444,3.688e7,6860.832,156.517,0.552,0.552,0.377,0.029,0.146,0.106,0.258,-6.469e-5,0,0,0,0,-0.001,0.019,16.129,204.317,88.217,-7.745e-4,2.073,14.578,1005.641,340.133,0.05,0.016
0.934,72.652,159.955,181.418,159.964,181.57,0.236,4.295e-6,0.236,0.001,1.695,7.423,28.61,-80.6,9.792,0.583,0,-0.004,-3.926e-6,3.503e4,1.194e4,35.764,0.119,285.264,246.211,2.421,0.47,3.907e7,6880.095,177.241,0.556,0.557,0.376,0.031,0.149,0.127,0.309,4.748e-4,0,0,0,0,-2.884e-4,0.02,16.129,204.317,88.115,-0.002,1.935,14.528,1004.729,340.103,0.05,0.016
0.984,80.877,169.059,182.185,169.072,182.349,0.33,5.162e-6,0.33,8.959e-4,2.076,7.723,28.61,-80.6,9.792,0.585,0,-2.328e-4,-1.097e-7,3.487e4,1.178e4,35.696,0.119,285.351,245.962,2.442,0.497,4.127e7,6899.357,199.573,0.561,0.562,0.375,0.034,0.152,0.128,0.312,5.541e-5,0,0,0,0,-8.474e-7,0.022,16.129,204.317,88.076,-0.003,1.872,14.474,1003.764,340.07,0.05,0.017
1.034,89.559,178.201,182.927,178.218,183.084,0.444,4.856e-6,0.444,6.273e-4,2.461,7.577,28.61,-80.6,9.792,0.499,0,0.004,-6.218e-6,3.471e4,1.162e4,35.627,0.119,285.76,245.71,2.483,0.524,4.347e7,6918.62,223.586,0.567,0.567,0.374,0.037,0.156,0.109,0.27,3.813e-4,0,0,0,0,1.961e-4,0.023,16.129,204.317,88.109,-0.004,1.869,14.418,1002.746,340.036,0.05,0.017
1.084,98.698,187.379,183.641,187.4,183.772,0.576,2.862e-6,0.576,2.847e-4,2.827,6.947,28.61,-80.6,9.792,0.336,-7.474e-9,0.007,-3.247e-6,3.456e4,1.147e4,35.558,0.119,286.444,245.457,2.541,0.551,4.568e7,6937.882,249.401,0.572,0.573,0.373,0.04,0.16,0.073,0.185,1.765e-4,0,0,0,0,6.591e-4,0.024,16.129,204.317,88.209,-0.005,1.935,14.358,1001.674,340,0.05,0.017
1.134,108.297,196.588,184.246,196.614,184.343,0.726,-1.054e-6,0.726,-8.321e-5,3.15,5.959,28.61,-80.6,9.792,0.141,-1.075e-8,0.009,-1.475e-5,3.44e4,1.131e4,35.488,0.118,287.238,245.198,2.606,0.578,4.789e7,6954.58,277.173,0.579,0.579,0.372,0.043,0.164,0.03,0.079,-4.133e-4,0,0,0,0,0.001,0.025,16.129,204.317,88.361,-0.007,2,14.296,1000.549,339.962,0.05,0.018
1.184,118.357,205.804,184.347,205.832,184.406,0.89,-7.098e-6,0.89,-4.57e-4,3.417,4.68,28.61,-80.6,9.792,0.081,5.396e-9,-0.01,-2.12e-5,3.424e4,1.115e4,35.416,0.118,287.491,244.935,2.638,0.606,5.01e7,6955.452,307.008,0.585,0.585,0.371,0.047,0.168,0.018,0.048,2.94e-4,0,0,0,0,-9.84e-4,0.026,16.129,204.317,88.535,-0.009,2.149,14.231,999.369,339.923,0.05,0.018
1.234,128.878,215.019,184.296,215.05,184.33,1.066,-1.573e-5,1.066,-8.455e-4,3.619,3.525,28.61,-80.6,9.792,0.243,7.795e-9,-0.008,-1.012e-5,3.407e4,1.099e4,35.344,0.118,286.867,244.669,2.616,0.633,5.23e7,6953.612,339.014,0.593,0.593,0.369,0.051,0.172,0.053,0.138,-1.367e-4,0,0,0,0,-5.606e-4,0.028,16.129,204.317,88.693,-0.009,2.212,14.162,998.135,339.881,0.05,0.018
1.284,139.859,224.23,184.167,224.262,184.187,1.251,-2.701e-5,1.251,-0.001,3.773,2.77,28.61,-80.6,9.792,0.318,-7.694e-9,-0.004,3.61e-6,3.391e4,1.083e4,35.272,0.118,286.58,244.401,2.615,0.66,5.45e7,6951.772,373.273,0.6,0.601,0.368,0.056,0.177,0.07,0.182,9.122e-5,0,0,0,0,-1.472e-4,0.029,16.129,204.317,88.8,-0.009,2.18,14.091,996.847,339.838,0.05,0.019
1.334,151.301,233.432,183.953,233.464,183.971,1.443,-3.985e-5,1.443,-0.002,3.903,2.587,28.61,-80.6,9.792,0.306,-5.691e-9,2.685e-4,2.823e-6,3.375e4,1.066e4,35.199,0.118,286.628,244.13,2.635,0.687,5.668e7,6949.932,409.922,0.609,0.609,0.367,0.061,0.181,0.067,0.176,3.758e-4,0,0,0,0,5.914e-7,0.03,16.129,204.317,88.833,-0.006,2.102,14.017,995.505,339.793,0.05,0.019
1.384,163.202,242.621,183.65,242.655,183.673,1.641,-5.353e-5,1.641,-0.002,4.039,2.919,28.61,-80.6,9.792,0.24,-5.227e-9,0.004,-1.683e-5,3.359e4,1.05e4,35.126,0.118,286.883,243.857,2.668,0.714,5.886e7,6948.092,449.219,0.619,0.619,0.365,0.067,0.186,0.053,0.141,3.774e-4,0,0,0,0,1.402e-4,0.031,16.129,204.317,88.789,8.301e-5,2.105,13.939,994.109,339.746,0.05,0.02
1.434,175.562,251.792,183.246,251.827,183.282,1.847,-6.587e-5,1.847,-0.002,4.202,3.663,28.61,-80.6,9.792,0.147,-1.439e-8,0.007,-3.131e-5,3.343e4,1.034e4,35.052,0.117,287.253,243.58,2.708,0.741,6.102e7,6946.252,491.497,0.629,0.629,0.364,0.074,0.191,0.032,0.086,4.892e-4,0,0,0,0,3.889e-4,0.032,16.129,204.317,88.68,0.008,2.24,13.859,992.659,339.697,0.05,0.02
1.484,188.381,260.941,182.72,260.978,182.788,2.063,-7.333e-5,2.063,-0.002,4.416,4.989,28.61,-80.6,9.792,0.016,-1.827e-8,-0.009,-1.569e-4,3.327e4,1.018e4,34.977,0.117,287.779,243.302,2.758,0.769,6.318e7,6944.413,537.134,0.641,0.641,0.362,0.082,0.197,0.003,0.01,-1.111e-4,0,0,0,0,-5.061e-4,0.033,16.129,204.317,88.529,0.013,2.198,13.776,991.156,339.647,0.05,0.02
1.534,201.656,270.059,182.066,270.1,182.173,2.29,-7.282e-5,2.29,-0.002,4.702,6.258,28.61,-80.6,9.792,0.15,-1.51e-8,-0.007,-5.841e-6,3.311e4,1.002e4,34.902,0.117,287.29,243.02,2.745,0.796,6.532e7,6942.573,586.747,0.655,0.655,0.36,0.092,0.202,0.033,0.091,1.886e-4,0,0,0,0,-2.9e-4,0.035,16.129,204.317,88.384,0.013,2.181,13.689,989.599,339.595,0.05,0.021
1.584,215.386,279.14,181.232,279.186,181.377,2.534,-6.375e-5,2.534,-0.001,5.042,7.245,28.61,-80.6,9.792,0.25,-7.238e-9,-0.003,-3.67e-6,3.295e4,9861.592,34.827,0.117,286.959,242.737,2.742,0.822,6.744e7,6939.692,641.041,0.67,0.671,0.359,0.104,0.208,0.055,0.152,-4.568e-5,0,0,0,0,-4.554e-5,0.036,16.129,204.317,88.295,0.009,2.028,13.6,987.989,339.54,0.05,0.021
1.634,229.568,288.15,179.715,288.2,179.863,2.795,-4.817e-5,2.795,-9.874e-4,5.413,7.278,28.61,-80.6,9.792,0.247,-5.028e-9,0.003,-1.079e-5,3.279e4,9703.558,34.753,0.117,287.04,242.455,2.764,0.849,6.954e7,6919.675,700.909,0.689,0.689,0.357,0.118,0.214,0.055,0.152,-3.863e-4,0,0,0,0,5.19e-5,0.037,16.129,204.317,88.299,0.005,1.882,13.508,986.325,339.485,0.05,0.021
1.684,244.199,297.069,177.812,297.125,177.914,3.074,-2.865e-5,3.074,-5.339e-4,5.751,6.043,28.61,-80.6,9.791,0.116,4.287e-8,0.008,-5.916e-6,3.263e4,9545.524,34.677,0.116,287.627,242.17,2.818,0.876,7.161e7,6893.601,768.138,0.711,0.711,0.355,0.136,0.22,0.026,0.072,-4.779e-4,0,0,0,0,2.984e-4,0.038,16.129,204.317,88.403,0.003,1.937,13.413,984.61,339.427,0.05,0.022
1.734,259.273,305.886,175.64,305.945,175.696,3.369,-8.324e-6,3.369,-1.416e-4,6.009,4.423,28.61,-80.6,9.791,0.029,5.855e-9,-0.008,-1.919e-5,3.248e4,9387.49,34.602,0.116,288.068,241.883,2.863,0.902,7.365e7,6867.528,843.639,0.738,0.738,0.353,0.159,0.226,0.006,0.018,2.056e-4,0,0,0,0,-3.431e-4,0.039,16.129,204.317,88.557,-4.564e-4,1.879,13.315,982.842,339.368,0.05,0.022
1.784,274.786,314.619,174.461,314.679,174.488,3.674,1.121e-5,3.674,1.748e-4,6.19,3.052,28.61,-80.6,9.791,0.134,-1.399e-8,-0.006,5.931e-6,3.232e4,9229.455,34.525,0.116,287.79,241.592,2.864,0.928,7.566e7,6841.455,885.982,0.734,0.734,0.348,0.153,0.232,0.03,0.087,5.195e-5,0,0,0,0,-1.705e-4,0.04,16.129,204.317,88.695,-0.004,1.75,13.214,981.022,339.307,0.05,0.023
1.834,290.734,323.291,173.237,323.353,173.252,3.987,2.862e-5,3.987,4.114e-4,6.317,2.315,28.61,-80.6,9.791,0.181,0,-0.001,-7.016e-6,3.216e4,9071.421,34.448,0.116,287.744,241.299,2.88,0.953,7.765e7,6815.381,928.877,0.73,0.73,0.344,0.148,0.238,0.041,0.118,-3.274e-5,0,0,0,0,-7.095e-6,0.041,16.129,204.317,88.762,-0.003,1.723,13.11,979.152,339.244,0.05,0.024
1.884,307.114,331.901,171.966,331.963,171.985,4.305,4.387e-5,4.305,5.838e-4,6.432,2.552,28.61,-80.6,9.791,0.152,0,0.004,2.072e-5,3.2e4,8913.387,34.371,0.116,287.967,241.003,2.912,0.979,7.961e7,6789.308,972.238,0.726,0.726,0.339,0.142,0.245,0.035,0.101,-2.305e-4,0,0,0,0,7.137e-5,0.043,16.129,204.317,88.73,-3.908e-4,1.825,13.004,977.231,339.179,0.05,0.024
1.934,323.922,340.444,170.419,340.508,170.462,4.631,5.939e-5,4.631,7.349e-4,6.587,3.822,28.61,-80.6,9.791,0.05,-1.217e-8,0.008,4.818e-5,3.184e4,8755.353,34.293,0.115,288.426,240.704,2.959,1.004,8.155e7,6763.234,1023.279,0.727,0.727,0.334,0.144,0.249,0.011,0.033,3.372e-4,0,0,0,0,2.363e-4,0.044,16.129,204.317,88.612,-0.002,1.946,12.895,975.259,339.113,0.05,0.025
1.984,341.156,348.877,167.807,348.944,167.903,4.966,7.297e-5,4.966,8.419e-4,6.826,5.663,28.61,-80.6,9.791,0.091,-3.239e-8,-0.007,3.698e-5,3.169e4,8597.319,34.214,0.115,288.283,240.402,2.969,1.029,8.346e7,6737.161,1106.925,0.75,0.75,0.329,0.178,0.243,0.021,0.062,-2.161e-4,0,0,0,0,-1.835e-4,0.045,16.129,204.317,88.466,-5.941e-4,1.912,12.782,973.238,339.045,0.05,0.026
2.034,358.807,357.171,165.23,357.243,165.369,5.315,8.558e-5,5.315,9.226e-4,7.149,6.79,28.61,-80.6,9.791,0.169,-1.44e-8,-0.002,3.032e-5,3.154e4,8448.473,34.14,0.115,287.941,240.115,2.965,1.054,8.532e7,6700.077,1176.512,0.762,0.762,0.325,0.2,0.237,0.039,0.117,1.766e-4,0,0,0,0,-8.16e-6,0.046,16.129,204.317,88.385,0.009,1.804,12.668,971.168,338.976,0.05,0.026
2.084,376.87,365.318,162.501,365.395,162.618,5.681,1.069e-4,5.681,0.001,7.485,6.172,28.61,-80.6,9.791,0.123,2.617e-8,0.005,3.994e-5,3.139e4,8301.209,34.066,0.115,287.977,239.828,2.985,1.078,8.714e7,6644.067,1232.485,0.765,0.765,0.32,0.213,0.232,0.029,0.087,-4.309e-4,0,0,0,0,8.506e-5,0.047,16.129,204.317,88.424,0.017,1.751,12.55,969.05,338.904,0.05,0.027
2.134,395.336,373.34,160.184,373.42,160.238,6.062,1.439e-4,6.062,0.001,7.745,4.142,28.61,-80.6,9.791,0.009,4.369e-8,-0.008,1.105e-4,3.124e4,8153.946,33.991,0.115,288.174,239.538,3.015,1.102,8.892e7,6587.731,1275.601,0.759,0.759,0.316,0.217,0.227,0.002,0.006,3.691e-4,0,0,0,0,-1.847e-4,0.048,16.129,204.317,88.554,0.021,1.772,12.43,966.884,338.832,0.05,0.028
2.184,414.201,381.251,158.086,381.333,158.102,6.453,1.964e-4,6.453,0.002,7.892,2.281,28.61,-80.6,9.791,0.116,2.359e-8,-0.004,-1.006e-5,3.11e4,8006.682,33.915,0.115,287.526,239.246,2.993,1.126,9.067e7,6531.395,1310.892,0.749,0.749,0.313,0.214,0.222,0.028,0.084,3.082e-4,0,0,0,0,-5.274e-5,0.049,16.129,204.317,88.672,0.016,1.795,12.308,964.671,338.757,0.05,0.029
2.234,433.459,389.062,156.21,389.144,156.222,6.85,2.582e-4,6.85,0.002,7.98,1.956,28.61,-80.6,9.791,0.124,6.402e-9,0.002,-2.805e-5,3.095e4,7859.419,33.84,0.114,287.17,238.951,2.99,1.149,9.238e7,6475.059,1337.539,0.736,0.736,0.311,0.207,0.218,0.031,0.093,-4.649e-4,0,0,0,0,1.498e-5,0.05,16.129,204.317,88.687,0.009,1.844,12.183,962.413,338.682,0.05,0.029
2.284,453.105,396.783,154.488,396.866,154.536,7.252,3.227e-4,7.252,0.003,8.112,3.834,28.61,-80.6,9.791,0.01,-4.288e-8,0.006,1.96e-4,3.08e4,7712.155,33.763,0.114,287.174,238.653,3.008,1.172,9.406e7,6418.722,1357.329,0.719,0.719,0.308,0.197,0.213,0.003,0.007,-3.988e-4,0,0,0,0,1.141e-4,0.051,16.129,204.317,88.591,0.005,1.701,12.055,960.108,338.604,0.05,0.03
2.334,473.135,404.421,152.902,404.508,153,7.663,3.855e-4,7.663,0.003,8.36,5.467,28.61,-80.6,9.791,0.076,3.075e-8,-0.003,-3.346e-5,3.065e4,7564.892,33.686,0.114,286.562,238.352,2.989,1.195,9.572e7,6362.386,1372.5,0.701,0.701,0.306,0.186,0.209,0.02,0.059,3.578e-4,0,0,0,0,-3.303e-5,0.052,16.129,204.317,88.487,0.001,1.693,11.925,957.759,338.525,0.05,0.031
2.384,493.545,411.982,151.415,412.073,151.526,8.089,4.457e-4,8.089,0.003,8.656,5.796,28.61,-80.6,9.791,0.089,5.343e-9,0.001,-9.184e-6,3.051e4,7417.628,33.609,0.114,286.115,238.048,2.98,1.218,9.735e7,6306.05,1385.221,0.684,0.684,0.304,0.175,0.205,0.024,0.07,3.558e-5,0,0,0,0,5.467e-6,0.053,16.129,204.317,88.469,0.003,1.652,11.792,955.365,338.445,0.05,0.031
2.434,514.331,419.47,149.958,419.565,150.017,8.528,5.063e-4,8.528,0.003,8.917,4.21,28.61,-80.6,9.791,0.011,1.059e-8,0.005,2.177e-4,3.036e4,7270.365,33.531,0.114,285.947,237.741,2.989,1.24,9.896e7,6249.714,1398.122,0.667,0.667,0.301,0.164,0.202,0.003,0.01,2.379e-5,0,0,0,0,6.753e-5,0.054,16.129,204.317,88.546,0.019,1.642,11.657,953.007,338.363,0.05,0.032
2.484,535.49,426.882,148.365,426.979,148.389,8.978,5.865e-4,8.978,0.004,9.075,2.658,28.61,-80.6,9.791,0.054,3.34e-8,-0.003,-1.894e-6,3.021e4,7123.101,33.452,0.113,285.443,237.432,2.977,1.262,1.005e8,6193.378,1414.586,0.653,0.653,0.299,0.156,0.198,0.015,0.045,1.211e-4,0,0,0,0,-2.284e-5,0.055,16.129,204.317,88.636,0.034,1.577,11.519,950.643,338.28,0.05,0.033
2.534,557.018,434.209,146.523,434.306,146.539,9.435,6.966e-4,9.435,0.004,9.179,2.218,28.61,-80.6,9.791,0.068,1.797e-8,0.001,3.441e-5,3.006e4,6975.838,33.373,0.113,285.066,237.119,2.973,1.284,1.021e8,6137.041,1437.214,0.642,0.642,0.297,0.151,0.195,0.019,0.057,2.761e-4,0,0,0,0,4.443e-6,0.056,16.129,204.317,88.651,0.021,1.627,11.379,948.238,338.195,0.05,0.033
2.584,578.909,441.436,144.363,441.534,144.414,9.897,8.193e-4,9.897,0.005,9.316,3.855,28.61,-80.6,9.79,0.004,1.347e-8,-0.004,2.435e-4,2.992e4,6828.574,33.293,0.113,284.951,236.803,2.985,1.306,1.036e8,6080.705,1467.328,0.636,0.636,0.294,0.15,0.191,0.001,0.003,8.704e-5,0,0,0,0,-4.392e-5,0.057,16.129,204.317,88.581,0.005,1.591,11.237,945.792,338.109,0.05,0.034
2.634,601.158,448.536,141.775,448.637,141.859,10.368,9.339e-4,10.368,0.005,9.552,4.904,28.61,-80.6,9.79,0.046,2.042e-8,-0.001,1.337e-5,2.978e4,6690.597,33.218,0.113,284.605,236.505,2.982,1.327,1.051e8,6016.357,1500.506,0.631,0.631,0.292,0.151,0.188,0.013,0.04,-4.188e-4,0,0,0,0,-4.694e-6,0.057,16.129,204.317,88.514,0.001,1.623,11.092,943.306,338.021,0.05,0.035
2.684,623.751,455.167,132.382,455.272,132.452,10.852,0.001,10.852,0.005,9.794,4.277,28.61,-80.6,9.79,0.028,3.472e-8,0.002,4.032e-5,2.967e4,6583.185,33.159,0.113,284.485,236.27,2.989,1.347,1.065e8,5751.748,1531.257,0.627,0.627,0.29,0.151,0.186,0.008,0.025,4.277e-5,0,0,0,0,6.233e-6,0.058,16.129,204.317,88.521,0.01,1.685,10.946,940.782,337.932,0.05,0.035
2.734,646.66,461.184,120.113,461.291,120.149,11.346,0.001,11.346,0.006,9.965,2.912,28.61,-80.6,9.79,0.011,2.102e-8,-0.002,2.022e-5,2.956e4,6475.773,33.099,0.113,284.425,236.034,3,1.366,1.077e8,5400.357,1558.784,0.623,0.623,0.288,0.152,0.183,0.003,0.009,-9.137e-5,0,0,0,0,-9.93e-6,0.059,16.129,204.317,88.573,0.018,1.647,10.797,938.223,337.842,0.05,0.036
2.784,669.854,466.586,107.852,466.694,107.871,11.847,0.001,11.847,0.006,10.067,1.984,28.61,-80.6,9.79,0.032,1.546e-8,-2.354e-4,9.197e-6,2.946e4,6368.361,33.04,0.113,284.317,235.796,3.008,1.382,1.088e8,5048.966,1583.085,0.619,0.619,0.286,0.152,0.181,0.01,0.029,2.212e-6,0,0,0,0,-1.138e-7,0.06,16.129,204.317,88.602,0.018,1.644,10.646,935.631,337.75,0.05,0.036
2.834,693.303,471.374,95.581,471.483,95.61,12.353,0.001,12.353,0.006,10.155,2.348,28.61,-80.6,9.79,0.008,3.358e-8,0.002,-1.385e-5,2.935e4,6260.948,32.98,0.112,284.359,235.557,3.026,1.396,1.097e8,4697.575,1604.124,0.616,0.616,0.285,0.153,0.179,0.002,0.008,-3.756e-4,0,0,0,0,7.913e-6,0.06,16.129,204.317,88.577,0.008,1.653,10.494,933.012,337.658,0.05,0.037
2.884,716.976,475.547,83.325,475.658,83.377,12.863,0.002,12.863,0.007,10.285,2.945,28.61,-80.6,9.79,0.023,1.814e-8,-0.001,-3.44e-5,2.924e4,6153.536,32.919,0.112,284.329,235.315,3.039,1.409,1.104e8,4346.184,1621.905,0.614,0.614,0.283,0.153,0.177,0.007,0.021,2.71e-4,0,0,0,0,-2.463e-6,0.061,16.129,204.317,88.536,-0.003,1.623,10.34,930.367,337.565,0.05,0.037
2.934,740.842,479.108,71.124,479.221,71.157,13.381,0.002,13.381,0.007,10.423,2.173,28.61,-80.6,9.79,0.006,0,8.798e-4,2.056e-5,2.913e4,6046.124,32.858,0.112,284.392,235.072,3.058,1.42,1.111e8,3994.793,1636.437,0.611,0.611,0.282,0.153,0.176,0.002,0.005,-2.72e-6,0,0,0,0,1.507e-6,0.061,16.129,204.317,88.535,0.004,1.728,10.185,927.7,337.471,0.05,0.038
2.984,764.872,482.058,58.947,482.172,58.962,13.904,0.002,13.904,0.007,10.498,1.332,28.61,-80.6,9.79,0.012,1.235e-8,3.903e-5,1.378e-5,2.903e4,5938.712,32.797,0.112,284.405,234.827,3.074,1.429,1.115e8,3643.402,1647.719,0.61,0.61,0.281,0.153,0.175,0.004,0.012,-3.028e-4,0,0,0,0,0,0.062,16.129,204.317,88.553,0.006,1.829,10.028,925.015,337.376,0.05,0.038
3.034,789.034,484.428,47.324,484.543,47.34,14.43,0.002,14.43,0.007,10.544,1.236,28.61,-80.6,9.79,0.006,1.578e-8,0.001,9.786e-5,2.894e4,5849.132,32.746,0.112,284.451,234.621,3.089,1.437,1.119e8,3309.116,1655.9,0.608,0.608,0.281,0.153,0.174,0.002,0.005,-1.81e-4,0,0,0,0,2.008e-6,0.062,16.129,204.317,88.544,-0.005,1.844,9.871,922.316,337.281,0.05,0.039
3.084,813.305,486.429,39.967,486.545,40.005,14.959,0.002,14.959,0.007,10.614,1.741,28.61,-80.6,9.79,0.018,1.514e-8,-3.72e-4,1.176e-5,2.887e4,5781.081,32.707,0.112,284.448,234.464,3.099,1.443,1.121e8,3099.474,1662.088,0.607,0.607,0.28,0.154,0.173,0.006,0.017,2.851e-4,0,0,0,0,-2.614e-7,0.062,16.129,204.317,88.524,-5.787e-4,1.724,9.714,919.604,337.185,0.05,0.039
3.134,837.669,488.106,33.531,488.223,33.55,15.492,0.002,15.492,0.007,10.697,1.135,28.61,-80.6,9.79,0.003,0,0.001,2.657e-4,2.88e4,5713.03,32.668,0.112,284.511,234.306,3.113,1.448,1.123e8,2914.766,1666.553,0.606,0.606,0.279,0.154,0.173,0.001,0.003,-3.631e-4,0,0,0,0,3.743e-6,0.063,16.129,204.317,88.536,0.017,1.696,9.555,916.882,337.089,0.05,0.04
3.184,862.108,489.463,27.131,489.58,27.132,16.028,0.002,16.028,0.007,10.724,0.153,28.61,-80.6,9.79,0.025,1.35e-8,-8.031e-5,-1.709e-5,2.873e4,5644.98,32.629,0.112,284.482,234.148,3.121,1.453,1.124e8,2730.058,1669.328,0.605,0.605,0.279,0.154,0.172,0.007,0.023,-3.273e-4,0,0,0,0,-1.203e-8,0.063,16.129,204.317,88.559,0.029,1.852,9.396,914.152,336.993,0.05,0.04
3.234,886.604,490.396,18.678,490.513,18.68,16.564,0.002,16.564,0.007,10.711,0.278,28.61,-80.6,9.79,0.014,1.042e-8,0.002,1.141e-4,2.868e4,5593.079,32.599,0.112,284.527,234.026,3.131,1.456,1.123e8,2486.386,1669.87,0.604,0.604,0.278,0.154,0.172,0.004,0.013,1.003e-4,0,0,0,0,1.116e-5,0.063,16.129,204.317,88.535,0.01,2.016,9.237,911.415,336.897,0.05,0.041
3.284,911.132,490.719,6.497,490.836,6.546,17.099,0.002,17.099,0.008,10.729,0.794,28.61,-80.6,9.789,0.015,0,-0.002,9.742e-5,2.863e4,5544.416,32.57,0.112,284.532,233.912,3.138,1.458,1.122e8,2134.108,1667.235,0.604,0.604,0.278,0.154,0.172,0.004,0.013,-2.835e-5,0,0,0,0,-9.722e-6,0.063,16.129,204.317,88.478,-0.01,2.149,9.078,908.674,336.8,0.05,0.041
3.334,935.661,490.429,-5.688,490.548,5.774,17.637,0.002,17.637,0.008,10.777,0.991,28.61,-80.6,9.789,0.033,3.561e-8,1.768e-4,-4.647e-5,2.858e4,5495.752,32.542,0.111,284.486,233.797,3.143,1.457,1.119e8,1779.46,1661.431,0.604,0.604,0.278,0.154,0.172,0.01,0.03,-7.954e-5,0,0,0,0,5.805e-8,0.063,16.129,204.317,88.453,-0.005,2.108,8.918,905.934,336.703,0.05,0.042
3.384,960.161,489.568,-17.061,489.687,17.065,18.177,0.002,18.177,0.008,10.801,0.391,28.61,-80.6,9.789,0.005,3.061e-8,-0.002,8.231e-6,2.855e4,5465.077,32.524,0.111,284.541,233.725,3.151,1.455,1.115e8,1444.94,1652.704,0.604,0.604,0.279,0.154,0.172,0.001,0.004,4.717e-4,0,0,0,0,-1.006e-5,0.063,16.129,204.317,88.49,0.016,2.12,8.759,903.197,336.607,0.05,0.042
3.434,984.604,488.173,-27.692,488.292,27.714,18.715,0.003,18.715,0.008,10.742,1.111,28.61,-80.6,9.789,0.02,8.487e-9,-2.273e-4,1.772e-5,2.853e4,5437.51,32.508,0.111,284.483,233.66,3.151,1.451,1.109e8,1130.017,1641.285,0.605,0.605,0.279,0.154,0.172,0.006,0.02,-5.682e-5,0,0,0,0,-9.685e-8,0.063,16.129,204.317,88.525,0.033,2.088,8.6,900.466,336.511,0.05,0.043
3.484,1008.963,486.193,-39.384,486.31,39.397,19.25,0.003,19.25,0.008,10.67,1.021,28.61,-80.6,9.789,0.007,1.716e-8,9.802e-4,-6.446e-5,2.851e4,5420.963,32.498,0.111,284.489,233.62,3.154,1.446,1.103e8,782.889,1627.022,0.606,0.606,0.28,0.154,0.173,0.002,0.006,-2.926e-4,0,0,0,0,1.816e-6,0.062,16.129,204.317,88.513,0.021,2.037,8.442,897.792,336.415,0.05,0.043
3.534,1033.209,483.638,-50.804,483.755,50.813,19.783,0.003,19.783,0.008,10.617,0.931,28.61,-80.6,9.789,0.008,2.305e-8,-8.432e-4,-5.106e-5,2.85e4,5408.338,32.491,0.111,284.453,233.59,3.153,1.439,1.095e8,441.091,1610.105,0.608,0.608,0.28,0.154,0.174,0.002,0.007,-1.649e-4,0,0,0,0,-1.358e-6,0.062,16.129,204.317,88.485,5.401e-4,2.077,8.284,895.213,336.319,0.05,0.044
3.584,1057.32,480.822,-56.025,480.938,56.03,20.312,0.003,20.312,0.008,10.576,0.757,28.61,-80.6,9.789,0.019,1.09e-8,2.024e-4,3.318e-6,2.849e4,5401.527,32.487,0.111,284.393,233.574,3.151,1.431,1.086e8,274.678,1591.965,0.609,0.609,0.281,0.153,0.175,0.006,0.019,3.882e-4,0,0,0,0,7.92e-8,0.062,16.129,204.317,88.477,-0.016,2.018,8.127,892.648,336.224,0.05,0.045
3.594,1062.293,480.175,-62.45,480.291,62.456,20.422,0.003,20.422,0.008,10.567,0.828,28.61,-80.6,9.789,0.023,1.362e-8,8.847e-4,-2.536e-5,2.849e4,5401,32.486,0.111,284.377,233.573,3.15,1.429,1.085e8,87.587,1587.902,0.61,0.61,0.281,0.153,0.175,0.007,0.022,-1.17e-4,0,0,0,0,1.517e-6,0.061,16.129,204.317,88.479,-0.016,1.991,8.095,892.12,336.205,0.01,0.045
3.61,1069.738,479.159,-65.301,479.275,65.308,20.586,0.003,20.586,0.008,10.553,0.942,28.61,-80.6,9.789,0.021,1.312e-8,0.002,-1.612e-5,2.849e4,5401,32.486,0.111,284.372,233.573,3.15,1.426,1.082e8,0,1581.59,0.61,0.61,0.282,0.153,0.175,0.006,0.02,-3.076e-4,0,0,0,0,4.502e-6,0.061,16.129,204.317,88.486,-0.012,1.935,8.047,891.328,336.175,0.016,0.046
3.633,1080.877,477.643,-64.966,477.759,64.975,20.831,0.003,20.831,0.008,10.529,1.101,28.61,-80.6,9.789,0.015,1.276e-8,0.002,-3.939e-6,2.849e4,5401,32.486,0.111,284.375,233.573,3.15,1.421,1.077e8,0,1572.178,0.611,0.611,0.282,0.153,0.176,0.004,0.014,4.07e-4,0,0,0,0,1.093e-5,0.061,16.129,204.317,88.503,1.463e-4,1.834,7.974,890.143,336.131,0.023,0.046
3.668,1097.52,475.383,-64.457,475.498,64.482,21.198,0.003,21.198,0.008,10.482,1.796,28.61,-80.6,9.789,0.013,2.713e-8,-0.003,-2.55e-5,2.849e4,5401,32.486,0.111,284.365,233.573,3.149,1.415,1.071e8,0,1558.203,0.612,0.612,0.283,0.153,0.177,0.004,0.012,4.242e-4,0,0,0,0,-1.45e-5,0.061,16.129,204.317,88.536,0.018,1.775,7.866,888.372,336.066,0.035,0.047
3.718,1121.209,472.178,-63.755,472.291,63.792,21.719,0.003,21.719,0.008,10.369,2.18,28.61,-80.6,9.789,0.028,1.56e-8,3.183e-4,-4.764e-5,2.849e4,5401,32.486,0.111,284.312,233.573,3.146,1.406,1.062e8,0,1538.482,0.614,0.614,0.284,0.153,0.178,0.009,0.027,2.86e-4,0,0,0,0,2.031e-7,0.06,16.129,204.317,88.56,0.04,1.811,7.712,885.853,335.972,0.05,0.047
3.768,1144.738,469.007,-63.088,469.119,63.108,22.235,0.003,22.235,0.008,10.265,1.594,28.61,-80.6,9.789,0.006,0,0.002,3.007e-5,2.849e4,5401,32.486,0.111,284.364,233.573,3.149,1.397,1.053e8,0,1519.062,0.616,0.616,0.285,0.152,0.179,0.002,0.006,-4.668e-4,0,0,0,0,7.822e-6,0.06,16.129,204.317,88.531,0.022,1.836,7.559,883.35,335.88,0.05,0.048
3.818,1168.11,465.869,-62.435,465.98,62.442,22.747,0.003,22.747,0.009,10.207,0.877,28.61,-80.6,9.789,0.022,1.995e-8,-0.001,3.161e-6,2.849e4,5401,32.486,0.111,284.332,233.573,3.147,1.388,1.044e8,0,1499.951,0.618,0.618,0.286,0.152,0.18,0.007,0.021,9.74e-5,0,0,0,0,-3.347e-6,0.06,16.129,204.317,88.49,-0.008,1.847,7.407,880.864,335.788,0.05,0.048
3.868,1191.325,462.763,-61.774,462.875,61.78,23.256,0.004,23.256,0.009,10.175,0.911,28.61,-80.6,9.789,0.02,2.696e-8,0.001,2.804e-5,2.849e4,5401,32.486,0.111,284.353,233.573,3.148,1.379,1.035e8,0,1481.13,0.62,0.62,0.287,0.152,0.181,0.006,0.019,4.986e-4,0,0,0,0,2.129e-6,0.059,16.129,204.317,88.488,-0.005,1.822,7.256,878.394,335.696,0.05,0.049
3.918,1214.387,459.691,-61.104,459.802,61.126,23.764,0.004,23.764,0.009,10.115,1.651,28.61,-80.6,9.789,0.011,1.753e-8,-0.002,-1.487e-5,2.849e4,5401,32.486,0.111,284.406,233.573,3.152,1.37,1.026e8,0,1462.607,0.622,0.622,0.288,0.152,0.182,0.003,0.01,3.696e-4,0,0,0,0,-5.66e-6,0.059,16.129,204.317,88.523,0.018,1.838,7.106,875.941,335.605,0.05,0.049
3.968,1237.295,456.652,-60.456,456.762,60.488,24.267,0.004,24.267,0.009,10.013,1.958,28.61,-80.6,9.788,0.025,1.267e-8,4.688e-4,-1.653e-5,2.849e4,5401,32.486,0.111,284.409,233.573,3.152,1.362,1.017e8,0,1444.378,0.624,0.624,0.288,0.152,0.184,0.007,0.023,7.543e-5,0,0,0,0,4.71e-7,0.058,16.129,204.317,88.539,0.032,1.894,6.958,873.504,335.515,0.05,0.049
4.018,1260.052,453.645,-59.841,453.754,59.856,24.765,0.004,24.765,0.009,9.922,1.332,28.61,-80.6,9.788,0.001,1.924e-8,-0.002,-5.33e-4,2.849e4,5401,32.486,0.111,284.517,233.573,3.159,1.353,1.009e8,0,1426.414,0.626,0.626,0.289,0.151,0.185,3.507e-4,0.001,4.479e-4,0,0,0,0,-5.72e-6,0.058,16.129,204.317,88.513,0.025,1.851,6.81,871.084,335.426,0.05,0.05
4.068,1282.66,450.668,-59.234,450.776,59.24,25.26,0.004,25.26,0.009,9.877,0.785,28.61,-80.6,9.788,0.025,0,-9.89e-5,1.33e-5,2.849e4,5401,32.486,0.111,284.515,233.573,3.158,1.344,1e8,0,1408.727,0.627,0.627,0.29,0.151,0.186,0.007,0.023,-9.521e-5,0,0,0,0,-2.152e-8,0.058,16.129,204.317,88.489,0.002,1.765,6.663,868.679,335.337,0.05,0.05
4.118,1305.12,447.722,-58.618,447.83,58.626,25.753,0.004,25.753,0.009,9.841,0.943,28.61,-80.6,9.788,0.017,0,0.002,-1.229e-5,2.849e4,5401,32.486,0.111,284.602,233.573,3.164,1.336,9.919e7,0,1391.309,0.629,0.629,0.291,0.151,0.187,0.005,0.016,4.734e-4,0,0,0,0,5.057e-6,0.057,16.129,204.317,88.504,-0.005,1.691,6.517,866.29,335.248,0.05,0.051
4.168,1327.433,444.806,-57.998,444.914,58.022,26.244,0.004,26.244,0.009,9.781,1.638,28.61,-80.6,9.788,0.016,2.945e-8,-0.002,-1.07e-4,2.849e4,5401,32.486,0.111,284.681,233.573,3.169,1.328,9.837e7,0,1374.162,0.631,0.631,0.292,0.151,0.188,0.005,0.015,4.871e-4,0,0,0,0,-1.013e-5,0.057,16.129,204.317,88.546,0.002,1.644,6.372,863.916,335.16,0.05,0.051
4.218,1349.601,441.922,-57.397,442.028,57.432,26.73,0.004,26.73,0.009,9.68,1.993,28.61,-80.6,9.788,0.034,1.232e-8,5.77e-4,-3.409e-6,2.849e4,5401,32.486,0.111,284.718,233.573,3.171,1.319,9.756e7,0,1357.295,0.633,0.633,0.293,0.15,0.189,0.01,0.031,-2.417e-5,0,0,0,0,7.618e-7,0.057,16.129,204.317,88.564,0.023,1.722,6.228,861.558,335.073,0.05,0.052
4.268,1371.625,439.066,-56.824,439.171,56.846,27.212,0.004,27.212,0.009,9.585,1.565,28.61,-80.6,9.788,0.014,0,0.002,7.405e-6,2.849e4,5401,32.486,0.111,284.862,233.573,3.18,1.311,9.675e7,0,1340.676,0.635,0.635,0.294,0.15,0.191,0.004,0.013,1.868e-5,0,0,0,0,1.223e-5,0.056,16.129,204.317,88.531,0.025,1.791,6.084,859.215,334.986,0.05,0.052
4.318,1393.508,436.239,-56.265,436.343,56.274,27.689,0.005,27.689,0.01,9.524,0.971,28.61,-80.6,9.788,0.015,1.587e-8,-0.002,-4.493e-5,2.849e4,5401,32.486,0.111,284.958,233.573,3.186,1.303,9.596e7,0,1324.32,0.636,0.636,0.295,0.15,0.192,0.004,0.014,-4.209e-4,0,0,0,0,-1.295e-5,0.056,16.129,204.317,88.479,0.013,1.917,5.942,856.888,334.9,0.05,0.053
4.368,1415.25,433.439,-55.743,433.543,55.748,28.165,0.005,28.165,0.01,9.486,0.757,28.61,-80.6,9.788,0.026,1.444e-8,-8.04e-4,-3.865e-5,2.849e4,5401,32.486,0.111,285.032,233.573,3.19,1.295,9.517e7,0,1309.267,0.639,0.639,0.296,0.15,0.193,0.007,0.023,-4.084e-4,0,0,0,0,-1.537e-6,0.056,16.129,204.317,88.449,0.002,2.016,5.801,854.575,334.814,0.05,0.054
4.418,1436.852,430.665,-55.237,430.768,55.245,28.638,0.005,28.638,0.01,9.447,0.952,28.61,-80.6,9.788,0.016,9.167e-9,8.441e-4,2.524e-6,2.849e4,5401,32.486,0.111,285.17,233.573,3.199,1.287,9.439e7,0,1295.02,0.641,0.641,0.296,0.151,0.194,0.005,0.015,3.201e-4,0,0,0,0,1.717e-6,0.055,16.129,204.317,88.455,3.268e-4,2.03,5.66,852.277,334.729,0.05,0.054
4.468,1458.317,427.915,-54.739,428.018,54.759,29.109,0.005,29.109,0.01,9.389,1.477,28.61,-80.6,9.788,0.012,6.374e-9,-0.001,-2.214e-5,2.849e4,5401,32.486,0.111,285.299,233.573,3.207,1.279,9.362e7,0,1281.23,0.644,0.644,0.297,0.151,0.195,0.003,0.011,2.568e-4,0,0,0,0,-5.27e-6,0.055,16.129,204.317,88.483,0.014,2.038,5.521,849.994,334.645,0.05,0.055
4.518,1479.644,425.189,-54.338,425.29,54.366,29.576,0.005,29.576,0.01,9.3,1.736,28.61,-80.6,9.788,0.026,1.181e-8,4.437e-4,2.935e-6,2.849e4,5401,32.486,0.111,285.378,233.573,3.212,1.271,9.286e7,0,1270.028,0.648,0.648,0.298,0.153,0.197,0.007,0.023,8.138e-5,0,0,0,0,4.866e-7,0.054,16.129,204.317,88.495,0.025,2.107,5.382,847.725,334.561,0.05,0.056
4.568,1500.836,422.481,-53.955,422.582,53.973,30.039,0.005,30.039,0.01,9.218,1.405,28.61,-80.6,9.788,0.009,6.244e-9,0.002,4.093e-5,2.849e4,5401,32.486,0.111,285.552,233.573,3.223,1.264,9.21e7,0,1258.865,0.652,0.652,0.299,0.155,0.198,0.003,0.008,4.505e-4,0,0,0,0,5.911e-6,0.054,16.129,204.317,88.473,0.015,2.114,5.245,845.475,334.477,0.05,0.056
4.618,1521.893,419.793,-53.621,419.892,53.629,30.499,0.005,30.499,0.01,9.161,0.874,28.61,-80.6,9.788,0.02,9.522e-9,-0.001,-1.104e-5,2.849e4,5401,32.486,0.111,285.649,233.573,3.229,1.256,9.137e7,0,1248.957,0.657,0.657,0.3,0.158,0.199,0.006,0.018,-3.636e-4,0,0,0,0,-4.959e-6,0.054,16.129,204.317,88.44,2.734e-4,2.104,5.108,843.344,334.394,0.05,0.057
4.668,1542.815,417.119,-53.309,417.219,53.313,30.956,0.005,30.956,0.01,9.129,0.721,28.61,-80.6,9.788,0.029,0,6.833e-4,-2.465e-5,2.849e4,5401,32.486,0.111,285.755,233.573,3.235,1.248,9.064e7,0,1239.928,0.662,0.662,0.3,0.161,0.2,0.008,0.025,2.842e-4,0,0,0,0,1.199e-6,0.053,16.129,204.317,88.433,-0.005,2.038,4.972,841.226,334.312,0.05,0.057
4.718,1563.605,414.462,-52.979,414.561,52.991,31.411,0.006,31.411,0.01,9.085,1.127,28.61,-80.6,9.787,0.005,0,0.002,-4.245e-5,2.849e4,5401,32.486,0.111,285.959,233.573,3.248,1.24,8.991e7,0,1230.865,0.667,0.667,0.301,0.164,0.202,0.001,0.004,-1.916e-4,0,0,0,0,7.581e-6,0.053,16.129,204.317,88.46,0.004,2.026,4.837,839.122,334.23,0.05,0.058
4.768,1584.262,411.82,-52.691,411.919,52.712,31.864,0.006,31.864,0.01,9.016,1.48,28.61,-80.6,9.787,0.017,8.552e-9,-0.001,-5.997e-7,2.849e4,5401,32.486,0.111,286.058,233.573,3.254,1.233,8.919e7,0,1222.924,0.672,0.672,0.302,0.167,0.203,0.005,0.015,1.97e-4,0,0,0,0,-3.451e-6,0.053,16.129,204.317,88.491,0.019,1.98,4.702,837.031,334.148,0.05,0.058
4.818,1604.787,409.193,-52.413,409.29,52.433,32.313,0.006,32.313,0.01,8.939,1.46,28.61,-80.6,9.787,0.017,0,-8.118e-5,2.714e-5,2.849e4,5401,32.486,0.111,286.194,233.573,3.263,1.225,8.848e7,0,1214.989,0.678,0.678,0.303,0.171,0.204,0.005,0.015,2.428e-4,0,0,0,0,-1.759e-8,0.052,16.129,204.317,88.503,0.023,1.894,4.569,834.954,334.068,0.05,0.059
4.868,1625.181,406.579,-52.145,406.676,52.158,32.758,0.006,32.758,0.01,8.872,1.196,28.61,-80.6,9.787,0.002,7.114e-9,6.127e-4,8.375e-5,2.849e4,5401,32.486,0.111,286.379,233.573,3.274,1.218,8.777e7,0,1207.163,0.683,0.683,0.304,0.174,0.205,4.862e-4,0.002,4.726e-4,0,0,0,0,1.015e-6,0.052,16.129,204.317,88.494,0.01,1.828,4.436,832.89,333.987,0.05,0.059
4.918,1645.445,403.978,-51.884,404.074,51.896,33.2,0.006,33.2,0.01,8.818,1.136,28.61,-80.6,9.787,0.002,7.802e-9,-1.796e-4,-7.842e-6,2.849e4,5401,32.486,0.111,286.517,233.573,3.283,1.21,8.707e7,0,1199.679,0.689,0.689,0.304,0.178,0.207,4.616e-4,0.002,2.922e-4,0,0,0,0,-8.836e-8,0.052,16.129,204.317,88.484,-0.003,1.843,4.305,830.839,333.907,0.05,0.06
4.968,1665.579,401.391,-51.613,401.486,51.63,33.639,0.006,33.639,0.01,8.756,1.343,28.61,-80.6,9.787,0.011,0,7.337e-4,4.628e-7,2.849e4,5401,32.486,0.111,286.623,233.573,3.289,1.203,8.637e7,0,1192.125,0.695,0.695,0.305,0.182,0.208,0.003,0.01,1.184e-4,0,0,0,0,1.493e-6,0.051,16.129,204.317,88.476,-0.005,2.014,4.174,828.801,333.828,0.05,0.06
5.018,1685.584,398.817,-51.346,398.911,51.362,34.076,0.006,34.076,0.01,8.686,1.287,28.61,-80.6,9.787,0.007,5.222e-9,0.002,-2.355e-5,2.849e4,5401,32.486,0.111,286.77,233.573,3.298,1.195,8.568e7,0,1184.492,0.701,0.701,0.306,0.186,0.209,0.002,0.007,-4.846e-4,0,0,0,0,6.993e-6,0.051,16.129,204.317,88.456,0.01,2.129,4.044,826.776,333.749,0.05,0.061
5.068,1705.461,396.256,-51.083,396.35,51.093,34.508,0.006,34.508,0.01,8.63,1.011,28.61,-80.6,9.787,0.011,1.199e-8,-0.001,-5.22e-5,2.849e4,5401,32.486,0.111,286.891,233.573,3.306,1.188,8.5e7,0,1176.784,0.707,0.707,0.307,0.19,0.21,0.003,0.01,-3.917e-4,0,0,0,0,-4.551e-6,0.051,16.129,204.317,88.428,0.019,2.151,3.915,824.764,333.671,0.05,0.061
5.118,1725.21,393.709,-50.813,393.802,50.821,34.939,0.006,34.939,0.011,8.584,0.915,28.61,-80.6,9.787,0.018,0,-3.699e-4,1.217e-5,2.849e4,5401,32.486,0.111,286.999,233.573,3.312,1.181,8.432e7,0,1169.012,0.713,0.713,0.308,0.193,0.212,0.005,0.016,2.892e-4,0,0,0,0,-3.944e-7,0.05,16.129,204.317,88.412,0.015,2.19,3.786,822.765,333.593,0.05,0.061
5.168,1744.832,391.175,-50.515,391.268,50.527,35.367,0.007,35.367,0.011,8.536,1.104,28.61,-80.6,9.787,0.005,0,4.413e-4,-5.035e-6,2.849e4,5401,32.486,0.111,287.17,233.573,3.323,1.173,8.364e7,0,1160.7,0.718,0.718,0.308,0.197,0.213,0.001,0.005,-1.071e-5,0,0,0,0,5.687e-7,0.05,16.129,204.317,88.415,0.006,2.25,3.659,820.779,333.516,0.05,0.062
5.218,1764.328,388.657,-50.215,388.749,50.232,35.792,0.007,35.792,0.011,8.472,1.304,28.61,-80.6,9.787,0.01,6.162e-9,1.702e-6,-3.954e-6,2.849e4,5401,32.486,0.111,287.278,233.573,3.33,1.166,8.297e7,0,1152.306,0.724,0.724,0.309,0.2,0.214,0.002,0.009,3.369e-5,0,0,0,0,0,0.05,16.129,204.317,88.422,0.002,2.316,3.532,818.806,333.439,0.05,0.062
5.268,1783.698,386.154,-49.912,386.245,49.93,36.214,0.007,36.214,0.011,8.407,1.359,28.61,-80.6,9.787,0.015,5.416e-9,2.793e-4,2.62e-5,2.849e4,5401,32.486,0.111,287.382,233.573,3.336,1.159,8.231e7,0,1143.71,0.729,0.729,0.31,0.204,0.216,0.004,0.012,-1.498e-4,0,0,0,0,2.337e-7,0.049,16.129,204.317,88.42,-0.004,2.346,3.406,816.845,333.363,0.05,0.063
5.318,1802.944,383.666,-49.582,383.757,49.599,36.633,0.007,36.633,0.011,8.337,1.286,28.61,-80.6,9.787,0.009,9.876e-9,0.001,3.735e-5,2.849e4,5401,32.486,0.111,287.515,233.573,3.344,1.152,8.165e7,0,1134.271,0.734,0.734,0.311,0.206,0.217,0.002,0.008,-4.493e-4,0,0,0,0,5.541e-6,0.049,16.129,204.317,88.404,-0.004,2.43,3.281,814.897,333.287,0.05,0.063
5.368,1822.065,381.195,-49.256,381.285,49.268,37.048,0.007,37.048,0.011,8.28,1.088,28.61,-80.6,9.787,0.006,8.648e-9,-0.001,1.238e-5,2.849e4,5401,32.486,0.111,287.638,233.573,3.352,1.144,8.099e7,0,1124.841,0.739,0.739,0.311,0.209,0.218,0.001,0.005,-3.451e-4,0,0,0,0,-3.568e-6,0.049,16.129,204.317,88.379,0.002,2.452,3.157,812.962,333.212,0.05,0.063
5.418,1841.064,378.741,-48.911,378.83,48.921,37.461,0.007,37.461,0.011,8.228,0.942,28.61,-80.6,9.787,0.017,0,-8.76e-4,2.126e-5,2.849e4,5401,32.486,0.111,287.703,233.573,3.356,1.137,8.035e7,0,1114.9,0.743,0.743,0.312,0.211,0.22,0.004,0.015,-2.406e-5,0,0,0,0,-2.391e-6,0.049,16.129,204.317,88.361,0.014,2.494,3.033,811.039,333.137,0.05,0.064
5.468,1859.94,376.305,-48.536,376.394,48.543,37.871,0.007,37.871,0.011,8.186,0.838,28.61,-80.6,9.787,0.025,7.243e-9,5.201e-4,3.48e-5,2.849e4,5401,32.486,0.111,287.777,233.573,3.361,1.13,7.97e7,0,1104.12,0.747,0.747,0.313,0.213,0.221,0.006,0.021,-6.215e-5,0,0,0,0,8.535e-7,0.048,16.129,204.317,88.358,0.021,2.418,2.91,809.128,333.063,0.05,0.064
5.518,1878.694,373.887,-48.155,373.976,48.166,38.279,0.007,38.279,0.011,8.141,1.01,28.61,-80.6,9.786,0.01,0,0.001,7.382e-6,2.849e4,5401,32.486,0.111,287.922,233.573,3.37,1.123,7.907e7,0,1093.42,0.751,0.751,0.314,0.215,0.223,0.002,0.009,-1.564e-4,0,0,0,0,5.534e-6,0.048,16.129,204.317,88.377,0.019,2.386,2.788,807.23,332.989,0.05,0.065
5.568,1897.329,371.49,-47.743,371.578,47.759,38.685,0.007,38.685,0.011,8.085,1.207,28.61,-80.6,9.786,0.008,1.304e-8,-0.001,-3.898e-5,2.849e4,5401,32.486,0.111,288.015,233.573,3.375,1.116,7.844e7,0,1081.857,0.754,0.754,0.314,0.216,0.224,0.002,0.007,-1.364e-4,0,0,0,0,-5.329e-6,0.048,16.129,204.317,88.404,0.004,2.328,2.667,805.344,332.915,0.05,0.065
5.618,1915.844,369.113,-47.312,369.2,47.328,39.088,0.007,39.088,0.011,8.022,1.237,28.61,-80.6,9.786,0.013,0,-8.095e-4,-2.028e-5,2.849e4,5401,32.486,0.111,288.08,233.573,3.379,1.109,7.782e7,0,1069.603,0.756,0.756,0.315,0.216,0.225,0.003,0.011,-2.35e-4,0,0,0,0,-2.149e-6,0.047,16.129,204.317,88.424,-0.003,2.224,2.547,803.47,332.842,0.05,0.066
5.668,1934.24,366.758,-46.884,366.845,46.904,39.487,0.007,39.487,0.011,7.96,1.369,28.61,-80.6,9.786,0.026,0,-3.327e-4,-1.258e-5,2.849e4,5401,32.486,0.111,288.109,233.573,3.381,1.103,7.72e7,0,1057.519,0.759,0.759,0.316,0.216,0.227,0.006,0.021,-3.507e-4,0,0,0,0,-3.677e-7,0.047,16.129,204.317,88.433,0.002,2.238,2.427,801.608,332.77,0.05,0.066
5.718,1952.52,364.425,-46.438,364.51,46.458,39.883,0.007,39.883,0.011,7.885,1.355,28.61,-80.6,9.786,0.026,0,0.002,-4.515e-5,2.849e4,5401,32.486,0.111,288.178,233.573,3.386,1.096,7.659e7,0,1044.811,0.761,0.761,0.317,0.216,0.228,0.006,0.02,2.204e-4,0,0,0,0,9.081e-6,0.047,16.129,204.317,88.421,0.011,2.351,2.309,799.758,332.698,0.05,0.066
5.768,1970.683,362.114,-45.992,362.199,46.002,40.276,0.008,40.276,0.011,7.83,0.976,28.61,-80.6,9.786,0.008,6.302e-9,-0.001,-7.559e-5,2.849e4,5401,32.486,0.111,288.304,233.573,3.393,1.089,7.599e7,0,1031.802,0.762,0.762,0.318,0.215,0.23,0.002,0.006,3.503e-4,0,0,0,0,-7.581e-6,0.046,16.129,204.317,88.389,0.02,2.289,2.191,797.919,332.626,0.05,0.067
5.818,1988.732,359.826,-45.549,359.91,45.555,40.666,0.008,40.666,0.011,7.786,0.772,28.61,-80.6,9.786,0.027,0,-0.001,9.241e-6,2.849e4,5401,32.486,0.111,288.291,233.573,3.393,1.082,7.539e7,0,1019.018,0.764,0.764,0.319,0.214,0.231,0.006,0.022,-3.637e-5,0,0,0,0,-3.704e-6,0.046,16.129,204.317,88.363,0.018,2.323,2.073,796.093,332.555,0.05,0.067
5.868,2006.666,357.56,-45.059,357.644,45.064,41.055,0.008,41.055,0.011,7.751,0.715,28.61,-80.6,9.786,0.031,5.222e-9,3.817e-4,-3.704e-5,2.849e4,5401,32.486,0.111,288.323,233.573,3.395,1.076,7.481e7,0,1005.013,0.764,0.764,0.32,0.212,0.232,0.007,0.025,-4.906e-4,0,0,0,0,5.091e-7,0.046,16.129,204.317,88.358,0.01,2.293,1.957,794.31,332.485,0.05,0.068
5.918,2024.488,355.32,-44.545,355.404,44.554,41.441,0.008,41.441,0.011,7.712,0.879,28.61,-80.6,9.786,0.014,6.975e-9,0.001,-1.939e-5,2.849e4,5401,32.486,0.111,288.427,233.573,3.401,1.069,7.423e7,0,990.523,0.764,0.764,0.322,0.209,0.234,0.003,0.011,-4.596e-4,0,0,0,0,6.045e-6,0.046,16.129,204.317,88.375,0.001,2.28,1.841,792.595,332.414,0.05,0.068
5.968,2042.199,353.105,-44.042,353.189,44.054,41.826,0.008,41.826,0.011,7.663,1.032,28.61,-80.6,9.786,0.003,0,-0.001,-1.521e-4,2.849e4,5401,32.486,0.111,288.505,233.573,3.406,1.063,7.367e7,0,976.32,0.764,0.764,0.323,0.206,0.235,6.988e-4,0.002,1.692e-4,0,0,0,0,-7.142e-6,0.045,16.129,204.317,88.403,5.882e-4,2.208,1.726,790.89,332.345,0.05,0.069
6.018,2059.799,350.916,-43.503,350.999,43.517,42.208,0.008,42.208,0.011,7.61,1.103,28.61,-80.6,9.786,0.013,0,-0.001,-6.374e-6,2.849e4,5401,32.486,0.111,288.5,233.573,3.405,1.057,7.311e7,0,961.033,0.763,0.763,0.324,0.202,0.237,0.003,0.01,4.2e-4,0,0,0,0,-5.679e-6,0.045,16.129,204.317,88.428,0.004,2.103,1.611,789.196,332.275,0.05,0.069
6.068,2077.291,348.755,-42.937,348.837,42.955,42.587,0.008,42.587,0.011,7.552,1.26,28.61,-80.6,9.786,0.031,9.186e-9,-5.018e-4,-4.095e-5,2.849e4,5401,32.486,0.111,288.459,233.573,3.403,1.05,7.256e7,0,945.033,0.761,0.761,0.325,0.197,0.238,0.007,0.024,-2.525e-4,0,0,0,0,-9.249e-7,0.045,16.129,204.317,88.444,0.012,2.116,1.498,787.513,332.206,0.05,0.07
6.118,2094.675,346.622,-42.389,346.703,42.408,42.963,0.008,42.963,0.011,7.484,1.274,28.61,-80.6,9.786,0.034,6.93e-9,0.001,6.487e-6,2.849e4,5401,32.486,0.111,288.467,233.573,3.403,1.044,7.201e7,0,929.43,0.759,0.759,0.326,0.193,0.239,0.008,0.027,2.398e-4,0,0,0,0,4.929e-6,0.044,16.129,204.317,88.438,0.013,2.189,1.385,785.839,332.138,0.05,0.07
6.168,2111.953,344.516,-41.829,344.596,41.841,43.335,0.008,43.335,0.011,7.428,1.01,28.61,-80.6,9.786,0.008,6.003e-9,0.002,-8.318e-6,2.849e4,5401,32.486,0.111,288.579,233.573,3.41,1.038,7.148e7,0,913.279,0.756,0.756,0.328,0.188,0.241,0.002,0.006,2.768e-4,0,0,0,0,1.093e-5,0.044,16.129,204.317,88.41,0.012,2.176,1.272,784.176,332.07,0.05,0.071
6.218,2129.127,342.44,-41.226,342.52,41.232,43.706,0.008,43.706,0.011,7.384,0.727,28.61,-80.6,9.786,0.022,1.222e-8,-0.002,-2.683e-5,2.849e4,5401,32.486,0.111,288.538,233.573,3.408,1.032,7.095e7,0,895.89,0.752,0.752,0.329,0.181,0.242,0.005,0.017,-3.367e-4,0,0,0,0,-1.04e-5,0.044,16.129,204.317,88.377,0.014,2.186,1.161,782.523,332.002,0.05,0.071
6.268,2146.198,340.393,-40.638,340.473,40.641,44.074,0.008,44.074,0.011,7.355,0.524,28.61,-80.6,9.786,0.043,5.976e-9,-2.559e-4,1.945e-5,2.849e4,5401,32.486,0.111,288.466,233.573,3.403,1.026,7.043e7,0,878.974,0.748,0.748,0.33,0.174,0.244,0.01,0.033,-4.943e-4,0,0,0,0,-2.526e-7,0.044,16.129,204.317,88.358,0.021,2.131,1.05,780.88,331.935,0.05,0.072
6.318,2163.167,338.376,-40.056,338.455,40.062,44.441,0.009,44.441,0.011,7.328,0.678,28.61,-80.6,9.786,0.024,5.342e-9,0.001,3.921e-6,2.849e4,5401,32.486,0.111,288.534,233.573,3.408,1.02,6.991e7,0,862.54,0.744,0.744,0.331,0.168,0.245,0.006,0.019,3.52e-4,0,0,0,0,4.534e-6,0.043,16.129,204.317,88.367,0.025,2.17,0.939,779.247,331.868,0.05,0.072
6.368,2180.036,336.39,-39.395,336.469,39.407,44.807,0.009,44.807,0.011,7.285,0.967,28.61,-80.6,9.786,0.01,7.007e-9,-0.001,2.196e-5,2.849e4,5401,32.486,0.111,288.587,233.573,3.411,1.014,6.941e7,0,843.941,0.738,0.738,0.332,0.159,0.246,0.002,0.007,3.652e-4,0,0,0,0,-5.384e-6,0.043,16.129,204.317,88.391,0.017,2.237,0.83,777.623,331.802,0.05,0.073
6.418,2196.807,334.436,-38.758,334.514,38.773,45.17,0.009,45.17,0.011,7.232,1.103,28.61,-80.6,9.785,0.028,7.457e-9,-5.08e-4,-1.305e-6,2.849e4,5401,32.486,0.111,288.513,233.573,3.406,1.009,6.891e7,0,825.902,0.732,0.732,0.333,0.151,0.248,0.006,0.022,-4.508e-4,0,0,0,0,-1.031e-6,0.043,16.129,204.317,88.407,0.008,2.24,0.721,776.009,331.736,0.05,0.073
6.468,2213.48,332.514,-38.144,332.591,38.159,45.53,0.009,45.53,0.011,7.176,1.068,28.61,-80.6,9.785,0.027,6.907e-9,5.106e-4,3.334e-5,2.849e4,5401,32.486,0.111,288.51,233.573,3.406,1.003,6.842e7,0,808.412,0.726,0.726,0.334,0.142,0.249,0.006,0.02,2.967e-4,0,0,0,0,1.054e-6,0.043,16.129,204.317,88.407,-0.004,2.232,0.612,774.404,331.67,0.05,0.073
6.518,2230.058,330.62,-37.675,330.697,37.684,45.887,0.009,45.887,0.011,7.128,0.793,28.61,-80.6,9.785,0.004,1.101e-8,-0.001,9.285e-5,2.849e4,5401,32.486,0.111,288.585,233.573,3.411,0.997,6.794e7,0,794.839,0.723,0.723,0.335,0.138,0.249,8.612e-4,0.003,-2.213e-4,0,0,0,0,-4.881e-6,0.042,16.129,204.317,88.39,-0.006,2.138,0.505,772.808,331.605,0.05,0.074
6.568,2246.542,328.745,-37.35,328.821,37.354,46.243,0.009,46.243,0.011,7.098,0.536,28.61,-80.6,9.785,0.033,7.907e-9,-1.26e-4,1.043e-5,2.849e4,5401,32.486,0.111,288.46,233.573,3.403,0.992,6.746e7,0,785.374,0.724,0.724,0.336,0.14,0.248,0.008,0.025,-5.519e-5,0,0,0,0,-6.566e-8,0.042,16.129,204.317,88.377,0.003,2.009,0.397,771.221,331.54,0.05,0.074
6.618,2262.933,326.885,-37.022,326.962,37.027,46.597,0.009,46.597,0.011,7.071,0.57,28.61,-80.6,9.785,0.028,8.633e-9,7.814e-4,1.942e-5,2.849e4,5401,32.486,0.111,288.463,233.573,3.403,0.987,6.699e7,0,776.069,0.724,0.724,0.337,0.141,0.247,0.006,0.021,1.553e-4,0,0,0,0,2.554e-6,0.042,16.129,204.317,88.383,0.013,1.994,0.291,769.644,331.475,0.05,0.075
6.668,2279.231,325.042,-36.696,325.119,36.703,46.95,0.009,46.95,0.011,7.039,0.726,28.61,-80.6,9.785,0.008,6.827e-9,0.001,4.159e-6,2.849e4,5401,32.486,0.111,288.523,233.573,3.407,0.981,6.652e7,0,766.904,0.725,0.725,0.338,0.142,0.245,0.002,0.006,-2.881e-4,0,0,0,0,8.622e-6,0.042,16.129,204.317,88.405,0.019,1.968,0.185,768.075,331.411,0.05,0.075
6.718,2295.438,323.216,-36.373,323.292,36.386,47.301,0.009,47.301,0.011,6.997,0.951,28.61,-80.6,9.785,0.022,5.787e-9,-0.001,1.215e-5,2.849e4,5401,32.486,0.111,288.45,233.573,3.402,0.976,6.606e7,0,757.886,0.726,0.726,0.339,0.143,0.244,0.005,0.017,-1.902e-4,0,0,0,0,-6.507e-6,0.041,16.129,204.317,88.431,0.018,1.989,0.08,766.515,331.347,0.05,0.075
6.768,2311.553,321.405,-36.058,321.48,36.074,47.649,0.009,47.649,0.011,6.945,1.064,28.61,-80.6,9.785,0.038,7.374e-9,-1.344e-4,-2.012e-6,2.849e4,5401,32.486,0.111,288.368,233.573,3.397,0.971,6.56e7,0,749.006,0.727,0.727,0.34,0.144,0.242,0.009,0.029,-3.225e-4,0,0,0,0,-7.814e-8,0.041,16.129,204.317,88.444,0.012,2.01,-0.025,764.964,331.284,0.05,0.076
6.818,2327.578,319.61,-35.754,319.684,35.766,47.995,0.009,47.995,0.011,6.894,0.934,28.61,-80.6,9.785,0.023,5.902e-9,8.623e-4,-5.234e-6,2.849e4,5401,32.486,0.111,288.402,233.573,3.399,0.965,6.515e7,0,740.246,0.728,0.728,0.341,0.145,0.241,0.005,0.017,-7.346e-5,0,0,0,0,3.253e-6,0.041,16.129,204.317,88.436,0.012,1.963,-0.129,763.421,331.221,0.05,0.077
6.868,2343.514,317.83,-35.457,317.903,35.464,48.339,0.01,48.339,0.011,6.853,0.712,28.61,-80.6,9.785,0.005,0,-0.001,2.931e-5,2.849e4,5401,32.486,0.111,288.448,233.573,3.402,0.96,6.47e7,0,731.617,0.728,0.728,0.342,0.146,0.24,0.001,0.004,3.793e-4,0,0,0,0,-5.012e-6,0.041,16.129,204.317,88.416,0.014,1.9,-0.233,761.888,331.158,0.05,0.077
6.918,2359.362,316.064,-35.164,316.138,35.168,48.681,0.01,48.681,0.011,6.822,0.514,28.61,-80.6,9.785,0.03,0,-6.576e-4,1.03e-5,2.849e4,5401,32.486,0.111,288.327,233.573,3.395,0.955,6.425e7,0,723.118,0.729,0.729,0.343,0.147,0.239,0.007,0.023,-1.056e-4,0,0,0,0,-1.934e-6,0.04,16.129,204.317,88.399,0.015,1.838,-0.336,760.362,331.095,0.05,0.077
6.968,2375.121,314.313,-34.87,314.387,34.874,49.021,0.01,49.021,0.011,6.8,0.517,28.61,-80.599,9.785,0.029,5.032e-9,5.992e-4,1.634e-5,2.849e4,5401,32.486,0.111,288.306,233.573,3.393,0.95,6.381e7,0,714.748,0.73,0.73,0.344,0.149,0.237,0.007,0.022,-4.06e-5,0,0,0,0,1.624e-6,0.04,16.129,204.317,88.399,0.023,1.815,-0.438,758.845,331.033,0.05,0.078
7.018,2390.793,312.577,-34.575,312.65,34.583,49.361,0.01,49.361,0.011,6.767,0.735,28.61,-80.599,9.785,0.001,6.069e-9,-6.539e-4,2.243e-4,2.849e4,5401,32.486,0.111,288.388,233.573,3.399,0.945,6.338e7,0,706.511,0.731,0.731,0.345,0.15,0.236,2.325e-4,4.708e-4,7.112e-5,0,0,0,0,-1.956e-6,0.04,16.129,204.317,88.412,0.028,1.912,-0.54,757.337,330.972,0.05,0.078
7.068,2406.379,310.855,-34.287,310.928,34.297,49.698,0.01,49.698,0.012,6.728,0.817,28.61,-80.599,9.785,0.014,6.302e-9,-6.23e-4,1.912e-5,2.849e4,5401,32.486,0.111,288.314,233.573,3.394,0.94,6.294e7,0,698.384,0.732,0.732,0.346,0.151,0.235,0.003,0.01,1.717e-4,0,0,0,0,-1.795e-6,0.04,16.129,204.317,88.426,0.024,1.891,-0.641,755.837,330.91,0.05,0.079
7.118,2421.879,309.148,-34.004,309.221,34.016,50.033,0.01,50.033,0.012,6.686,0.872,28.61,-80.599,9.785,0.023,5.108e-9,-5.017e-5,2.942e-5,2.849e4,5401,32.486,0.111,288.254,233.573,3.39,0.935,6.252e7,0,690.379,0.732,0.732,0.347,0.152,0.234,0.005,0.018,-3.39e-4,0,0,0,0,-1.177e-8,0.04,16.129,204.317,88.432,0.012,1.906,-0.742,754.345,330.849,0.05,0.079
7.168,2437.294,307.455,-33.728,307.527,33.739,50.367,0.01,50.367,0.012,6.642,0.842,28.61,-80.599,9.785,0.02,5.37e-9,5.638e-4,2.461e-5,2.849e4,5401,32.486,0.111,288.24,233.573,3.389,0.93,6.209e7,0,682.487,0.733,0.733,0.348,0.153,0.232,0.004,0.015,-2.457e-4,0,0,0,0,1.502e-6,0.039,16.129,204.317,88.427,-5.647e-4,1.911,-0.842,752.861,330.788,0.05,0.08
7.218,2452.625,305.775,-33.458,305.847,33.466,50.698,0.01,50.698,0.012,6.602,0.734,28.61,-80.599,9.785,0.005,0,9.859e-4,1.007e-4,2.849e4,5401,32.486,0.111,288.27,233.573,3.391,0.925,6.167e7,0,674.707,0.734,0.734,0.349,0.154,0.231,0.001,0.004,2.056e-4,0,0,0,0,4.645e-6,0.039,16.129,204.317,88.412,-0.004,1.904,-0.942,751.385,330.728,0.05,0.08
7.268,2467.872,304.109,-33.193,304.18,33.198,51.027,0.01,51.027,0.012,6.57,0.551,28.61,-80.599,9.785,0.02,0,-7.826e-4,3.644e-5,2.849e4,5401,32.486,0.111,288.189,233.573,3.386,0.92,6.126e7,0,667.033,0.735,0.735,0.35,0.155,0.23,0.004,0.015,-3.356e-4,0,0,0,0,-2.959e-6,0.039,16.129,204.317,88.394,0.003,1.841,-1.041,749.918,330.668,0.05,0.08
7.318,2483.036,302.456,-32.931,302.527,32.934,51.355,0.011,51.355,0.012,6.547,0.439,28.61,-80.599,9.785,0.036,6.436e-9,6.914e-5,2.591e-5,2.849e4,5401,32.486,0.111,288.105,233.573,3.381,0.915,6.084e7,0,659.469,0.736,0.736,0.351,0.156,0.229,0.008,0.027,1.88e-4,0,0,0,0,2.335e-8,0.039,16.129,204.317,88.387,0.017,1.772,-1.14,748.458,330.608,0.05,0.081
7.368,2498.118,300.816,-32.667,300.887,32.671,51.682,0.011,51.682,0.012,6.524,0.524,28.61,-80.599,9.785,0.022,8.278e-9,8.936e-4,2.984e-5,2.849e4,5401,32.486,0.111,288.133,233.573,3.383,0.91,6.043e7,0,652.016,0.736,0.736,0.352,0.157,0.228,0.005,0.017,-3.236e-4,0,0,0,0,3.943e-6,0.039,16.129,204.317,88.397,0.032,1.776,-1.238,747.006,330.549,0.05,0.081
7.418,2513.118,299.189,-32.405,299.26,32.413,52.007,0.011,52.007,0.012,6.493,0.728,28.61,-80.599,9.785,0.009,5.875e-9,-0.001,6.897e-5,2.849e4,5401,32.486,0.111,288.16,233.573,3.384,0.906,6.004e7,0,644.727,0.737,0.737,0.353,0.158,0.227,0.002,0.007,2.505e-4,0,0,0,0,-5.924e-6,0.038,16.129,204.317,88.417,0.037,1.832,-1.335,745.625,330.49,0.05,0.082
7.468,2528.037,297.575,-32.148,297.645,32.161,52.331,0.011,52.331,0.012,6.451,0.917,28.61,-80.599,9.784,0.039,7.084e-9,-4.251e-4,3.027e-6,2.849e4,5401,32.486,0.111,288.023,233.573,3.376,0.901,5.964e7,0,637.554,0.738,0.738,0.353,0.159,0.226,0.009,0.03,-1.564e-4,0,0,0,0,-9.12e-7,0.038,16.129,204.317,88.432,0.034,1.91,-1.432,744.26,330.431,0.05,0.082
7.518,2542.875,295.978,-31.737,296.047,31.751,52.652,0.011,52.652,0.012,6.403,0.928,28.61,-80.599,9.784,0.043,6.836e-9,7.758e-4,1.96e-5,2.849e4,5401,32.486,0.111,287.988,233.573,3.374,0.896,5.925e7,0,625.873,0.733,0.733,0.354,0.155,0.224,0.01,0.032,-4.754e-4,0,0,0,0,3.07e-6,0.038,16.129,204.317,88.429,0.025,1.946,-1.529,742.903,330.373,0.05,0.082
7.568,2557.635,294.402,-31.316,294.47,31.327,52.971,0.011,52.971,0.012,6.36,0.815,28.61,-80.599,9.784,0.027,6.786e-9,0.002,4.343e-5,2.849e4,5401,32.486,0.111,288.03,233.573,3.376,0.892,5.886e7,0,613.789,0.728,0.728,0.354,0.151,0.223,0.006,0.02,3.231e-4,0,0,0,0,1.187e-5,0.038,16.129,204.317,88.407,0.011,1.964,-1.625,741.553,330.314,0.05,0.083
7.618,2572.316,292.846,-30.914,292.914,30.922,53.288,0.011,53.288,0.012,6.321,0.704,28.61,-80.599,9.784,0.01,6.038e-9,0.002,6.588e-5,2.849e4,5401,32.486,0.111,288.076,233.573,3.379,0.887,5.848e7,0,602.255,0.723,0.723,0.354,0.146,0.222,0.002,0.008,-4.241e-4,0,0,0,0,2.283e-5,0.038,16.129,204.317,88.373,0.002,2.05,-1.72,740.21,330.257,0.05,0.083
7.668,2586.92,291.31,-30.532,291.378,30.536,53.603,0.011,53.603,0.012,6.291,0.498,28.61,-80.599,9.784,0.022,0,-0.002,6.314e-5,2.849e4,5401,32.486,0.111,288.012,233.573,3.375,0.883,5.811e7,0,591.196,0.718,0.718,0.355,0.142,0.221,0.005,0.017,6.404e-5,0,0,0,0,-2.012e-5,0.037,16.129,204.317,88.335,3.559e-4,2.06,-1.815,738.874,330.199,0.05,0.084
7.718,2601.447,289.792,-30.164,289.86,30.166,53.918,0.011,53.918,0.012,6.272,0.32,28.61,-80.599,9.784,0.05,8.133e-9,-0.001,5.473e-6,2.849e4,5401,32.486,0.111,287.887,233.573,3.367,0.878,5.774e7,0,580.576,0.714,0.714,0.355,0.138,0.22,0.011,0.037,4.607e-4,0,0,0,0,-5.72e-6,0.037,16.129,204.317,88.307,0.004,2.03,-1.909,737.545,330.142,0.05,0.084
