# Time (s),Altitude (m),Vertical velocity (m/s),Vertical acceleration (m/s²),Total velocity (m/s),Total acceleration (m/s²),Position East of launch (m),Position North of launch (m),Lateral distance (m),Lateral direction (°),Lateral velocity (m/s),Lateral acceleration (m/s²),Latitude (°),Longitude (°),Gravitational acceleration (m/s²),Angle of attack (°),Roll rate (r/s),Pitch rate (r/s),Yaw rate (r/s),Mass (g),Motor mass (g),Longitudinal moment of inertia (kg·m²),Rotational moment of inertia (kg·m²),CP location (cm),CG location (cm),Stability margin calibers (​),Mach number (​),Reynolds number (​),Thrust (N),Drag force (N),Drag coefficient (​),Axial drag coefficient (​),Friction drag coefficient (​),Pressure drag coefficient (​),Base drag coefficient (​),Normal force coefficient (​),Pitch moment coefficient (​),Yaw moment coefficient (​),Side force coefficient (​),Roll moment coefficient (​),Roll forcing coefficient (​),Roll damping coefficient (​),Pitch damping coefficient (​),Coriolis acceleration (m/s²),Reference length (cm),Reference area (cm²),Vertical orientation (zenith) (°),Lateral orientation (azimuth) (°),Wind velocity (m/s),Air temperature (°C),Air pressure (mbar),Speed of sound (m/s),Simulation time step (s),Computation time (s)
0.01,6.7880291e-4,0.1357746,13.5816558,0.1357746,13.5816558,0,0,0,0,0,0,43.5,-120,9.8005961,85.9881463,0,0,0,3.9599518e4,1.6510775e4,37.5773839,0.124719,NaN,252.5656184,NaN,0.0057938,4.2719746e5,925.9259259,2.3887328e-5,0.7004801,5.7967666e-4,0.5671531,0.0133226,0.1200044,NaN,NaN,NaN,NaN,NaN,NaN,NaN,NaN,1.4363628e-5,16.129,204.3171233,90,0,1.9359112,6.0299956,858.3244981,334.9530773,0.01,0.0069749
0.02,0.0050543,0.739362,60.3712896,0.739362,60.3712896,0,0,0,0,0,0,43.5,-120,9.8005961,69.0237653,0,0,0,3.9585293e4,1.649655e4,37.5721801,0.1247019,NaN,252.5481165,NaN,0.0061661,4.5464782e5,2777.7777778,0.0031301,0.6929073,0.0670626,0.5595776,0.0133248,0.1200049,NaN,NaN,NaN,NaN,NaN,NaN,NaN,NaN,7.8217305e-5,16.129,204.3171233,90,0,1.9284944,6.0299671,858.3240327,334.9530601,0.01,0.0075274
0.03,0.0176913,1.7881254,104.9052212,1.7881254,104.9052212,0,0,0,0,0,0,43.5,-120,9.8005961,47.0530967,0,0,0,3.9567482e4,1.6478739e4,37.565661,0.1246805,NaN,252.5261849,NaN,0.0078354,5.7772295e5,4538.6500208,0.029658,0.6651482,0.3935299,0.531806,0.0133342,0.120008,NaN,NaN,NaN,NaN,NaN,NaN,NaN,NaN,1.8916446e-4,16.129,204.3171233,90,0,1.9210777,6.029885,858.3226884,334.9530103,0.01,0.0078756
0.04,0.0412304,2.9198211,113.2095092,2.9198211,113.2095092,0,0,0,0,0,0,43.5,-120,9.800596,33.2409704,0,0,0,3.9541304e4,1.6452561e4,37.5560726,0.1246491,NaN,252.4939145,NaN,0.0104225,7.6848039e5,4864.0662128,0.0862371,0.6347076,0.6467,0.5013458,0.0133477,0.1200141,NaN,NaN,NaN,NaN,NaN,NaN,NaN,NaN,3.0888868e-4,16.129,204.3171233,90,0,1.9136609,6.029732,858.3201845,334.9529176,0.01,0.0082532
0.05,0.0758755,4.0093283,108.9890884,4.0093283,108.9890884,0,0,0,0,0,0,43.5,-120,9.800596,25.4288549,0,0,0,3.9515126e4,1.6426383e4,37.5464759,0.1246177,NaN,252.4616014,NaN,0.0132539,9.7724087e5,4694.1489787,0.1596152,0.6110588,0.7401922,0.4776739,0.013362,0.1200228,NaN,NaN,NaN,NaN,NaN,NaN,NaN,NaN,4.2414793e-4,16.129,204.3171233,90,0,1.9062441,6.0295068,858.3164993,334.9527811,0.01,0.0092053
0.06,0.1212044,5.0565878,104.762821,5.0565878,104.762821,0,0,0,0,0,0,43.5,-120,9.8005959,20.7212509,0,0,0,3.9488948e4,1.6400205e4,37.5368709,0.1245862,NaN,252.4292455,NaN,0.0161405,1.1900743e6,4524.2317447,0.2429051,0.5929029,0.7595576,0.4594926,0.0133765,0.1200339,NaN,NaN,NaN,NaN,NaN,NaN,NaN,NaN,5.3493777e-4,16.129,204.3171233,90,0,1.9128689,6.0292122,858.3116776,334.9526026,0.01,0.0095824
0.07,0.1767945,6.0615414,100.5307828,6.0615414,100.5307828,0,0,0,0,0,0,43.5,-120,9.8005957,17.5713065,0,0,0,3.946277e4,1.6374027e4,37.5272576,0.1245548,NaN,252.3968466,NaN,0.0189824,1.399606e6,4354.3145106,0.3326626,0.5787322,0.7520782,0.4452943,0.013391,0.1200468,NaN,NaN,NaN,NaN,NaN,NaN,NaN,NaN,6.4125208e-4,16.129,204.3171233,90,0,1.9194937,6.0288508,858.3057644,334.9523836,0.01,0.0099808
0.08,0.2422732,7.0343195,97.310192,7.0343195,97.310192,0,0,0,0,0,0,43.5,-120,9.8005956,15.3132272,0,0,0,3.943759e4,1.6348847e4,37.518003,0.1245246,NaN,252.3656419,NaN,0.021774,1.6054276e6,4224.6177787,0.4264442,0.5672563,0.7327395,0.4337889,0.0134058,0.1200616,NaN,NaN,NaN,NaN,NaN,NaN,NaN,NaN,7.4416285e-4,16.129,204.3171233,90,0,1.9261185,6.0284252,858.2987993,334.9521257,0.01,0.0108228
0.09,0.3175282,8.0167854,98.2789223,8.0167854,98.2789223,0,0,0,0,0,0,43.5,-120,9.8005954,13.5546105,0,0,0,3.9413075e4,1.6324332e4,37.5089854,0.1244951,NaN,252.3352233,NaN,0.0246199,1.8152429e6,4260.272,0.5258577,0.5573615,0.7067495,0.4238613,0.0134214,0.1200788,NaN,NaN,NaN,NaN,NaN,NaN,NaN,NaN,8.4809787e-4,16.129,204.3171233,90,0,1.9327432,6.0279361,858.2907944,334.9518293,0.01,0.0111737
0.1,0.402679,9.0134835,99.7024935,9.0134835,99.7024935,0,0,0,0,0,0,43.5,-120,9.8005951,12.1428056,0,0,0,3.938856e4,1.6299817e4,37.4999605,0.1244657,NaN,252.3047668,NaN,0.0275257,2.0294723e6,4313.802,0.6330237,0.5486723,0.680641,0.4151358,0.0134381,0.1200985,NaN,NaN,NaN,NaN,NaN,NaN,NaN,NaN,9.5353882e-4,16.129,204.3171233,90,0,1.939368,6.0273826,858.2817368,334.9514938,0.01,0.0115573
0.11,0.497868,10.0244289,101.1275331,10.0244289,101.1275331,0,0,0,0,0,0,43.5,-120,9.8005949,11.1380667,0,0,0,3.9364045e4,1.6275302e4,37.4909282,0.1244363,NaN,252.2742723,NaN,0.0305026,2.2489394e6,4367.332,0.752184,0.5409157,0.658613,0.4073388,0.0134559,0.120121,NaN,NaN,NaN,NaN,NaN,NaN,NaN,NaN,0.0010605,16.129,204.3171233,90,0,1.9736321,6.0267639,858.2716114,334.9511189,0.01,0.0123535
0.1199756,0.6029529,11.0439935,102.2383241,11.0439935,102.2383241,0,0,0,0,0,0,43.5,-120,9.8005946,10.3039113,0,0,0,3.9339777e4,1.6251034e4,37.4819797,0.1244071,NaN,252.2440473,NaN,0.0335125,2.4708331e6,4408.467239,0.8812098,0.5340046,0.6392215,0.4003836,0.0134749,0.120146,NaN,NaN,NaN,NaN,NaN,NaN,NaN,NaN,0.0011683,16.129,204.3171233,90,0,2.0078128,6.0260808,858.2604334,334.950705,0.0099756,0.0129566
0.1290303,0.7071351,11.967879,102.0664108,11.967879,102.0664108,0,0,0,0,0,0,43.5,-120,9.8005942,9.6680232,0,0,0,3.9317862e4,1.6229119e4,37.4738929,0.1243808,NaN,252.2167219,NaN,0.0362452,2.6722865e6,4399.3775201,1.0060304,0.5283878,0.62388,0.394724,0.013493,0.1201708,NaN,NaN,NaN,NaN,NaN,NaN,NaN,NaN,0.0012661,16.129,204.3171233,90,0,2.0388379,6.0254036,858.2493514,334.9502946,0.0090547,0.0135291
0.137386,0.8106867,12.8180818,101.780653,12.8180818,101.780653,0,0,0,0,0,0,43.5,-120,9.8005939,9.1624879,0,0,0,3.929764e4,1.6208897e4,37.4664252,0.1243566,NaN,252.191479,NaN,0.0387633,2.8579156e6,4386.0072444,1.1276236,0.5236742,0.6113901,0.3899684,0.0135104,0.1201953,NaN,NaN,NaN,NaN,NaN,NaN,NaN,NaN,0.001356,16.129,204.3171233,90,0,2.067468,6.0247305,858.2383364,334.9498867,0.0083557,0.0140111
0.1451875,0.9137749,13.609841,101.5153661,13.609841,101.5153661,0,0,0,0,0,0,43.5,-120,9.8005936,8.7477052,0,0,0,3.9278758e4,1.6190015e4,37.4594484,0.1243339,NaN,252.1678869,NaN,0.0411108,3.0309593e6,4373.5993734,1.2467053,0.519622,0.6009714,0.385875,0.0135273,0.1202197,NaN,NaN,NaN,NaN,NaN,NaN,NaN,NaN,0.0014398,16.129,204.3171233,90,0,2.094199,6.0240605,858.2273708,334.9494806,0.0078015,0.0144525
0.1525351,1.0165075,14.3537241,101.266362,14.3537241,101.266362,0,0,0,0,0,0,43.5,-120,9.8005933,8.3621279,0,0,0,3.9260975e4,1.6172232e4,37.4528733,0.1243125,NaN,252.1456466,NaN,0.043314,3.1933623e6,4361.9656515,1.3686598,0.5184764,0.5943558,0.3846887,0.0135437,0.1202439,NaN,NaN,NaN,NaN,NaN,NaN,NaN,NaN,0.0015185,16.129,204.3171233,90,0,2.1098815,6.0233927,858.216443,334.949076,0.0073476,0.0148777
0.1635566,1.1808377,15.4663848,100.9774004,15.4663848,100.9775098,-8.7252468e-6,0,8.7252468e-6,-179.999979,0.0015972,0.1486859,43.5,-120,9.800593,7.7496761,0,2.8645156e-5,-7.1063371e-9,3.9234301e4,1.6145558e4,37.4430035,0.1242805,263.6422178,252.1122483,0.7148595,0.0466006,3.4356226e6,4347.8591702,1.5620416,0.518529,0.5860363,0.3846774,0.0135693,0.1202823,2.1645223,1.5472539,3.0814076e-4,0,0,0,0,1.5061422e-6,0.0016362,16.129,204.3171233,90,0,2.1063728,6.0223246,858.1989631,334.9484287,0.0110214,0.0153459
0.1800887,1.4502656,17.1280048,100.5426248,17.1280053,100.542751,-5.5939719e-5,0,5.5939719e-5,-179.9999484,0.0041438,0.159273,43.5,-120,9.8005925,6.9797294,0,8.1048583e-5,0,3.919429e4,1.6105547e4,37.4281824,0.1242325,265.3906782,252.0620656,0.8263756,0.0515173,3.7980085e6,4326.6994483,1.875498,0.5186138,0.5757581,0.3846588,0.01361,0.120345,1.9021707,1.5719851,4.7252866e-4,0,0,0,0,9.8658438e-6,0.0018119,16.129,204.3171233,89.9996792,-6.9640166e-4,2.1011096,6.0205733,858.1703039,334.9473674,0.0165322,0.015778
0.204887,1.9057078,19.6037917,99.8874459,19.6037934,99.8875971,-2.0920043e-4,0,2.0920043e-4,-179.9998987,0.0082768,0.173801,43.5,-120,9.8005916,6.0747157,0,1.8077031e-4,2.4886013e-8,3.9134272e4,1.6045529e4,37.4059136,0.1241604,267.5716816,251.9865991,0.966277,0.058857,4.3389203e6,4294.9598655,2.398551,0.5187542,0.5641678,0.3846276,0.0136762,0.1204503,1.6069675,1.5532217,-8.3964139e-5,0,0,0,0,3.7602226e-5,0.0020738,16.129,204.3171233,89.9985294,-0.0024209,2.0950091,6.017613,858.1218586,334.9455735,0.0247982,0.0161819
0.2420843,2.7032881,23.2798252,98.8978599,23.2798301,98.8980473,-6.4201113e-4,0,6.4201113e-4,-179.9998116,0.0151099,0.1925232,43.5,-120,9.8005902,5.1050243,0,3.7749873e-4,3.6187021e-8,3.9044246e4,1.5955504e4,37.3724264,0.1240524,270.0736451,251.8729644,1.1284445,0.0697768,5.1435443e6,4247.3504912,3.3021782,0.5189941,0.552683,0.3845736,0.0137876,0.1206329,1.3065898,1.4740217,-4.7228765e-4,0,0,0,0,1.1667336e-4,0.0024626,16.129,204.3171233,89.9948541,-0.0046324,2.096824,6.0124288,858.0370211,334.9424319,0.0371973,0.0165788
0.2920843,3.9889867,28.1484901,97.4790971,28.1485012,97.4792986,-0.0016432,-1.0149655e-8,0.0016432,-179.9996461,0.0249823,0.1981928,43.5,-120,9.8005878,4.0508875,0,7.2780176e-4,-3.3851902e-8,3.8923235e4,1.5834492e4,37.3272539,0.1239071,273.0070208,251.7193905,1.3198357,0.0842469,6.2094413e6,4180.3874733,4.7173151,0.5193698,0.5416948,0.3844878,0.0139593,0.1209227,0.9988571,1.317587,-4.5663929e-4,0,0,0,0,2.9750542e-4,0.0029776,16.129,204.3171233,89.9850491,-0.0030942,2.0257276,6.0040719,857.9002611,334.9373676,0.05,0.0169535
0.3420843,5.516049,32.9363371,95.894567,32.9363559,95.8947917,-0.0031446,-2.8357036e-8,0.0031446,-179.9994833,0.0351462,0.207583,43.5,-120,9.8005838,3.5428404,0,0.0011721,1.6751142e-7,3.8804277e4,1.5715535e4,37.2826678,0.1237643,274.5117751,251.5674889,1.4225486,0.0985295,7.2611015e6,4107.817568,6.3988294,0.5198059,0.5373013,0.3843874,0.0141564,0.121262,0.8576248,1.2191653,-4.3981071e-4,0,0,0,0,5.641264e-4,0.0034844,16.129,204.3171233,89.9681064,-0.0032345,2.0927483,5.9941453,857.7378145,334.931352,0.05,0.0173456
0.3920843,7.2821968,37.7117676,95.6399254,37.7117944,95.6400932,-0.0051545,-6.3619644e-8,0.0051545,-179.9992928,0.0450062,0.1791845,43.5,-120.0000001,9.8005791,2.9519768,0,0.0017168,1.95793e-7,3.8689276e4,1.5600533e4,37.2393932,0.1236262,276.3370931,251.4197509,1.5448783,0.1127534,8.3079503e6,4087.7151334,8.3075104,0.5203052,0.5327904,0.3842718,0.0143807,0.1216527,0.6991047,1.0786798,2.4171208e-4,0,0,0,0,9.2422886e-4,0.0039895,16.129,204.3171233,89.9422307,-0.0040833,2.0278977,5.9826654,857.5499475,334.9243952,0.05,0.0177339
0.4420843,9.2873002,42.4945172,95.7833488,42.4945501,95.7834389,-0.0076111,-1.2982029e-7,0.0076111,-179.9990227,0.0528595,0.1314204,43.5,-120.0000001,9.8005737,2.515705,0,0.0023332,1.7450843e-7,3.8574274e4,1.5485531e4,37.1959487,0.1234882,277.7440126,251.271132,1.6413219,0.1270127,9.3568434e6,4083.2955916,10.4862214,0.5208714,0.5301245,0.3841402,0.014634,0.1220972,0.5860651,0.9604563,2.9492628e-4,0,0,0,0,0.0013454,0.0044955,16.129,204.3171233,89.9059057,-0.0034288,1.9898068,5.9696322,857.3366621,334.9164971,0.05,0.018069
0.4920843,11.5317174,47.2842666,95.9202192,47.2843023,95.9202483,-0.0103967,-2.3300544e-7,0.0103967,-179.9987159,0.0580894,0.0746793,43.5,-120.0000001,9.8005675,2.2635843,0,0.0030341,-1.934481e-7,3.8459272e4,1.5370529e4,37.1523327,0.1233501,278.5858754,251.1216243,1.702787,0.1413106,1.0407947e7,4078.8760498,12.9509999,0.5215057,0.5290885,0.3839926,0.0149172,0.1225959,0.522326,0.8877519,-4.4820106e-4,0,0,0,0,0.0018381,0.0050022,16.129,204.3171233,89.8577339,-0.0015263,2.044731,5.9550435,857.0979205,334.9076564,0.05,0.0183967
0.5420843,14.0157906,52.0807127,96.0516655,52.0807462,96.0516766,-0.0133514,-3.6921831e-7,0.0133514,-179.9984155,0.0590827,0.0462265,43.5,-120.0000002,9.8005606,1.848573,0,0.0038064,-3.8526391e-7,3.834427e4,1.5255527e4,37.1085438,0.123212,280.0013173,250.9712197,1.7998696,0.1556121,1.1458612e7,4074.456508,15.6490046,0.5222074,0.5273618,0.3838292,0.0152302,0.123148,0.4197823,0.7528155,2.3709417e-4,0,0,0,0,0.0023857,0.0055096,16.129,204.3171233,89.7962199,7.0326033e-5,1.9254598,5.938897,856.8336865,334.8978716,0.05,0.0187454
0.5920843,16.7398473,56.883553,96.1761215,56.8835781,96.1762917,-0.0161934,-5.1517566e-7,0.0161934,-179.9981772,0.053471,0.1809366,43.5,-120.0000002,9.800553,1.5849874,0,0.0045919,1.0891166e-7,3.8229269e4,1.5140526e4,37.0645804,0.123074,280.9318819,250.8199103,1.866946,0.1699489,1.2511099e7,4070.0369663,18.6397366,0.5229788,0.526816,0.3836496,0.0155744,0.1237547,0.3562718,0.6626774,-2.4542847e-4,0,0,0,0,0.0029111,0.0060177,16.129,204.3171233,89.720706,9.8681182e-4,1.9049023,5.9211907,856.5439251,334.8871415,0.05,0.0191383
0.6420843,19.7041985,61.6924389,96.2938679,61.6924521,96.2945274,-0.018573,-6.4910458e-7,0.018573,-179.9979976,0.0402453,0.3563923,43.5,-120.0000002,9.8005446,1.3220467,0,0.0054129,-1.1907155e-7,3.8114267e4,1.5025524e4,37.0204409,0.1229359,281.8814172,250.6676878,1.9352551,0.1843054,1.3564186e7,4065.6174245,21.9016922,0.5238201,0.5265234,0.383454,0.0159502,0.1244159,0.2941338,0.5656766,-4.2641234e-4,0,0,0,0,0.0034397,0.0065265,16.129,204.3171233,89.6306717,0.001027,1.8618801,5.9019224,856.2286032,334.875465,0.05,0.0194904
0.6920843,22.9091378,66.5070202,96.4041867,66.5070226,96.4056982,-0.0200653,-7.6126396e-7,0.0200653,-179.9978262,0.0179133,0.539837,43.5,-120.0000002,9.8005355,1.1804461,0,0.0062445,4.3828872e-8,3.7999265e4,1.4910522e4,36.9761236,0.1227979,282.4107536,250.5145439,1.977569,0.1986926,1.4618614e7,4061.1978827,25.4628056,0.5247329,0.5269046,0.3832419,0.0163588,0.1251322,0.2612118,0.5125717,4.8131748e-5,0,0,0,0,0.0039392,0.0070358,16.129,204.3171233,89.5258227,7.2610425e-4,1.9389954,5.8810903,855.8876897,334.8628407,0.05,0.0198562
0.7420843,26.3549409,71.3269289,96.5072938,71.3269305,96.510466,-0.0201924,-8.4050184e-7,0.0201924,-179.9976151,0.0148605,0.7824932,43.5,-120.0000003,9.8005256,0.97141,0,0.0071017,-6.1228242e-7,3.7884263e4,1.479552e4,36.9316271,0.1226598,283.195444,250.3604703,2.0357724,0.2130916,1.5672909e7,4056.7783409,29.2910698,0.5257171,0.5272031,0.3830138,0.0168002,0.125903,0.2132058,0.4295065,2.5032631e-4,0,0,0,0,0.0044299,0.0075457,16.129,204.3171233,89.4056789,6.4011124e-4,1.9347106,5.8586926,855.5211552,334.8492677,0.05,0.0202543
0.7920843,30.0418647,76.1517895,96.602469,76.1518142,96.6086107,-0.0183499,-8.8138977e-7,0.0183499,-179.997248,0.0614048,1.0893367,43.5,-120.0000002,9.800515,0.7050082,0,0.0078731,3.5989562e-7,3.7769262e4,1.4680519e4,36.8869496,0.1225217,284.2106389,250.2054584,2.1083254,0.2275023,1.6726985e7,4052.3587991,33.3943793,0.5267734,0.5275663,0.3827695,0.0172755,0.1267284,0.153106,0.3182452,1.5042483e-4,0,0,0,0,0.0047771,0.0080561,16.129,204.3171233,89.2707747,7.7669536e-4,1.8449514,5.8347276,855.1289723,334.8347449,0.05,0.0206127
0.8420843,33.9701467,80.9811895,96.6892375,80.9812835,96.6992145,-0.0137936,-8.4596146e-7,0.0137936,-179.9964861,0.1233537,1.3890437,43.5,-120.0000002,9.8005037,0.5657537,0,0.0085332,-1.2123485e-7,3.765426e4,1.4565517e4,36.8420894,0.1223837,284.7620257,250.0494996,2.1521809,0.2419421,1.7782064e7,4047.9392574,37.8105979,0.5279044,0.528419,0.3825087,0.0177861,0.1276097,0.1222054,0.2580188,-2.7466319e-4,0,0,0,0,0.0049623,0.008567,16.129,204.3171233,89.1230334,9.1147302e-4,1.9158974,5.8091938,854.7111159,334.8192714,0.05,0.0209683
0.8920843,38.1400033,85.8147047,96.7673142,85.81494,96.7826661,-0.0057557,-6.9494754e-7,0.0057557,-179.9930821,0.2009665,1.723766,43.5,-120.0000001,9.8004916,0.4228237,0,0.0091381,-1.0847648e-6,3.7539258e4,1.4450515e4,36.797045,0.1222456,285.3351888,249.8925852,2.1974458,0.2563973,1.8837051e7,4043.5197156,42.5203777,0.5291102,0.5293999,0.3822315,0.0183325,0.1285461,0.0908278,0.1947101,-1.7228769e-4,0,0,0,0,0.0050677,0.0090784,16.129,204.3171233,88.9638407,0.0010295,1.9844722,5.7820897,854.2675628,334.8028464,0.05,0.0213277
0.9420843,42.5516291,90.6518763,96.8356686,90.6523628,96.8590454,0.0066086,-3.9006101e-7,0.0066086,-0.0033818,0.2969882,2.1279028,43.5,-119.9999999,9.8004788,0.2051927,0,0.0095709,2.6205521e-7,3.7424256e4,1.4335513e4,36.7518146,0.1221076,286.2091156,249.7347065,2.2614179,0.270858,1.9891151e7,4039.1001738,47.5207656,0.530391,0.53046,0.3819382,0.0189155,0.1295373,0.0436968,0.0940445,-1.0238351e-4,0,0,0,0,0.0049819,0.0095902,16.129,204.3171233,88.7951533,0.0010202,1.9338697,5.7534142,853.7982925,334.785469,0.05,0.0216929
0.9920843,47.2051945,95.4922111,96.8942869,95.4931078,96.9277777,0.0242913,1.1163912e-7,0.0242913,2.6332234e-4,0.4138344,2.5477932,43.5,-119.9999997,9.8004652,0.0167224,0,0.0097209,-2.3428973e-7,3.7309254e4,1.4220512e4,36.7063964,0.1219695,286.9835198,249.5758545,2.3192799,0.2853343,2.0945018e7,4034.680632,52.833567,0.5317489,0.5317494,0.3816284,0.0195365,0.130584,0.0035345,0.0034319,-1.5117396e-4,0,0,0,0,0.0046315,0.0101023,16.129,204.3171233,88.6211699,7.4045056e-4,1.9117705,5.723166,853.3032868,334.7671386,0.05,0.022046
1.0420843,52.1008453,100.3352108,96.9424959,100.336731,96.9888028,0.0483516,7.9999764e-7,0.0483516,9.4798251e-4,0.5523331,2.9967239,43.5,-119.9999994,9.8004509,0.1826679,0,-0.0095583,-2.6095663e-6,3.7194253e4,1.410551e4,36.6607888,0.1218314,286.3542769,249.4160202,2.2901765,0.2998194,2.1998093e7,4030.2610902,58.4616929,0.5331847,0.5332397,0.3813023,0.0201965,0.1316859,0.0389017,0.0930345,-2.8822185e-4,0,0,0,0,-0.0040561,0.0106148,16.129,204.3171233,88.4471744,2.0637786e-4,1.8466386,5.6913443,852.7825301,334.7478546,0.05,0.0223966
1.0920843,57.2387023,105.1803881,96.9821575,105.1828009,97.0417613,0.0798866,1.6686855e-6,0.0798866,0.0011968,0.7124478,3.4006735,43.5,-119.999999,9.8004358,0.294545,0,-0.0090538,1.8101418e-6,3.7079251e4,1.3990508e4,36.61499,0.1216934,285.9464629,249.2551944,2.2748632,0.3143242,2.3051088e7,4025.8415485,64.4069694,0.5347009,0.5348437,0.3809595,0.0208974,0.132844,0.0630571,0.1468292,-1.3479625e-4,0,0,0,0,-0.0033116,0.0111275,16.129,204.3171233,88.2793228,-5.7628143e-5,1.9052698,5.6579482,852.2360096,334.7276166,0.05,0.0227444
1.1420843,62.6188633,110.0272899,97.0114906,110.0309131,97.0867191,0.1199328,2.6804883e-6,0.1199328,0.0012806,0.8929238,3.8212193,43.5,-119.9999985,9.80042,0.4341532,0,-0.0082676,-8.3094275e-7,3.6964249e4,1.3875506e4,36.5689982,0.1215553,285.437536,249.093368,2.2533429,0.328832,2.4102715e7,4021.4220067,70.6744537,0.5362972,0.5366066,0.3806005,0.0216397,0.134057,0.0935415,0.2133219,-6.1523995e-5,0,0,0,0,-0.0025234,0.0116405,16.129,204.3171233,88.1229644,1.8917586e-5,1.8776167,5.6229772,851.6637149,334.7064242,0.05,0.0230918
1.1920843,68.2414024,114.8754534,97.033628,114.8806535,97.1232825,0.1695086,3.9209367e-6,0.1695086,0.0013253,1.0930535,4.1721733,43.5,-119.9999979,9.8004035,0.5041659,0,-0.0071326,1.4002348e-6,3.6849247e4,1.3760505e4,36.5228116,0.1214173,285.2024644,248.9305314,2.2488643,0.3433548,2.5153766e7,4017.0024649,77.2572233,0.5379766,0.538394,0.3802249,0.0224257,0.135326,0.1090069,0.2473278,-2.832945e-4,0,0,0,0,-0.0017228,0.0121537,16.129,204.3171233,87.984065,2.4243073e-4,1.9378779,5.5864307,851.0656381,334.684277,0.05,0.0234603
1.2420843,74.1063737,119.7245167,97.0476168,119.7316798,97.1513358,0.2295104,5.4593238e-6,0.2295104,0.0013629,1.3096769,4.4879987,43.5,-119.9999972,9.8003862,0.5685843,0,-0.0057574,1.876056e-6,3.6734246e4,1.3645503e4,36.4764283,0.1212792,284.991937,248.7666753,2.2459707,0.3578817,2.6203375e7,4012.5829231,84.1635875,0.5397396,0.5402709,0.3798329,0.0232564,0.1366503,0.123339,0.2775906,-3.6938694e-4,0,0,0,0,-0.0010334,0.0126671,16.129,204.3171233,87.8677373,6.3524446e-4,1.9578659,5.5483084,850.4417734,334.6611749,0.05,0.0238253
1.2920843,80.2138126,124.5741029,97.0552943,124.583627,97.1705451,0.3007124,7.4377737e-6,0.3007124,0.0014171,1.5404561,4.7312462,43.5,-119.9999963,9.8003682,0.5998353,0,-0.0041133,2.2786056e-6,3.6619244e4,1.3530501e4,36.4298465,0.1211411,284.9101656,248.60179,2.2511238,0.3724154,2.7251653e7,4008.1633813,91.3904075,0.5415884,0.542181,0.3794246,0.0241337,0.1380301,0.1303692,0.2944602,-3.367882e-4,0,0,0,0,-4.8716416e-4,0.0131806,16.129,204.3171233,87.7787228,0.0010448,1.9852189,5.50861,849.7921171,334.6371177,0.05,0.0241693
1.3420843,86.5637376,129.4239192,97.0572297,129.4361786,97.1806302,0.3837244,1.0026399e-5,0.3837244,0.0014971,1.7814266,4.8958195,43.5,-119.9999952,9.8003494,0.6065723,0,-0.0022763,-5.9285639e-7,3.6504242e4,1.3415499e4,36.3830644,0.1210031,284.9232318,248.4358658,2.2622212,0.3869528,2.8298309e7,4003.7438396,98.9408834,0.5435246,0.5441325,0.3789998,0.0250595,0.1394652,0.1319575,0.298318,-2.4467048e-4,0,0,0,0,-1.3821767e-4,0.0136943,16.129,204.3171233,87.7211116,0.0013387,1.9967419,5.4673355,849.1166673,334.6121053,0.05,0.024514
1.3920843,93.1561529,134.2736673,97.0528978,134.2889962,97.1814111,0.4789631,1.3423222e-5,0.4789631,0.0016057,2.0289863,4.9961679,43.5,-119.9999941,9.8003298,0.6111842,0,-2.758738e-4,5.8877611e-7,3.638924e4,1.3300498e4,36.33608,0.120865,284.9459449,248.2688928,2.2739818,0.4014875,2.93428e7,3999.3242978,106.8234844,0.5455493,0.5461687,0.3785589,0.0260354,0.140955,0.1330779,0.3023845,4.2002593e-5,0,0,0,0,-1.8860981e-6,0.0142079,16.129,204.3171233,87.6980746,0.0018929,1.9339963,5.4244849,848.4154234,334.5861378,0.05,0.0248947
1.4420843,99.9910492,139.1231407,97.0466187,139.1417865,97.1719567,0.5866454,1.7784065e-5,0.5866454,0.0017369,2.2778205,4.9338579,43.5,-119.9999927,9.8003096,0.5406664,0,0.0018052,-8.9623306e-7,3.6274387e4,1.3185644e4,36.2889522,0.1207271,285.2558296,248.101078,2.3035992,0.4160336,3.0386071e7,3994.9144359,115.0225607,0.5476669,0.5481549,0.3781013,0.0270647,0.1425009,0.1174656,0.2703479,-4.982273e-4,0,0,0,0,7.5222502e-5,0.0147216,16.129,204.3171233,87.7121224,0.0019597,1.9660636,5.380058,847.6883864,334.5592152,0.05,0.0253756
1.4920843,107.0684649,143.9743726,97.0773569,143.9964291,97.193397,0.7066352,2.3243594e-5,0.7066352,0.0018846,2.5202443,4.7479683,43.5,-119.9999912,9.8002885,0.4357203,0,0.0036921,2.5035186e-6,3.6161196e4,1.3072453e4,36.2423057,0.1205913,285.700983,247.9346502,2.3415173,0.4305895,3.1427931e7,3992.1729115,123.5615541,0.5498799,0.5501995,0.3776272,0.0281498,0.1441029,0.0943251,0.2208237,-1.4908228e-4,0,0,0,0,2.9379169e-4,0.0152355,16.129,204.3171233,87.7621074,0.0026155,2.0107149,5.3340548,846.9355524,334.5313372,0.05,0.025725
1.5420843,114.3885207,148.8287025,97.1366546,148.8541155,97.238392,0.8384649,2.9974046e-5,0.8384649,0.0020483,2.7504572,4.4469324,43.5,-119.9999896,9.8002668,0.303116,0,0.0052491,5.8304764e-6,3.6048005e4,1.2959262e4,36.1954577,0.1204554,286.2585142,247.7671773,2.3864677,0.4451587,3.246856e7,3990.6547583,132.4581239,0.5521918,0.5523479,0.3771363,0.0292939,0.1457616,0.065309,0.1551632,-2.353521e-4,0,0,0,0,5.5570135e-4,0.0157497,16.129,204.3171233,87.8433699,0.0035151,2.0674051,5.2864745,846.1569084,334.5025035,0.05,0.0261754
1.5920843,121.9513634,153.6857663,97.1861462,153.7143581,97.2734983,0.9814096,3.8273292e-5,0.9814096,0.0022344,2.9646443,4.1214642,43.5,-119.9999878,9.8002443,0.1994355,0,0.0063615,8.1544562e-6,3.5934814e4,1.2846072e4,36.1484061,0.1203195,286.7095811,247.5986492,2.4248826,0.4597271,3.3507253e7,3989.1366051,141.7306172,0.5546034,0.5546716,0.376629,0.030499,0.1474754,0.0428194,0.1030249,-2.4270144e-4,0,0,0,0,7.6541968e-4,0.0162642,16.129,204.3171233,87.9486244,0.0051605,2.006356,5.237316,845.3624993,334.4727135,0.05,0.0266335
1.6420843,129.7571178,158.545116,97.2284275,158.5765985,97.2976692,1.1346118,4.8614563e-5,1.1346118,0.0024549,3.159711,3.6700564,43.5,-119.9999859,9.800221,0.0483327,0,0.0069899,3.1747938e-5,3.5821624e4,1.2732881e4,36.1011491,0.1201836,287.3535199,247.4290562,2.4753217,0.4743148,3.4546256e7,3987.6184519,151.3935294,0.5571216,0.5571256,0.3761048,0.0317701,0.1492467,0.0103204,0.0243959,3.0355078e-4,0,0,0,0,8.6830274e-4,0.0167788,16.129,204.3171233,88.0699037,0.0074274,2.0518714,5.1865786,844.5724337,334.4419666,0.05,0.0270405
1.6920843,137.805888,163.4062954,97.2586714,163.4402484,97.3114271,1.2969827,6.1601506e-5,1.2969827,0.0027213,3.3312819,3.2038546,43.5,-119.9999839,9.800197,0.0890236,6.2425567e-9,-0.0068458,8.3606856e-6,3.5708433e4,1.261969e4,36.0536848,0.1200477,287.2416748,247.258388,2.4789687,0.4889076,3.5583348e7,3986.1002987,161.4572721,0.5597478,0.5597615,0.375564,0.0331098,0.151074,0.0190584,0.0484578,3.2710975e-5,0,0,0,0,-7.8403655e-4,0.0172936,16.129,204.3171233,88.1954399,0.0092775,2.0745302,5.1342616,843.7577711,334.4102625,0.05,0.0274503
1.7420843,146.0977492,168.2686404,97.2750192,168.3046303,97.3147422,1.467362,7.7587502e-5,1.467362,0.0030295,3.4804065,2.7802333,43.5,-119.9999818,9.8001722,0.1943736,-6.8770348e-9,-0.0060265,1.0300824e-5,3.5595242e4,1.2506499e4,36.0060111,0.1199118,286.8773555,247.0866343,2.4670296,0.5035015,3.6618167e7,3984.5821455,171.9220166,0.5624854,0.562551,0.3750067,0.0345219,0.1529568,0.0418338,0.1041952,7.808092e-5,0,0,0,0,-5.7301201e-4,0.0178084,16.129,204.3171233,88.3121405,0.0107503,2.0526507,5.0803645,842.9185039,334.3776009,0.05,0.0278045
1.7920843,154.6327421,173.1314477,97.277289,173.1690731,97.3071946,1.6446894,9.6819543e-5,1.6446894,0.0033729,3.6096684,2.4122952,43.5,-119.9999796,9.8001467,0.2774265,5.6847963e-9,-0.0046044,1.9228499e-8,3.5482052e4,1.2393309e4,35.9581261,0.1197759,286.5980882,246.9137849,2.4604317,0.5181003,3.7650922e7,3983.0639923,182.7940828,0.5653396,0.5654736,0.3744329,0.0360111,0.1548956,0.0599719,0.1475604,-8.6550628e-5,0,0,0,0,-3.1596738e-4,0.0183231,16.129,204.3171233,88.4084457,0.010757,2.0427943,5.0248871,842.054628,334.3439816,0.05,0.0281452
1.8420843,163.4108717,177.9939844,97.2642225,178.0329276,97.2885491,1.8280681,1.1910506e-4,1.8280681,0.003733,3.7235466,2.1754999,43.5,-119.9999773,9.8001205,0.3147919,0,-0.0027043,-9.2778002e-7,3.5368861e4,1.2280118e4,35.9100277,0.1196401,286.4897552,246.7398291,2.4645003,0.532698,3.8681092e7,3981.5458391,194.0644037,0.5683143,0.5684876,0.3738427,0.0375819,0.1568897,0.0682207,0.1678231,2.5873647e-4,0,0,0,0,-1.0312065e-4,0.0188378,16.129,204.3171233,88.4744395,0.0111129,1.9978497,4.9678293,841.1661429,334.3094045,0.05,0.0285325
1.8920843,172.4321052,182.8554749,97.2356062,182.8955723,97.2582483,2.0169113,1.4445868e-4,2.0169113,0.0041037,3.8295761,2.0985101,43.5,-119.999975,9.8000935,0.3064476,0,-5.9113055e-4,2.7008808e-6,3.525567e4,1.2166927e4,35.8617139,0.1195042,286.5514496,246.5647563,2.4791799,0.547294,3.9708571e7,3980.0276859,205.7352625,0.5714149,0.57158,0.3732362,0.0392398,0.158939,0.0664555,0.1648116,-1.1317782e-4,0,0,0,0,-4.6690016e-6,0.0193523,16.129,204.3171233,88.50386,0.0117819,1.926142,4.9091913,840.2530518,334.2738699,0.05,0.0289744
1.9420843,181.6963707,187.7151307,97.1909345,187.7563958,97.2157804,2.2110351,1.7303059e-4,2.2110351,0.0044838,3.9362257,2.1977752,43.5,-119.9999726,9.8000657,0.25357,0,0.0014267,1.1701344e-6,3.5142479e4,1.2053737e4,35.8131826,0.1193683,286.7795103,246.3885557,2.5042442,0.5618867,4.0733174e7,3978.5095327,217.8158928,0.5746471,0.574761,0.3726134,0.0409905,0.1610432,0.0549247,0.1377087,4.1359025e-4,0,0,0,0,2.5808394e-5,0.0198667,16.129,204.3171233,88.495538,0.0118921,1.8249,4.8489736,839.315362,334.237378,0.05,0.0294027
1.9920843,191.203557,192.5721941,97.1323723,192.6147582,97.1601897,2.4106413,2.0481024e-4,2.4106413,0.0048679,4.0490899,2.3248025,43.5,-119.9999701,9.8000372,0.2202582,0,0.0032109,-8.6286702e-6,3.5029289e4,1.1940546e4,35.7644316,0.1192324,286.9262634,246.2112164,2.524338,0.5764928,4.1756023e7,3976.9913795,230.3576064,0.5780216,0.5781082,0.3719736,0.0428432,0.1632047,0.047694,0.1206154,4.0321848e-4,0,0,0,0,1.2420967e-4,0.0203808,16.129,204.3171233,88.4530573,0.0129473,1.8917717,4.7871769,838.3530848,334.1999292,0.05,0.0298521
2.0420843,200.9535158,197.4258737,97.0549636,197.4699781,97.0918734,2.6161281,2.4015337e-4,2.6161281,0.0052596,4.1733241,2.676925,43.5,-119.9999676,9.800008,0.1241783,0,0.0046547,-1.7192856e-5,3.4916098e4,1.1827355e4,35.7154589,0.1190965,287.3140328,246.0327273,2.5594461,0.5910832,4.277495e7,3975.4732263,243.3270871,0.5815394,0.5815672,0.3713182,0.0448019,0.1654193,0.0268114,0.0682098,3.7074705e-4,0,0,0,0,2.4836085e-4,0.0208945,16.129,204.3171233,88.3809085,0.0148301,1.8328399,4.7238022,837.3662352,334.1615241,0.05,0.0303391
2.0920843,210.946054,202.2752229,96.9598652,202.3213151,97.0102517,2.8283284,2.7980608e-4,2.8283284,0.0056683,4.3184177,3.1262554,43.5,-119.9999649,9.799978,0.0133602,0,0.0052078,-1.1290138e-4,3.4802907e4,1.1714164e4,35.6662622,0.1189606,287.7584222,245.8530772,2.5981366,0.6056665,4.3790507e7,3973.9550731,256.7718951,0.5852109,0.5852113,0.3706467,0.0468761,0.1676881,0.0028746,0.0071753,-4.8604414e-4,0,0,0,0,2.9616958e-4,0.0214079,16.129,204.3171233,88.2905668,0.0171322,1.760812,4.6588507,836.3548328,334.1221635,0.05,0.0308958
2.1420843,221.1809339,207.1194164,96.8493788,207.1679884,96.9144858,3.0483472,3.2475286e-4,3.0483472,0.006104,4.4858433,3.551816,43.5,-119.9999622,9.7999473,0.077275,0,-0.004903,-2.1198579e-5,3.4689717e4,1.1600974e4,35.6168395,0.1188247,287.5107826,245.6722547,2.5939939,0.6202467,4.480291e7,3972.4369199,270.7170107,0.5890469,0.5890579,0.369959,0.0490762,0.1700118,0.0166903,0.0438548,2.565821e-4,0,0,0,0,-2.5037419e-4,0.0219209,16.129,204.3171233,88.1981706,0.0188041,1.7451649,4.592324,835.3189015,334.0818484,0.05,0.031268
2.1920843,231.6578783,211.9576636,96.7221603,212.0092129,96.804611,3.2772761,3.7581059e-4,3.2772761,0.0065702,4.6749568,3.9945489,43.5,-119.9999594,9.7999158,0.1729954,-9.5191677e-9,-0.0037094,1.0353194e-6,3.4576526e4,1.1487783e4,35.5671884,0.1186889,287.1386318,245.4902483,2.5822049,0.6348082,4.5810959e7,3970.9187667,285.164682,0.5930541,0.593109,0.3692558,0.0514107,0.1723876,0.0375581,0.0967056,-6.5090378e-5,0,0,0,0,-1.3684426e-4,0.0224333,16.129,204.3171233,88.1194425,0.0181065,1.6379957,4.5242239,834.2584695,334.0405797,0.05,0.0316577
2.2420843,242.3765707,216.7892575,96.5845936,216.8442347,96.6786129,3.5161609,4.3289605e-4,3.516161,0.007054,4.8826195,4.2626818,43.5,-119.9999564,9.7998836,0.2216383,0,-0.001682,-1.4037492e-5,3.4463335e4,1.1374592e4,35.5173067,0.118553,286.9507867,245.3070464,2.5819171,0.649361,4.6815308e7,3969.4006135,300.1253839,0.5972474,0.5973379,0.3685367,0.0538936,0.1748171,0.0482747,0.1243604,2.097609e-4,0,0,0,0,-2.6896044e-5,0.0229451,16.129,204.3171233,88.0704335,0.01487,1.5765942,4.4545524,833.1735687,333.9983588,0.05,0.0320304
2.2920843,253.3366686,221.6138339,96.4417869,221.6724205,96.5342108,3.7656392,4.9500099e-4,3.7656393,0.0075316,5.0961391,4.2232213,43.5,-119.9999533,9.7998506,0.1955528,0,5.5719306e-4,-1.3737853e-5,3.4350144e4,1.1261402e4,35.4671922,0.1184171,287.0521737,245.1226371,2.5996365,0.6639109,4.7816304e7,3967.8824603,315.6024653,0.6016428,0.6017139,0.3678015,0.0565402,0.1773011,0.0426009,0.1109097,3.5923197e-5,0,0,0,0,2.8243523e-6,0.0234562,16.129,204.3171233,88.0610017,0.0096553,1.64802,4.3833118,832.0642337,333.9551869,0.05,0.0324883
2.3420843,264.5378135,226.4310621,96.2895123,226.4931224,96.3715565,4.0256383,5.598277e-4,4.0256384,0.0079679,5.3017573,3.9757673,43.5,-119.9999501,9.7998169,0.1320204,0,0.0023788,-1.903047e-5,3.4236954e4,1.1148211e4,35.4168425,0.1182812,287.2988747,244.9370084,2.626441,0.6784453,4.8812972e7,3966.3643071,331.6231486,0.606253,0.6062858,0.3670508,0.0593647,0.1798374,0.0287224,0.0750325,2.7104015e-4,0,0,0,0,4.9309853e-5,0.0239666,16.129,204.3171233,88.0889462,0.0027338,1.7336656,4.3105044,830.930501,333.9110656,0.05,0.0328856
2.3920843,275.9796252,231.2404089,96.1257388,231.3055511,96.1897473,4.2955086,6.2423525e-4,4.2955086,0.0083264,5.4891951,3.5085353,43.5,-119.9999467,9.7997824,0.0262875,0,0.003316,-6.3112309e-5,3.4123809e4,1.1035067e4,35.3662761,0.1181454,287.7119207,244.7502251,2.6636305,0.6929691,4.9805591e7,3964.8446007,348.2339668,0.6110985,0.6110998,0.3662845,0.0623872,0.1824268,0.0057018,0.0152175,2.5599973e-4,0,0,0,0,9.1868841e-5,0.024476,16.129,204.3171233,88.1425047,-0.0044981,1.909913,4.2361326,829.772409,333.8659964,0.05,0.0332288
2.4420843,287.6615619,236.0358145,95.8312306,236.1035442,95.8834648,4.5741799,6.8530687e-4,4.57418,0.0085841,5.6548968,3.1645,43.5,-119.9999433,9.7997473,0.0336339,0,-0.0032106,-4.7190172e-5,3.4012759e4,1.0924016e4,35.3164124,0.1180121,287.6836902,244.5656902,2.6733213,0.707437,5.0790848e7,3959.882103,365.4259626,0.616185,0.6161872,0.3655049,0.0656194,0.1850607,0.0073074,0.0199527,-5.1149836e-5,0,0,0,0,-8.2656064e-5,0.0249838,16.129,204.3171233,88.2027257,-0.0079906,1.8960108,4.1602,828.5900128,333.8199812,0.05,0.0335643
2.4920843,299.5827751,240.811298,95.4226499,240.8812355,95.4647083,4.8607224,7.4178917e-4,4.8607224,0.0087438,5.8041689,2.8334461,43.5,-119.9999397,9.7997113,0.0880927,0,-0.0024409,-2.4273063e-5,3.3901709e4,1.0812966e4,35.2663155,0.1178787,287.4734287,244.3799463,2.6718012,0.7218524,5.1768916e7,3951.7586404,383.2231843,0.6215371,0.6215521,0.3647122,0.0690858,0.1877392,0.0192093,0.0511985,4.4427498e-4,0,0,0,0,-4.5897798e-5,0.0254894,16.129,204.3171233,88.2547293,-0.0054317,1.9089614,4.0827122,827.383398,333.7730236,0.05,0.0339021
2.5420843,311.7422411,245.5657194,94.988906,245.637536,95.0251188,5.1543526,7.9506081e-4,5.1543526,0.0088379,5.9394063,2.6231539,43.5,-119.9999361,9.7996747,0.1177583,0,-0.0010284,-2.4458237e-5,3.3790658e4,1.0701915e4,35.2159832,0.1177454,287.3628891,244.1929816,2.6765396,0.736209,5.2739299e7,3943.6351778,401.6458638,0.6271801,0.6272071,0.3639068,0.0728129,0.1904605,0.0257461,0.0684306,-3.934173e-5,0,0,0,0,-7.8358794e-6,0.0259928,16.129,204.3171233,88.2862929,0.0043116,1.9172882,4.0036757,826.1526683,333.7251275,0.05,0.034269
2.5920843,324.1388746,250.2977925,94.5294427,250.3713065,94.5628837,5.4545277,8.4913613e-4,5.4545278,0.0089195,6.0668088,2.5146416,43.5,-119.9999324,9.7996373,0.1336147,0,7.504425e-4,-2.0060712e-5,3.3679608e4,1.0590865e4,35.1654132,0.1176121,287.308968,244.0047839,2.6848648,0.7505112,5.3702257e7,3935.5117153,420.7392992,0.6331483,0.6331834,0.3630886,0.076835,0.1932247,0.0292746,0.0783307,-3.7322843e-4,0,0,0,0,4.0158103e-6,0.0264937,16.129,204.3171233,88.2886789,0.0150505,1.999323,3.9230976,824.8979336,333.6762971,0.05,0.0346191
2.6420843,336.7715241,255.0061072,94.0386879,255.0813509,94.0768353,5.7610418,9.0866745e-4,5.7610419,0.009037,6.1952303,2.6788271,43.5,-119.9999286,9.7995991,0.1006313,0,0.0025145,-1.7533826e-5,3.3568558e4,1.0479815e4,35.1146029,0.1174788,287.4471305,243.815341,2.7051764,0.7647417,5.4656495e7,3927.3882527,440.5146094,0.6394733,0.6394934,0.362259,0.0811865,0.1960279,0.022051,0.0598271,-3.4988632e-4,0,0,0,0,4.3435401e-5,0.0269922,16.129,204.3171233,88.2579495,0.0232263,2.0089077,3.8409854,823.6193104,333.6265372,0.05,0.0349988
2.6920843,349.6389613,259.6890297,93.5148077,259.766378,93.5657379,6.0743032,9.7774209e-4,6.0743033,0.0092225,6.3386894,3.0867543,43.5,-119.9999247,9.7995603,0.0274625,0,0.0035071,-8.1241414e-5,3.3457507e4,1.0368764e4,35.0635501,0.1173455,287.744886,243.6246406,2.7354607,0.7788959,5.5601646e7,3919.2647901,461.0337897,0.6461989,0.6462004,0.3614183,0.0859124,0.1988683,0.0060088,0.0166987,-3.0106569e-4,0,0,0,0,8.1481717e-5,0.027488,16.129,204.3171233,88.2014337,0.0287659,1.9351161,3.7573471,822.3169231,333.5758524,0.05,0.0353401
2.7420843,362.7398765,264.3449958,92.9623419,264.4249734,93.0268463,6.3952682,0.001059,6.3952683,0.009488,6.5030559,3.4636847,43.5,-119.9999207,9.7995207,0.0312419,0,-0.0034379,-5.7407692e-5,3.3346457e4,1.0257714e4,35.0122523,0.1172122,287.747696,243.43267,2.7475371,0.7929858,5.6538508e7,3911.1413276,482.4005768,0.6533873,0.6533893,0.3605661,0.0910737,0.2017474,0.0068475,0.0185409,-4.2002658e-4,0,0,0,0,-7.5562354e-5,0.027981,16.129,204.3171233,88.1369511,0.0314407,1.9439479,3.6721912,820.990904,333.5242479,0.05,0.03566
2.7920843,376.0728854,268.972521,92.3776499,269.0556297,92.458577,6.7249338,0.0011542,6.7249338,0.0098341,6.6869119,3.8675918,43.5,-119.9999166,9.7994804,0.0947831,0,-0.0024041,-1.923255e-5,3.3235406e4,1.0146664e4,34.9607072,0.1170788,287.5236456,243.2394165,2.7456277,0.8069902,5.7465531e7,3903.017865,504.6654409,0.661097,0.6611155,0.359704,0.0967327,0.2046603,0.0208612,0.056882,-4.5605319e-4,0,0,0,0,-3.568948e-5,0.0284712,16.129,204.3171233,88.0827813,0.0323654,1.8619301,3.5855267,819.6413935,333.4717292,0.05,0.0360944
2.8420843,389.6365275,273.5701093,91.7666866,273.6567606,91.8552937,7.0642248,0.001264,7.0642249,0.0102517,6.8860657,4.0336329,43.5,-119.9999124,9.7994394,0.1178376,0,-4.8224012e-4,-2.2952721e-5,3.3124356e4,1.0035613e4,34.9089121,0.1169455,287.4615412,243.0448673,2.7538393,0.8209174,5.838326e7,3894.8944024,527.929927,0.6694187,0.6694475,0.3588317,0.1029793,0.2076077,0.0260015,0.0712735,-1.991903e-4,0,0,0,0,-1.3882008e-6,0.0289582,16.129,204.3171233,88.0567636,0.0294393,1.8255916,3.4973631,818.2685392,333.418302,0.05,0.0364434
2.8920843,403.4292731,278.1364264,91.1262442,278.2267098,91.2127885,7.4135731,0.0013867,7.4135732,0.0107168,7.0873406,3.9724564,43.5,-119.9999081,9.7993977,0.1097878,0,0.0016,-2.7289066e-5,3.3013306e4,9924.5628567,34.8568645,0.1168122,287.5240391,242.8490092,2.7698574,0.8347549,5.9290773e7,3886.7709399,552.2973322,0.6784538,0.6784791,0.3579502,0.1099175,0.210586,0.0242569,0.0671931,7.6829445e-5,0,0,0,0,1.478364e-5,0.029442,16.129,204.3171233,88.0678151,0.0220495,1.7596066,3.4077103,816.8724959,333.3639724,0.05,0.0368866
2.9420843,417.4495208,282.6699184,90.45286,282.7635955,90.5251534,7.772778,0.0015172,7.7727781,0.0111841,7.277926,3.6171136,43.5,-119.9999036,9.7993553,0.0611603,0,0.0032412,-4.5066782e-5,3.2902255e4,9813.512481,34.804562,0.1166789,287.7476459,242.651829,2.7959462,0.8485034,6.0188079e7,3878.6474773,577.9357718,0.6883428,0.6883508,0.3570598,0.1176885,0.2135945,0.0135088,0.0381454,2.954984e-4,0,0,0,0,5.8738888e-5,0.0299223,16.129,204.3171233,88.1137774,0.0086175,1.7316914,3.3165787,815.4534258,333.3087467,0.05,0.0372384
2.9920843,431.695585,287.1687422,89.7373336,287.2651689,89.7864562,8.140921,0.0016473,8.1409212,0.0115937,7.4424982,2.9696231,43.5,-119.9998991,9.7993122,0.0289477,0,-0.0035729,-6.9151393e-5,3.2791205e4,9702.4621052,34.7520019,0.1165456,287.9134056,242.4533133,2.8185314,0.8621659,6.1075361e7,3870.5240147,605.0942086,0.6992733,0.6992751,0.3561605,0.1264799,0.2166329,0.0063963,0.0177406,-2.8568148e-4,0,0,0,0,-6.9152189e-5,0.0303988,16.129,204.3171233,88.1786739,-0.0062812,1.845535,3.2239793,814.0114997,333.2526315,0.05,0.0375502
3.0420843,446.1656695,291.6301649,88.9535529,291.7286509,88.9921551,8.5165449,0.0017681,8.5165451,0.0118951,7.5797553,2.620897,43.5,-119.9998944,9.7992684,0.0653284,0,-0.0025154,-2.7425275e-5,3.2680155e4,9591.4117295,34.6991816,0.1164123,287.820144,242.2534484,2.8251408,0.8757004,6.194961e7,3862.4005522,633.9793829,0.7114557,0.7114651,0.3552555,0.1365096,0.2196907,0.0144812,0.0406636,9.9488793e-5,0,0,0,0,-3.3236121e-5,0.0308712,16.129,204.3171233,88.2349238,-0.0161617,1.7506972,3.1299239,812.5468996,333.1956339,0.05,0.037904
3.0920843,460.8578137,296.0505009,88.093407,296.1507441,88.1272451,8.8986915,0.001875,8.8986917,0.0120727,7.7048166,2.4419229,43.5,-119.9998897,9.7992239,0.0786004,0,-9.7241535e-4,-1.5083793e-5,3.2569104e4,9480.3613538,34.6460984,0.1162789,287.82161,242.0522206,2.8377078,0.8891188,6.2811643e7,3854.2770896,664.9980538,0.7252343,0.7252483,0.3543443,0.1481208,0.2227692,0.0174629,0.0498466,-2.2947339e-4,0,0,0,0,-4.8199187e-6,0.0313392,16.129,204.3171233,88.2663409,-0.0145435,1.6678492,3.034425,811.0598239,333.1377616,0.05,0.0382137
3.1420843,475.7698617,300.4263545,87.2359812,300.5282114,87.2680973,9.2869183,0.0019701,9.2869185,0.0121546,7.8237717,2.3673605,43.5,-119.9998849,9.7991787,0.083295,-5.0368899e-9,8.1056839e-4,-2.9718057e-5,3.245844e4,9369.6969073,34.5929355,0.1161461,287.861618,241.8503223,2.852706,0.9024195,6.3661337e7,3846.1352141,695.5844318,0.7377668,0.7377827,0.3531399,0.15876,0.2258669,0.0185422,0.0532241,-4.0314533e-4,0,0,0,0,3.2521548e-6,0.0318024,16.129,204.3171233,88.2669897,-0.0015977,1.7082241,2.9374968,809.5504908,333.0790231,0.05,0.0394359
3.1920843,490.899614,304.7619251,86.6016479,304.8654692,86.6390579,9.6810965,0.0020602,9.6810967,0.012193,7.9450182,2.5457689,43.5,-119.99988,9.7991328,0.0587997,0,0.0025068,-2.1765186e-5,3.2353646e4,9264.9028792,34.5423472,0.1160203,288.0186754,241.6578609,2.8743762,0.9156113,6.4499289e7,3832.5942659,712.5611071,0.7355525,0.7355604,0.3506566,0.1559112,0.2289847,0.0131003,0.0372685,2.7838424e-4,0,0,0,0,3.0226737e-5,0.0322615,16.129,204.3171233,88.2353097,0.0123356,1.7575723,2.8391528,808.0191108,333.0194266,0.05,0.0401377
3.2420843,506.2451782,309.0586813,85.8166159,309.1645025,85.8775076,10.0817834,0.0021546,10.0817836,0.012245,8.0883332,3.2333804,43.5,-119.999875,9.7990863,0.0344859,0,-0.0028362,-1.3008029e-5,3.2248852e4,9160.108851,34.4915177,0.1158945,288.177921,241.4641487,2.8962597,0.9286665,6.5323529e7,3814.7929795,729.4799054,0.7334103,0.733413,0.3481991,0.1530964,0.2321148,0.0076911,0.0225208,4.9212653e-4,0,0,0,0,-3.7624821e-5,0.0327165,16.129,204.3171233,88.1832905,0.0239408,1.5145547,2.7394067,806.4658976,332.9589804,0.05,0.0409199
3.2920843,521.8045988,313.3163034,85.0436239,313.4250456,85.1088135,10.4903597,0.0022605,10.49036,0.0123466,8.2554966,3.3304901,43.5,-119.9998699,9.7990391,0.0406852,1.1641009e-8,-0.0016736,-3.9387576e-5,3.2144058e4,9055.3148229,34.4404445,0.1157687,288.2206557,241.2691735,2.9109977,0.941652,6.6138747e7,3796.9916932,746.4330613,0.7313281,0.7313318,0.3457548,0.1503012,0.2352721,0.0090963,0.0265857,-2.6313717e-4,0,0,0,0,-1.2746712e-5,0.0331675,16.129,204.3171233,88.1417244,0.0288442,1.678541,2.6382704,804.8910383,332.8976919,0.05,0.0426853
3.3420843,537.5759344,317.5352803,84.2688681,317.6469742,84.3362029,10.9073117,0.0023817,10.907312,0.0125111,8.422944,3.3694194,43.5,-119.9998648,9.7989912,0.0432019,0,-7.288889e-4,-1.1335643e-5,3.2039264e4,8950.5207947,34.3891253,0.1156429,288.274923,241.0729228,2.9265299,0.9545207,6.6941614e7,3779.1904068,763.3424752,0.7293122,0.7293164,0.3433324,0.1475355,0.2384443,0.0096849,0.0279776,-4.2094805e-5,0,0,0,0,-2.3539428e-6,0.0336143,16.129,204.3171233,88.1201291,0.0275547,1.757013,2.5357567,803.2947297,332.8355686,0.05,0.0443151
3.3920843,553.5572476,321.7153981,83.4913842,321.8301157,83.5603382,11.3326824,0.0025159,11.3326827,0.01272,8.5922058,3.3939474,43.5,-119.9998595,9.7989427,0.048375,0,5.2158678e-4,-7.5633546e-6,3.193447e4,8845.7267665,34.3375578,0.1155171,288.3136753,240.8753841,2.9411799,0.9672669,6.7731712e7,3761.3891205,780.1952539,0.7273623,0.7273676,0.3409331,0.1448006,0.2416287,0.010879,0.0319403,2.8397871e-4,0,0,0,0,1.1742721e-6,0.0340571,16.129,204.3171233,88.1190559,0.0198467,1.6974751,2.4318782,801.6771683,332.7726182,0.05,0.0452247
3.4420843,569.7465938,325.8566279,82.715615,325.974333,82.7800138,11.7664924,0.0026578,11.7664927,0.0129417,8.7592149,3.2646148,43.5,-119.9998541,9.7988936,0.0380869,5.7764369e-9,0.0017276,-9.3710806e-6,3.1829676e4,8740.9327384,34.2857394,0.1153913,288.4031737,240.6765446,2.9590569,0.9798996,6.8509667e7,3743.5878341,796.9949552,0.7254758,0.7254791,0.3385551,0.1420943,0.2448264,0.0085909,0.025523,4.5825646e-4,0,0,0,0,1.2556869e-5,0.0344958,16.129,204.3171233,88.1405879,0.0111959,1.5999777,2.3266474,800.0385505,332.7088484,0.05,0.0461893
3.4920843,586.1420332,329.9591973,81.9461175,330.0795089,81.9942045,12.2083463,0.0027998,12.2083466,0.0131401,8.9112474,2.8077384,43.5,-119.9998486,9.7988438,0.0095657,7.636418e-9,-0.0021926,-1.0156027e-4,3.1724882e4,8636.1387102,34.2336676,0.1152655,288.5510471,240.4763915,2.9806346,0.9924356,6.927663e7,3725.7865478,813.7628573,0.723649,0.7236492,0.3361953,0.1394129,0.2480407,0.0021636,0.006029,-2.044213e-4,0,0,0,0,-1.9727541e-5,0.0349304,16.129,204.3171233,88.178704,0.0040126,1.6436897,2.2200771,798.3790727,332.6442667,0.05,0.0470737
3.5420843,602.7416386,334.0214724,80.9603377,334.1436776,80.9921354,12.6571387,0.0029372,12.657139,0.013296,9.0362164,2.2693005,43.5,-119.9998431,9.7987934,0.0646388,0,-0.0010482,-1.9840168e-5,3.1620088e4,8531.344682,34.1813399,0.1151397,288.370283,240.2749118,2.981919,1.0048708,7.0032316e7,3707.9852614,837.2682249,0.727761,0.7277705,0.3338545,0.1451183,0.2487882,0.0147166,0.0442922,-2.5211276e-4,0,0,0,0,-4.3992262e-6,0.0353607,16.129,204.3171233,88.2105793,9.920221e-4,1.7941919,2.1121796,796.69893,332.5788809,0.05,0.0480332
3.5920843,619.5428897,338.0220606,79.6176044,338.1457367,79.6487474,13.1116608,0.0030678,13.1116612,0.0134057,9.1447161,2.2271155,43.5,-119.9998374,9.7987424,0.0625675,0,0.0010106,-4.2573493e-6,3.1515293e4,8426.5506539,34.1287538,0.1150138,288.391085,240.0720921,2.9957836,1.0171018,7.0769504e7,3690.1839751,871.319099,0.7408357,0.7408447,0.3315522,0.1634871,0.2457964,0.0143133,0.0427651,4.0990662e-4,0,0,0,0,3.9930725e-6,0.0357841,16.129,204.3171233,88.2101291,6.9528321e-4,1.7982518,2.0029723,794.9983897,332.5127012,0.05,0.0488371
3.6420843,636.5425135,341.9572748,78.3798958,342.0827478,78.4240216,13.5717964,0.0031927,13.5717968,0.0134787,9.2643696,2.6304169,43.5,-119.9998317,9.7986907,0.0157793,0,0.0022738,4.1763165e-5,3.1410499e4,8321.7566257,34.0759067,0.114888,288.5626839,239.8679192,3.0190815,1.0291392,7.1496373e7,3672.3826887,901.3557058,0.7501065,0.7501071,0.3292863,0.1778987,0.2429215,0.0036224,0.0110681,-4.5289721e-4,0,0,0,0,1.9751691e-5,0.0362007,16.129,204.3171233,88.1769828,0.0060782,1.706771,1.8924746,793.3598436,332.4457396,0.05,0.049406
3.6920843,653.7373787,345.8321414,77.1899372,345.959933,77.2421759,14.0384208,0.0033158,14.0384211,0.0135329,9.4024057,2.8403061,43.5,-119.999826,9.7986384,0.0047611,0,-0.0023464,2.197994e-5,3.1305705e4,8216.9625976,34.022796,0.1147622,288.5832898,239.6623793,3.0331025,1.0410273,7.2209095e7,3654.5814024,929.823007,0.7578072,0.7578073,0.3270485,0.1906113,0.2401474,0.0010989,0.0032382,-2.2048764e-5,0,0,0,0,-2.0565147e-5,0.0366111,16.129,204.3171233,88.1330677,0.0106588,1.8336621,1.7807079,791.7047735,332.378009,0.05,0.0503804
3.7420843,671.1245611,349.6511142,76.1364287,349.7815813,76.2019485,14.5122293,0.0034411,14.5122297,0.013586,9.5526392,3.1593024,43.5,-119.9998201,9.7985855,0.0364434,7.1818189e-9,-0.0017331,-6.9971208e-6,3.1200911e4,8112.1685694,33.969419,0.1146364,288.4292947,239.4554587,3.0363839,1.0527441,7.2905964e7,3636.780116,953.6648275,0.7616414,0.7616445,0.3248429,0.1993238,0.2374746,0.008475,0.0254583,3.925452e-4,0,0,0,0,-1.0974805e-5,0.0370157,16.129,204.3171233,88.0944636,0.0175198,1.8452691,1.667691,790.0311907,332.3095208,0.05,0.0509383
3.7920843,688.7013721,353.4177653,75.1381351,353.5512422,75.2071496,14.993886,0.003575,14.9938864,0.013661,9.7141179,3.2211806,43.5,-119.9998141,9.7985321,0.0425759,0,-2.5885515e-4,1.8263355e-5,3.1096117e4,8007.3745412,33.915773,0.1145106,288.3533418,239.2471435,3.0445904,1.0643123,7.358857e7,3618.9788297,975.8339869,0.764133,0.7641373,0.3226654,0.2065742,0.2348935,0.0099703,0.0306741,-6.0424523e-5,0,0,0,0,-2.3964827e-7,0.0374147,16.129,204.3171233,88.0770987,0.0232513,1.8776973,1.5534418,788.3393585,332.2402857,0.05,0.0515363
3.8420843,706.465328,357.1376949,74.2322924,357.2741572,74.2981135,15.4836016,0.0037215,15.483602,0.0137713,9.8737164,3.1267306,43.5,-119.999808,9.798478,0.0362679,8.1508351e-9,0.0011833,1.6103104e-5,3.0991323e4,7902.5805131,33.8618553,0.1143848,288.3059124,239.0374194,3.0546527,1.075741,7.4257566e7,3601.1775433,995.0982034,0.7644088,0.7644119,0.320514,0.2114968,0.2323979,0.0085519,0.0257238,1.6371323e-4,0,0,0,0,4.9037701e-6,0.0378088,16.129,204.3171233,88.0871386,0.025099,1.8232142,1.4379758,786.6295098,332.1703134,0.05,0.052036
3.8920843,724.4141639,360.813723,73.4155831,360.9527791,73.4630467,15.9810008,0.0038806,15.9810012,0.0139128,10.0182873,2.6403377,43.5,-119.9998019,9.7984234,0.005694,0,-0.0018119,1.5987041e-5,3.0886529e4,7797.7864849,33.8076631,0.114259,288.3285895,238.8262723,3.0691498,1.0870522,7.4914473e7,3583.376257,1011.8211988,0.7628429,0.762843,0.3183848,0.2144783,0.2299798,0.0013512,0.0046514,1.2542668e-4,0,0,0,0,-1.1264509e-5,0.0381982,16.129,204.3171233,88.1176597,0.0177403,1.8842787,1.3213083,784.9018678,332.0996129,0.05,0.0525496
3.9420843,742.5458194,364.4508482,72.6423197,364.5918211,72.6772113,16.484977,0.004045,16.4849775,0.0140591,10.1378135,2.2517626,43.5,-119.9997956,9.7983682,0.0365327,0,-8.8875304e-4,-1.188949e-5,3.0781735e4,7692.9924567,33.7531937,0.1141332,288.1156764,238.6136875,3.0691295,1.0982508,7.5559634e7,3565.5749706,1026.9229429,0.7602076,0.7602108,0.3162768,0.2162961,0.2276347,0.0087487,0.0269453,-2.1473668e-4,0,0,0,0,-2.6565173e-6,0.0385834,16.129,204.3171233,88.1443957,0.0101972,1.9181147,1.2034524,783.1566276,332.0281922,0.05,0.0529856
3.9920843,760.8583779,368.0502385,71.9150432,368.1928286,71.948944,16.9945719,0.0042091,16.9945724,0.0141906,10.2460249,2.2084159,43.5,-119.9997893,9.7983125,0.0368995,0,5.7604761e-4,-5.4389929e-6,3.0676941e4,7588.1984286,33.6984441,0.1140074,287.9972032,238.3996502,3.0750544,1.1093364,7.6193033e7,3547.7736842,1040.1066894,0.7563583,0.7563615,0.3149872,0.2160111,0.22536,0.0089099,0.027743,-1.5371554e-5,0,0,0,0,1.0942901e-6,0.0389645,16.129,204.3171233,88.146686,0.0101339,1.912346,1.0844207,781.3939761,331.956059,0.05,0.0536221
4.0420843,779.3499295,371.6105783,71.1296006,371.7549425,71.1699903,17.5096569,0.004372,17.5096574,0.0143064,10.3593136,2.397382,43.5,-119.9997829,9.7982561,0.0194095,-9.6278796e-9,0.0017714,-1.4261028e-5,3.0575468e4,7486.7247429,33.6451595,0.1138856,287.9270395,238.1909965,3.0836408,1.1203168,7.6815209e7,3528.231648,1052.6785435,0.7522846,0.7522855,0.3138549,0.2152785,0.2231512,0.0047238,0.0149848,-3.9490815e-4,0,0,0,0,1.0150329e-5,0.0393415,16.129,204.3171233,88.1227225,0.0149239,1.9470287,0.9642256,779.6140964,331.8832207,0.05,0.0542965
4.0920843,798.0157368,375.0209371,68.1610353,375.1673942,68.2100749,18.0306283,0.0045372,18.0306289,0.0144179,10.4819079,2.5860358,43.5,-119.9997765,9.7981993,0.0017711,1.0237266e-8,-0.0020982,-4.3520468e-4,3.0488949e4,7400.2058802,33.5995163,0.1137817,287.8484176,238.0119964,3.0898643,1.1308589,7.7403381e7,3440.274631,1061.9980468,0.7465822,0.7465822,0.3127651,0.2127463,0.2210709,4.3444202e-4,0.0018022,-2.6174669e-4,0,0,0,0,-1.398292e-5,0.0397027,16.129,204.3171233,88.0846895,0.0198967,2.0408352,0.8428978,777.8174433,331.8096961,0.05,0.0550476
4.1420843,816.8468999,378.2249844,64.0475148,378.3738357,64.1048128,18.5579321,0.0047122,18.5579327,0.0145484,10.6122912,2.7097744,43.5,-119.9997699,9.7981419,0.0200801,0,-0.0016385,-2.3647904e-6,3.040243e4,7313.6870175,33.5536766,0.1136779,287.6439924,237.8319776,3.0883511,1.1407867,7.7945704e7,3317.004733,1070.3387252,0.7411327,0.7411336,0.3117364,0.2102493,0.219147,0.0049703,0.0156046,-5.1801341e-5,0,0,0,0,-8.3835439e-6,0.0400421,16.129,204.3171233,88.048893,0.0215502,2.1285897,0.7204953,776.0048748,331.7355201,0.05,0.0557342
4.1920843,835.8331418,381.2247155,59.9976676,381.3761247,60.0573146,19.0918586,0.0048965,19.0918592,0.0146946,10.7454549,2.6759883,43.5,-119.9997633,9.798084,0.0262317,0,-6.0253206e-4,-2.0821303e-5,3.0315911e4,7227.1681548,33.5076387,0.113574,287.4819925,237.6509312,3.089532,1.1501032,7.8442636e7,3193.7348351,1076.1985115,0.7348964,0.7348979,0.3107691,0.2067555,0.2173718,0.0065469,0.0206178,-4.1422877e-5,0,0,0,0,-1.1158402e-6,0.0403599,16.129,204.3171233,88.0290282,0.0159361,2.1885663,0.5970846,774.1773782,331.6607333,0.05,0.0569165
4.2420843,854.9643028,384.0219306,55.9576451,384.1757325,56.0079466,19.6322757,0.0050842,19.6322763,0.0148379,10.8696954,2.3731908,43.5,-119.9997566,9.7980256,0.0122761,0,3.0448114e-4,-7.3414878e-6,3.0229392e4,7140.6492922,33.461401,0.1134701,287.3896553,237.4688485,3.0950962,1.1588158,7.8894955e7,3070.4649371,1081.3426716,0.7290828,0.7290831,0.3098628,0.2034825,0.2157375,0.0030858,0.0091281,3.4633184e-4,0,0,0,0,2.8080487e-7,0.0406563,16.129,204.3171233,88.0290029,0.0061779,2.2619106,0.472732,772.3359336,331.5853756,0.05,0.0580332
4.2920843,874.2302767,386.6175627,51.9467718,386.7733838,51.9894906,20.1784883,0.0052638,20.178489,0.0149462,10.9777326,2.10714,43.5,-119.9997498,9.7979668,0.0027106,0,6.4607316e-4,-6.2277288e-5,3.0142873e4,7054.1304295,33.4149616,0.1133663,287.286744,237.2857205,3.1000697,1.1669151,7.9302277e7,2947.1950392,1084.8705896,0.7230793,0.7230793,0.309019,0.1998202,0.2142401,6.8609055e-4,0.0022143,7.4114237e-5,0,0,0,0,1.2473729e-6,0.0409313,16.129,204.3171233,88.0396423,2.626307e-4,2.2414484,0.3475031,770.4815124,331.5094869,0.05,0.0760597
4.3420843,893.6210103,389.0123951,47.9336651,389.1700313,47.9742342,20.7298197,0.005432,20.7298204,0.0150136,11.0756382,1.9725365,43.5,-119.999743,9.7979076,0.0039997,0,7.8713975e-4,-3.4332244e-5,3.0056354e4,6967.6115668,33.3683189,0.1132624,287.1543494,237.1015383,3.1032805,1.1744033,7.9665026e7,2823.9251412,1087.634798,0.7174446,0.7174446,0.3082378,0.1963327,0.2128741,0.0010194,0.0031922,-5.6586221e-5,0,0,0,0,1.8288613e-6,0.0411851,16.129,204.3171233,88.0531197,0.0036806,2.1205478,0.2214633,768.615083,331.4331068,0.05,0.0771404
4.3920843,913.1264604,391.2063827,43.9277824,391.3655676,43.9561433,21.2857952,0.0055923,21.2857959,0.015053,11.1612568,1.5787538,43.5,-119.9997361,9.7978479,0.0148095,0,-5.5902263e-4,-3.8361923e-5,2.9969836e4,6881.0927041,33.3214712,0.1131585,286.9987354,236.9162926,3.1051177,1.1813048,7.9985134e7,2700.6552432,1089.750113,0.7122042,0.7122047,0.3075168,0.193057,0.2116304,0.0037999,0.0122503,3.0043434e-4,0,0,0,0,-9.121113e-7,0.0414175,16.129,204.3171233,88.0669839,0.013893,2.1502791,0.0946779,766.7376119,331.3562748,0.05,0.0778341
4.4420843,932.7368124,393.2085112,40.0872814,393.3687695,40.1079112,21.8455429,0.005757,21.8455437,0.0150992,11.2274441,1.2862411,43.5000001,-119.9997292,9.797788,0.026755,0,5.2969412e-4,-2.412908e-5,2.9889195e4,6800.4525468,33.2776203,0.1130617,286.8482579,236.7426682,3.1065528,1.1876361,8.0263993e7,2582.5484841,1090.9983798,0.7071777,0.7071793,0.3068547,0.1898208,0.2105022,0.0069085,0.0210671,-4.2325163e-4,0,0,0,0,8.1058588e-7,0.0416295,16.129,204.3171233,88.0679683,0.0286409,2.2337632,-0.0327894,764.8500433,331.2790296,0.05,0.078487
4.4920843,952.4451224,395.1244878,38.3547236,395.2857985,38.3813451,22.4084723,0.00594,22.4084731,0.015188,11.2916611,1.429276,43.5000001,-119.9997222,9.7977277,0.01266,0,0.0015143,-2.5700492e-5,2.9819882e4,6731.1386755,33.2397838,0.1129785,286.7842343,236.5926797,3.1118826,1.1937063,8.0522701e7,2528.5611173,1091.9642774,0.7023665,0.7023668,0.3062193,0.1867154,0.2094318,0.0032858,0.0101755,4.9676021e-4,0,0,0,0,6.5608969e-6,0.0418324,16.129,204.3171233,88.0472257,0.02808,2.2711536,-0.1608934,762.9530471,331.2013986,0.05,0.0791901
4.5420843,972.2478591,396.985545,37.2560263,397.1484306,37.3019777,22.9749998,0.0061401,22.9750006,0.0153123,11.373346,1.8509581,43.5000001,-119.9997152,9.7976671,0.0193514,-8.86884e-9,-0.0013229,5.8409839e-6,2.9750568e4,6661.8248042,33.2018124,0.1128953,286.656276,236.4419923,3.1132918,1.1996074,8.0767566e7,2493.7394841,1092.7196238,0.6976965,0.6976974,0.305601,0.1836941,0.2084015,0.0050516,0.0153919,3.4009624e-5,0,0,0,0,-4.9601836e-6,0.0420295,16.129,204.3171233,88.0175163,0.015849,2.216606,-0.2896112,761.0469616,331.1233956,0.05,0.0798919
4.5920843,992.1422749,398.7917937,36.169489,398.9567482,36.2226235,23.5460936,0.0063409,23.5460945,0.0154297,11.4713633,1.9612537,43.5000001,-119.9997081,9.7976062,0.0289389,0,-2.9411175e-5,-9.746586e-6,2.9681254e4,6592.5109329,33.1637054,0.1128121,286.5218745,236.2906011,3.1143452,1.2053532,8.0999578e7,2458.9178508,1093.2781801,0.6931566,0.6931584,0.3049984,0.1807501,0.2074081,0.0075982,0.0233001,4.48347e-4,0,0,0,0,0,0.0422211,16.129,204.3171233,88.0045975,8.0999024e-4,2.2037585,-0.4189249,759.1320513,331.0450315,0.05,0.0806523
4.6420843,1012.1256502,400.5440621,35.0972239,400.7109638,35.138803,24.1220345,0.0065278,24.1220354,0.015505,11.5642042,1.708904,43.5000001,-119.9997009,9.797545,0.0139584,0,0.0010913,-6.664343e-5,2.961194e4,6523.1970617,33.1254616,0.1127289,286.4665238,236.1385012,3.1203436,1.2109407,8.1218607e7,2424.0962176,1093.6405871,0.6887483,0.6887487,0.304412,0.1778852,0.2064511,0.0036822,0.0109928,-1.3988644e-5,0,0,0,0,3.3154603e-6,0.0424068,16.129,204.3171233,88.0172966,-0.0036841,2.203123,-0.5488168,757.2085781,330.966317,0.05,0.0814053
4.6920843,1032.1953001,402.2428163,34.0276074,402.4112145,34.0570304,24.7022065,0.006697,24.7022074,0.0155333,11.6405449,1.4153644,43.5000001,-119.9996937,9.7974836,0.0028271,-1.0066967e-8,-0.0013785,-7.6301336e-6,2.9542626e4,6453.8831904,33.0870802,0.1126457,286.4017002,235.9856876,3.125799,1.2163617,8.1424165e7,2389.2745843,1093.8142965,0.6844773,0.6844773,0.3038426,0.1751037,0.205531,7.4928674e-4,0.0022767,7.46425e-5,0,0,0,0,-5.2463858e-6,0.0425869,16.129,204.3171233,88.0428189,0.006225,2.1339133,-0.6792696,755.2768006,330.8872626,0.05,0.0821197
4.7420843,1052.3485503,403.8880722,32.9560537,404.0575075,32.9737736,25.2857822,0.0068627,25.2857831,0.0155504,11.7001895,1.0808655,43.5000001,-119.9996865,9.7974219,0.0222288,0,-7.1467352e-4,-4.2238109e-5,2.9473312e4,6384.5693191,33.0485602,0.1125624,286.2462522,235.8321552,3.1256803,1.2216295,8.1617222e7,2354.4529511,1093.9308679,0.680405,0.6804061,0.303289,0.1724714,0.2046447,0.0059252,0.0186955,9.5258297e-5,0,0,0,0,-1.3985823e-6,0.0427611,16.129,204.3171233,88.0637854,0.0245618,2.125814,-0.8102657,753.3369764,330.807879,0.05,0.0845805
4.7920843,1072.5825056,405.4708187,31.6909403,405.6409675,31.7064136,25.8719832,0.0070444,25.8719842,0.0156004,11.7477532,0.9904386,43.5000001,-119.9996792,9.7973599,0.025201,0,6.4972006e-4,-1.3009823e-5,2.9411412e4,6322.6692178,33.0140422,0.1124881,286.1451258,235.6944328,3.1279492,1.226715,8.179589e7,2314.7073062,1094.1116633,0.6766352,0.6766365,0.3027541,0.1700847,0.2037963,0.0067504,0.021061,6.3228878e-5,0,0,0,0,1.1469018e-6,0.0429287,16.129,204.3171233,88.0635063,0.0367123,2.1556521,-0.9417864,751.3893844,330.7281774,0.05,0.0851779
4.8420843,1092.8916649,406.8961121,28.5389191,407.0669131,28.5536919,26.4604352,0.0072549,26.4604362,0.0157094,11.790916,0.9183793,43.5000001,-119.9996719,9.7972977,0.0237296,-7.3081298e-9,0.0020327,-2.1019393e-5,2.9362596e4,6273.8531517,32.9867415,0.1124295,286.0662618,235.5854118,3.129819,1.2313423,8.1941932e7,2219.9410699,1093.9474616,0.6732091,0.6732103,0.3022672,0.1679115,0.2030305,0.0063836,0.0197652,-1.9972168e-4,0,0,0,0,1.1146823e-5,0.0430795,16.129,204.3171233,88.0370955,0.0334882,2.330922,-1.0737959,749.4345542,330.6481797,0.05,0.0855712
4.8920843,1113.2674836,408.1370903,24.846737,408.3089374,24.8864894,27.0512009,0.0074877,27.0512019,0.0158594,11.844993,1.4060636,43.5000001,-119.9996646,9.7972353,0.015715,-6.0107518e-9,-0.0022941,-1.9786268e-6,2.931378e4,6225.0370856,32.9593707,0.1123709,286.0176807,235.4760276,3.1335888,1.2353988,8.2048092e7,2109.8384044,1093.3912921,0.670209,0.6702095,0.3018401,0.1660051,0.2023638,0.0042424,0.0129383,4.295456e-4,0,0,0,0,-1.4112667e-5,0.043211,16.129,204.3171233,87.9927714,0.0184268,2.3310153,-1.2062387,747.4733075,330.5679193,0.05,0.0859374
4.9420843,1133.7007298,409.1933603,21.1639475,409.3669317,21.2180942,27.6452747,0.0077222,27.6452758,0.0160045,11.9196757,1.5148768,43.5000001,-119.9996573,9.7971726,0.0302595,-5.9725154e-9,-7.9601908e-4,1.3936164e-5,2.9264964e4,6176.2210194,32.9319295,0.1123123,285.9120202,235.3662785,3.1338423,1.2389083,8.2123455e7,1999.735739,1092.5753549,0.6676158,0.6676177,0.3014704,0.1643548,0.2017906,0.0082001,0.0258558,2.7573593e-4,0,0,0,0,-1.6902934e-6,0.0433231,16.129,204.3171233,87.962678,3.0809e-4,2.3938416,-1.3390548,745.5719384,330.4874328,0.05,0.0863089
