# Time (s),Altitude (m),Vertical velocity (m/s),Vertical acceleration (m/s²),Total velocity (m/s),Total acceleration (m/s²),Position East of launch (m),Position North of launch (m),Lateral distance (m),Lateral direction (°),Lateral velocity (m/s),Lateral acceleration (m/s²),Latitude (°),Longitude (°),Gravitational acceleration (m/s²),Angle of attack (°),Roll rate (r/s),Pitch rate (r/s),Yaw rate (r/s),Mass (g),Motor mass (g),Longitudinal moment of inertia (kg·m²),Rotational moment of inertia (kg·m²),CP location (cm),CG location (cm),Stability margin calibers (​),Mach number (​),Reynolds number (​),Thrust (N),Drag force (N),Drag coefficient (​),Axial drag coefficient (​),Friction drag coefficient (​),Pressure drag coefficient (​),Base drag coefficient (​),Normal force coefficient (​),Pitch moment coefficient (​),Yaw moment coefficient (​),Side force coefficient (​),Roll moment coefficient (​),Roll forcing coefficient (​),Roll damping coefficient (​),Pitch damping coefficient (​),Coriolis acceleration (m/s²),Reference length (cm),Reference area (cm²),Vertical orientation (zenith) (°),Lateral orientation (azimuth) (°),Wind velocity (m/s),Air temperature (°C),Air pressure (mbar),Speed of sound (m/s),Simulation time step (s),Computation time (s)
0.01,1.171e-4,0.023,2.343,0.023,2.343,0,0,0,0,0,0,37.946,-113.033,9.795,89.8,0,0,0,2.8e4,4907.641,34.147,0.109,NaN,237.711,NaN,0.02,1.434e6,339.816,2.928e-8,0.577,6.166e-8,0.443,0.013,0.12,NaN,NaN,NaN,NaN,NaN,NaN,NaN,NaN,2.694e-6,16.129,204.317,90,0,6.706,3.697,821.381,333.539,0.01,0.015
0.02,0.002,0.29,26.625,0.29,26.625,0,0,0,0,0,0,37.946,-113.033,9.795,87.527,0,0,0,2.799e4,4902.536,34.142,0.109,NaN,237.694,NaN,0.02,1.435e6,1019.428,5.406e-5,0.577,1.136e-4,0.443,0.013,0.12,NaN,NaN,NaN,NaN,NaN,NaN,NaN,NaN,3.331e-5,16.129,204.317,90,0,6.706,3.697,821.381,333.539,0.01,0.018
0.03,0.007,0.799,50.915,0.799,50.915,0,0,0,0,0,0,37.946,-113.033,9.795,83.207,0,0,0,2.799e4,4897.432,34.137,0.109,NaN,237.677,NaN,0.02,1.444e6,1699.04,0.001,0.576,0.002,0.443,0.013,0.12,NaN,NaN,NaN,NaN,NaN,NaN,NaN,NaN,9.186e-5,16.129,204.317,90,0,6.706,3.697,821.38,333.539,0.01,0.02
0.04,0.018,1.431,63.198,1.431,63.198,0,0,0,0,0,0,37.946,-113.033,9.795,77.957,0,0,0,2.798e4,4887.175,34.128,0.109,NaN,237.642,NaN,0.021,1.466e6,2042.049,0.006,0.575,0.012,0.441,0.013,0.12,NaN,NaN,NaN,NaN,NaN,NaN,NaN,NaN,1.645e-4,16.129,204.317,90,0,6.706,3.697,821.379,333.539,0.01,0.023
0.05,0.036,2.065,63.454,2.065,63.454,0,0,0,0,0,0,37.946,-113.033,9.795,72.884,0,0,0,2.797e4,4876.919,34.119,0.109,NaN,237.608,NaN,0.021,1.5e6,2048.454,0.016,0.573,0.032,0.439,0.013,0.12,NaN,NaN,NaN,NaN,NaN,NaN,NaN,NaN,2.375e-4,16.129,204.317,90,0,6.706,3.697,821.378,333.539,0.01,0.025
0.06,0.06,2.702,63.709,2.702,63.709,0,0,0,0,0,0,37.946,-113.033,9.795,68.054,0,0,0,2.796e4,4866.662,34.11,0.109,NaN,237.574,NaN,0.022,1.546e6,2054.86,0.034,0.57,0.062,0.437,0.013,0.12,NaN,NaN,NaN,NaN,NaN,NaN,NaN,NaN,3.108e-4,16.129,204.317,90,0,6.706,3.697,821.375,333.539,0.01,0.027
0.07,0.09,3.341,63.964,3.341,63.964,0,0,0,0,0,0,37.946,-113.033,9.795,63.512,0,0,0,2.795e4,4856.31,34.1,0.109,NaN,237.54,NaN,0.022,1.602e6,2061.249,0.061,0.567,0.103,0.434,0.013,0.12,NaN,NaN,NaN,NaN,NaN,NaN,NaN,NaN,3.843e-4,16.129,204.317,90,0,6.706,3.697,821.372,333.539,0.01,0.029
0.08,0.126,3.984,64.218,3.984,64.218,0,0,0,0,0,0,37.946,-113.033,9.795,59.287,0,0,0,2.793e4,4845.957,34.091,0.109,NaN,237.505,NaN,0.023,1.668e6,2067.623,0.096,0.564,0.15,0.431,0.013,0.12,NaN,NaN,NaN,NaN,NaN,NaN,NaN,NaN,4.581e-4,16.129,204.317,90,0,6.706,3.696,821.368,333.539,0.01,0.03
0.09,0.169,4.628,64.472,4.628,64.472,0,0,0,0,0,0,37.946,-113.033,9.795,55.387,0,0,0,2.792e4,4835.604,34.081,0.109,NaN,237.47,NaN,0.024,1.742e6,2073.997,0.14,0.561,0.2,0.427,0.013,0.12,NaN,NaN,NaN,NaN,NaN,NaN,NaN,NaN,5.323e-4,16.129,204.317,90,0,6.706,3.696,821.364,333.539,0.01,0.031
0.1,0.219,5.275,64.726,5.275,64.726,0,0,0,0,0,0,37.946,-113.033,9.795,51.808,0,0,0,2.791e4,4825.156,34.072,0.109,NaN,237.435,NaN,0.026,1.824e6,2080.355,0.194,0.557,0.252,0.423,0.013,0.12,NaN,NaN,NaN,NaN,NaN,NaN,NaN,NaN,6.067e-4,16.129,204.317,90,0,6.706,3.696,821.359,333.539,0.01,0.033
0.11,0.275,5.925,64.979,5.925,64.979,0,0,0,0,0,0,37.946,-113.033,9.795,48.537,0,0,0,2.79e4,4814.708,34.063,0.109,NaN,237.4,NaN,0.027,1.913e6,2086.696,0.256,0.553,0.303,0.42,0.013,0.12,NaN,NaN,NaN,NaN,NaN,NaN,NaN,NaN,6.814e-4,16.129,204.317,90,0,6.706,3.695,821.353,333.538,0.01,0.035
0.12,0.338,6.577,65.232,6.577,65.232,0,0,0,0,0,0,37.946,-113.033,9.795,45.554,0,0,0,2.789e4,4804.26,34.053,0.109,NaN,237.365,NaN,0.028,2.008e6,2093.037,0.326,0.549,0.35,0.416,0.013,0.12,NaN,NaN,NaN,NaN,NaN,NaN,NaN,NaN,7.564e-4,16.129,204.317,90,0,6.706,3.695,821.347,333.538,0.01,0.036
0.13,0.407,7.232,65.484,7.232,65.484,0,0,0,0,0,0,37.946,-113.033,9.795,42.838,0,0,0,2.788e4,4793.717,34.043,0.109,NaN,237.33,NaN,0.03,2.109e6,2099.361,0.405,0.546,0.394,0.412,0.013,0.12,NaN,NaN,NaN,NaN,NaN,NaN,NaN,NaN,8.317e-4,16.129,204.317,90,0,6.706,3.695,821.34,333.538,0.01,0.038
0.14,0.482,7.889,65.736,7.889,65.736,0,0,0,0,0,0,37.946,-113.033,9.795,40.364,0,0,0,2.787e4,4783.174,34.034,0.109,NaN,237.295,NaN,0.031,2.214e6,2105.667,0.492,0.542,0.434,0.409,0.013,0.12,NaN,NaN,NaN,NaN,NaN,NaN,NaN,NaN,9.073e-4,16.129,204.317,90,0,6.706,3.694,821.332,333.538,0.01,0.039
0.15,0.564,8.549,65.987,8.549,65.987,0,0,0,0,0,0,37.946,-113.033,9.795,38.11,0,0,0,2.786e4,4772.631,34.024,0.109,NaN,237.259,NaN,0.033,2.323e6,2111.974,0.585,0.539,0.47,0.405,0.013,0.12,NaN,NaN,NaN,NaN,NaN,NaN,NaN,NaN,9.832e-4,16.129,204.317,90,0,6.706,3.694,821.324,333.537,0.01,0.041
0.16,0.653,9.211,66.239,9.211,66.239,0,0,0,0,0,0,37.946,-113.033,9.795,36.054,0,0,0,2.785e4,4761.993,34.015,0.109,NaN,237.224,NaN,0.034,2.436e6,2118.263,0.686,0.535,0.5,0.401,0.013,0.12,NaN,NaN,NaN,NaN,NaN,NaN,NaN,NaN,0.001,16.129,204.317,90,0,6.706,3.693,821.315,333.537,0.01,0.043
0.17,0.749,9.876,66.489,9.876,66.489,0,0,0,0,0,0,37.946,-113.033,9.795,34.176,0,0,0,2.784e4,4751.355,34.005,0.109,NaN,237.188,NaN,0.036,2.552e6,2124.534,0.793,0.532,0.527,0.398,0.013,0.12,NaN,NaN,NaN,NaN,NaN,NaN,NaN,NaN,0.001,16.129,204.317,90,0,6.706,3.692,821.305,333.536,0.01,0.044
0.18,0.851,10.543,66.739,10.543,66.739,0,0,0,0,0,0,37.946,-113.033,9.795,32.457,0,0,0,2.783e4,4740.718,33.995,0.109,NaN,237.152,NaN,0.037,2.672e6,2130.804,0.907,0.528,0.55,0.395,0.013,0.12,NaN,NaN,NaN,NaN,NaN,NaN,NaN,NaN,0.001,16.129,204.317,90,0,6.706,3.692,821.295,333.536,0.01,0.046
0.19,0.959,11.213,66.989,11.213,66.989,0,0,0,0,0,0,37.946,-113.033,9.795,30.881,0,0,0,2.782e4,4729.986,33.985,0.109,NaN,237.116,NaN,0.039,2.794e6,2137.056,1.027,0.525,0.57,0.392,0.014,0.12,NaN,NaN,NaN,NaN,NaN,NaN,NaN,NaN,0.001,16.129,204.317,90,0,6.706,3.691,821.284,333.536,0.01,0.047
0.2,1.075,11.885,67.239,11.885,67.239,0,0,0,0,0,0,37.946,-113.033,9.795,29.432,0,0,0,2.781e4,4719.255,33.976,0.109,NaN,237.08,NaN,0.041,2.918e6,2143.29,1.152,0.522,0.586,0.389,0.014,0.12,NaN,NaN,NaN,NaN,NaN,NaN,NaN,NaN,0.001,16.129,204.317,90,0,6.706,3.69,821.272,333.535,0.01,0.049
0.21,1.197,12.56,67.488,12.56,67.488,0,0,0,0,0,0,37.946,-113.033,9.795,28.097,0,0,0,2.78e4,4708.523,33.966,0.109,NaN,237.044,NaN,0.043,3.044e6,2149.523,1.283,0.519,0.599,0.386,0.014,0.12,NaN,NaN,NaN,NaN,NaN,NaN,NaN,NaN,0.001,16.129,204.317,90,0,6.706,3.689,821.26,333.535,0.01,0.053
0.22,1.326,13.237,67.737,13.237,67.737,0,0,0,0,0,0,37.946,-113.033,9.795,26.866,0,0,0,2.779e4,4697.699,33.956,0.109,NaN,237.007,NaN,0.044,3.173e6,2155.737,1.425,0.518,0.613,0.385,0.014,0.12,NaN,NaN,NaN,NaN,NaN,NaN,NaN,NaN,0.002,16.129,204.317,90,0,6.706,3.689,821.247,333.534,0.01,0.055
0.23,1.462,13.917,67.984,13.917,67.984,0,0,0,0,0,0,37.946,-113.033,9.795,25.726,0,0,0,2.778e4,4686.874,33.946,0.109,NaN,236.97,NaN,0.046,3.303e6,2161.931,1.575,0.519,0.625,0.385,0.014,0.12,NaN,NaN,NaN,NaN,NaN,NaN,NaN,NaN,0.002,16.129,204.317,90,0,6.706,3.688,821.233,333.534,0.01,0.056
0.24,1.604,14.599,68.232,14.599,68.232,0,0,0,0,0,0,37.946,-113.033,9.795,24.67,0,0,0,2.776e4,4676.049,33.936,0.109,NaN,236.934,NaN,0.048,3.435e6,2168.126,1.732,0.519,0.635,0.385,0.014,0.12,NaN,NaN,NaN,NaN,NaN,NaN,NaN,NaN,0.002,16.129,204.317,90,0,6.706,3.687,821.219,333.533,0.01,0.058
0.25,1.754,15.284,68.479,15.284,68.479,0,0,0,0,0,0,37.946,-113.033,9.795,23.689,0,0,0,2.775e4,4665.131,33.926,0.109,NaN,236.897,NaN,0.05,3.568e6,2174.3,1.894,0.519,0.644,0.385,0.014,0.12,NaN,NaN,NaN,NaN,NaN,NaN,NaN,NaN,0.002,16.129,204.317,90,0,6.706,3.686,821.204,333.533,0.01,0.059
0.26,1.91,15.971,68.726,15.971,68.726,0,0,0,0,0,0,37.946,-113.033,9.795,22.776,0,0,0,2.774e4,4654.214,33.916,0.109,NaN,236.86,NaN,0.052,3.703e6,2180.454,2.063,0.519,0.651,0.385,0.014,0.12,NaN,NaN,NaN,NaN,NaN,NaN,NaN,NaN,0.002,16.129,204.317,90,0,6.706,3.685,821.188,333.532,0.01,0.061
0.27,2.073,16.66,68.972,16.66,68.972,0,0,0,0,0,0,37.946,-113.033,9.795,21.924,0,0,0,2.773e4,4643.296,33.906,0.109,NaN,236.823,NaN,0.054,3.84e6,2186.608,2.239,0.519,0.657,0.385,0.014,0.12,NaN,NaN,NaN,NaN,NaN,NaN,NaN,NaN,0.002,16.129,204.317,90,0,6.706,3.684,821.171,333.531,0.01,0.062
0.28,2.243,17.352,69.218,17.352,69.218,0,0,0,0,0,0,37.946,-113.033,9.795,21.128,0,0,0,2.772e4,4632.287,33.896,0.109,NaN,236.786,NaN,0.056,3.977e6,2192.741,2.42,0.519,0.662,0.385,0.014,0.12,NaN,NaN,NaN,NaN,NaN,NaN,NaN,NaN,0.002,16.129,204.317,90,0,6.706,3.683,821.154,333.531,0.01,0.063
0.29,2.42,18.047,69.464,18.047,69.464,0,0,0,0,0,0,37.946,-113.033,9.795,20.383,0,0,0,2.771e4,4621.277,33.886,0.109,NaN,236.748,NaN,0.058,4.116e6,2198.853,2.607,0.519,0.666,0.385,0.014,0.12,NaN,NaN,NaN,NaN,NaN,NaN,NaN,NaN,0.002,16.129,204.317,90,0,6.706,3.682,821.136,333.53,0.01,0.065
0.3,2.604,18.744,69.709,18.744,69.709,0,0,0,0,0,0,37.946,-113.033,9.795,19.685,0,0,0,2.77e4,4610.267,33.875,0.109,NaN,236.711,NaN,0.06,4.256e6,2204.965,2.799,0.519,0.669,0.385,0.014,0.12,NaN,NaN,NaN,NaN,NaN,NaN,NaN,NaN,0.002,16.129,204.317,90,0,6.706,3.68,821.118,333.529,0.01,0.066
0.31,2.795,19.443,69.954,19.443,69.954,0,0,0,0,0,0,37.946,-113.033,9.795,19.028,0,0,0,2.769e4,4599.166,33.865,0.109,NaN,236.673,NaN,0.062,4.397e6,2211.055,2.998,0.519,0.671,0.385,0.014,0.12,NaN,NaN,NaN,NaN,NaN,NaN,NaN,NaN,0.002,16.129,204.317,90,0,6.706,3.679,821.098,333.528,0.01,0.068
0.32,2.993,20.145,70.197,20.145,70.197,0,0,0,0,0,0,37.946,-113.033,9.795,18.411,0,0,0,2.768e4,4588.065,33.855,0.109,NaN,236.635,NaN,0.064,4.539e6,2217.124,3.203,0.519,0.673,0.385,0.014,0.121,NaN,NaN,NaN,NaN,NaN,NaN,NaN,NaN,0.002,16.129,204.317,90,0,6.706,3.678,821.078,333.528,0.01,0.07
0.33,3.198,20.85,70.441,20.85,70.441,0,0,0,0,0,0,37.946,-113.033,9.795,17.829,0,0,0,2.767e4,4576.964,33.845,0.109,NaN,236.598,NaN,0.066,4.682e6,2223.193,3.413,0.519,0.674,0.385,0.014,0.121,NaN,NaN,NaN,NaN,NaN,NaN,NaN,NaN,0.002,16.129,204.317,90,0,6.706,3.676,821.057,333.527,0.01,0.072
0.34,3.41,21.556,70.685,21.556,70.685,0,0,0,0,0,0,37.946,-113.033,9.795,17.28,0,0,0,2.765e4,4565.772,33.834,0.109,NaN,236.559,NaN,0.068,4.826e6,2229.239,3.629,0.519,0.675,0.385,0.014,0.121,NaN,NaN,NaN,NaN,NaN,NaN,NaN,NaN,0.002,16.129,204.317,90,0,6.706,3.675,821.036,333.526,0.01,0.074
0.35,3.629,22.265,70.927,22.265,70.927,0,0,0,0,0,0,37.946,-113.033,9.795,16.761,0,0,0,2.764e4,4554.58,33.824,0.109,NaN,236.521,NaN,0.07,4.971e6,2235.262,3.85,0.519,0.675,0.385,0.014,0.121,NaN,NaN,NaN,NaN,NaN,NaN,NaN,NaN,0.003,16.129,204.317,90,0,6.706,3.674,821.014,333.525,0.01,0.075
0.36,3.856,22.977,71.17,22.977,71.17,0,0,0,0,0,0,37.946,-113.033,9.795,16.269,0,0,0,2.763e4,4543.388,33.814,0.109,NaN,236.483,NaN,0.072,5.117e6,2241.286,4.075,0.519,0.674,0.385,0.014,0.121,NaN,NaN,NaN,NaN,NaN,NaN,NaN,NaN,0.003,16.129,204.317,90,0,6.706,3.672,820.991,333.524,0.01,0.077
0.37,4.089,23.691,71.412,23.691,71.412,0,0,0,0,0,0,37.946,-113.033,9.795,15.804,0,0,0,2.762e4,4532.106,33.803,0.109,NaN,236.444,NaN,0.074,5.263e6,2247.287,4.304,0.519,0.673,0.385,0.014,0.121,NaN,NaN,NaN,NaN,NaN,NaN,NaN,NaN,0.003,16.129,204.317,90,0,6.706,3.671,820.967,333.523,0.01,0.078
0.38,4.329,24.407,71.653,24.407,71.653,0,0,0,0,0,0,37.946,-113.033,9.795,15.362,0,0,0,2.761e4,4520.823,33.793,0.109,NaN,236.406,NaN,0.076,5.411e6,2253.264,4.536,0.519,0.671,0.385,0.014,0.121,NaN,NaN,NaN,NaN,NaN,NaN,NaN,NaN,0.003,16.129,204.317,90,0,6.706,3.669,820.943,333.522,0.01,0.08
0.39,4.577,25.126,71.894,25.126,71.894,0,0,0,0,0,0,37.946,-113.033,9.795,14.943,0,0,0,2.76e4,4509.541,33.782,0.109,NaN,236.367,NaN,0.078,5.559e6,2259.241,4.773,0.519,0.669,0.385,0.014,0.121,NaN,NaN,NaN,NaN,NaN,NaN,NaN,NaN,0.003,16.129,204.317,90,0,6.706,3.668,820.918,333.521,0.01,0.081
0.4,4.832,25.847,72.135,25.847,72.135,0,0,0,0,0,0,37.946,-113.033,9.795,14.544,0,0,0,2.759e4,4498.17,33.772,0.109,NaN,236.328,NaN,0.08,5.708e6,2265.194,5.013,0.519,0.666,0.385,0.014,0.121,NaN,NaN,NaN,NaN,NaN,NaN,NaN,NaN,0.003,16.129,204.317,90,0,6.706,3.666,820.892,333.52,0.01,0.083
0.41,5.094,26.571,72.375,26.571,72.375,0,0,0,0,0,0,37.946,-113.033,9.795,14.164,0,0,0,2.758e4,4486.798,33.761,0.109,NaN,236.289,NaN,0.082,5.858e6,2271.124,5.259,0.519,0.664,0.385,0.014,0.121,NaN,NaN,NaN,NaN,NaN,NaN,NaN,NaN,0.003,16.129,204.317,90,0,6.706,3.664,820.866,333.519,0.01,0.085
0.42,5.363,27.297,72.615,27.297,72.615,0,0,0,0,0,0,37.946,-113.033,9.795,13.802,0,0,0,2.756e4,4475.427,33.751,0.109,NaN,236.25,NaN,0.084,6.008e6,2277.053,5.509,0.519,0.661,0.384,0.014,0.121,NaN,NaN,NaN,NaN,NaN,NaN,NaN,NaN,0.003,16.129,204.317,90,0,6.706,3.662,820.838,333.518,0.01,0.087
0.43,5.64,28.025,72.854,28.025,72.854,0,0,0,0,0,0,37.946,-113.033,9.795,13.456,0,0,0,2.755e4,4463.966,33.74,0.109,NaN,236.211,NaN,0.086,6.159e6,2282.957,5.764,0.519,0.658,0.384,0.014,0.121,NaN,NaN,NaN,NaN,NaN,NaN,NaN,NaN,0.003,16.129,204.317,90,0,6.706,3.661,820.81,333.517,0.01,0.089
0.44,5.924,28.756,73.093,28.756,73.093,0,0,0,0,0,0,37.946,-113.033,9.795,13.126,0,0,0,2.754e4,4452.506,33.729,0.109,NaN,236.172,NaN,0.089,6.311e6,2288.837,6.024,0.519,0.655,0.384,0.014,0.121,NaN,NaN,NaN,NaN,NaN,NaN,NaN,NaN,0.003,16.129,204.317,90,0,6.706,3.659,820.782,333.516,0.01,0.091
0.45,6.215,29.489,73.331,29.489,73.331,0,0,0,0,0,0,37.946,-113.033,9.795,12.811,0,0,0,2.753e4,4441.046,33.719,0.109,NaN,236.132,NaN,0.091,6.464e6,2294.717,6.29,0.52,0.652,0.384,0.014,0.121,NaN,NaN,NaN,NaN,NaN,NaN,NaN,NaN,0.003,16.129,204.317,90,0,6.706,3.657,820.752,333.515,0.01,0.093
0.46,6.514,30.225,73.569,30.225,73.569,0,0,0,0,0,0,37.946,-113.033,9.795,12.509,0,0,0,2.752e4,4429.498,33.708,0.109,NaN,236.093,NaN,0.093,6.617e6,2300.572,6.56,0.52,0.649,0.384,0.014,0.121,NaN,NaN,NaN,NaN,NaN,NaN,NaN,NaN,0.003,16.129,204.317,90,0,6.706,3.655,820.722,333.514,0.01,0.094
0.47,6.82,30.963,73.806,30.963,73.806,0,0,0,0,0,0,37.946,-113.033,9.795,12.22,0,0,0,2.751e4,4417.949,33.697,0.109,NaN,236.053,NaN,0.095,6.771e6,2306.401,6.837,0.52,0.646,0.384,0.014,0.121,NaN,NaN,NaN,NaN,NaN,NaN,NaN,NaN,0.004,16.129,204.317,90,0,6.706,3.653,820.691,333.513,0.01,0.096
0.48,7.133,31.703,74.043,31.703,74.043,0,0,0,0,0,0,37.946,-113.033,9.795,11.943,0,0,0,2.75e4,4406.401,33.686,0.109,NaN,236.013,NaN,0.097,6.925e6,2312.23,7.119,0.52,0.642,0.384,0.014,0.121,NaN,NaN,NaN,NaN,NaN,NaN,NaN,NaN,0.004,16.129,204.317,90,0,6.706,3.651,820.659,333.511,0.01,0.098
0.49,7.454,32.446,74.279,32.446,74.279,0,0,0,0,0,0,37.946,-113.033,9.795,11.677,0,0,0,2.748e4,4394.766,33.675,0.109,NaN,235.973,NaN,0.099,7.081e6,2318.033,7.406,0.52,0.639,0.384,0.014,0.121,NaN,NaN,NaN,NaN,NaN,NaN,NaN,NaN,0.004,16.129,204.317,90,0,6.706,3.649,820.627,333.51,0.01,0.099
0.5,7.782,33.191,74.514,33.191,74.514,0,0,0,0,0,0,37.946,-113.033,9.795,11.422,0,0,0,2.747e4,4383.131,33.665,0.109,NaN,235.933,NaN,0.102,7.236e6,2323.809,7.7,0.52,0.637,0.384,0.014,0.121,NaN,NaN,NaN,NaN,NaN,NaN,NaN,NaN,0.004,16.129,204.317,90,0,6.706,3.647,820.594,333.509,0.01,0.101
0.51,8.118,33.938,74.749,33.938,74.749,0,0,0,0,0,0,37.946,-113.033,9.795,11.177,0,0,0,2.746e4,4371.495,33.654,0.109,NaN,235.892,NaN,0.104,7.393e6,2329.586,8,0.52,0.634,0.384,0.014,0.121,NaN,NaN,NaN,NaN,NaN,NaN,NaN,NaN,0.004,16.129,204.317,90,0,6.706,3.644,820.56,333.507,0.01,0.102
0.52,8.461,34.688,74.983,34.688,74.983,0,0,0,0,0,0,37.946,-113.033,9.795,10.941,0,0,0,2.745e4,4359.774,33.643,0.109,NaN,235.852,NaN,0.106,7.55e6,2335.336,8.306,0.52,0.631,0.384,0.014,0.121,NaN,NaN,NaN,NaN,NaN,NaN,NaN,NaN,0.004,16.129,204.317,90,0,6.706,3.642,820.525,333.506,0.01,0.104
0.53,8.811,35.44,75.217,35.44,75.217,0,0,0,0,0,0,37.946,-113.033,9.795,10.714,0,0,0,2.744e4,4348.052,33.632,0.109,NaN,235.811,NaN,0.108,7.707e6,2341.058,8.618,0.52,0.628,0.384,0.014,0.122,NaN,NaN,NaN,NaN,NaN,NaN,NaN,NaN,0.004,16.129,204.317,90,0,6.706,3.64,820.489,333.505,0.01,0.106
0.54,9.169,36.194,75.45,36.194,75.45,0,0,0,0,0,0,37.946,-113.033,9.795,10.496,0,0,0,2.743e4,4336.33,33.621,0.109,NaN,235.771,NaN,0.11,7.866e6,2346.781,8.937,0.52,0.625,0.384,0.014,0.122,NaN,NaN,NaN,NaN,NaN,NaN,NaN,NaN,0.004,16.129,204.317,90,0,6.706,3.638,820.453,333.503,0.01,0.108
0.55,9.535,36.951,75.683,36.951,75.683,0,0,0,0,0,0,37.946,-113.033,9.795,10.286,0,0,0,2.741e4,4324.523,33.61,0.109,NaN,235.73,NaN,0.113,8.024e6,2352.476,9.262,0.52,0.623,0.384,0.014,0.122,NaN,NaN,NaN,NaN,NaN,NaN,NaN,NaN,0.004,16.129,204.317,90,0,6.706,3.635,820.416,333.502,0.01,0.11
0.56,9.908,37.71,75.914,37.71,75.914,0,0,0,0,0,0,37.946,-113.033,9.795,10.083,0,0,0,2.74e4,4312.716,33.598,0.109,NaN,235.689,NaN,0.115,8.184e6,2358.144,9.594,0.52,0.62,0.384,0.014,0.122,NaN,NaN,NaN,NaN,NaN,NaN,NaN,NaN,0.004,16.129,204.317,90,0,6.706,3.633,820.378,333.5,0.01,0.112
0.57,10.289,38.471,76.146,38.471,76.146,0,0,0,0,0,0,37.946,-113.033,9.795,9.887,0,0,0,2.739e4,4300.908,33.587,0.109,NaN,235.648,NaN,0.117,8.344e6,2363.811,9.933,0.52,0.617,0.384,0.014,0.122,NaN,NaN,NaN,NaN,NaN,NaN,NaN,NaN,0.004,16.129,204.317,90,0,6.706,3.63,820.34,333.499,0.01,0.114
0.58,10.678,39.235,76.377,39.235,76.377,0,0,0,0,0,0,37.946,-113.033,9.795,9.699,0,0,0,2.738e4,4289.016,33.576,0.109,NaN,235.606,NaN,0.119,8.504e6,2369.45,10.278,0.521,0.615,0.384,0.014,0.122,NaN,NaN,NaN,NaN,NaN,NaN,NaN,NaN,0.005,16.129,204.317,90,0,6.706,3.628,820.3,333.497,0.01,0.115
0.595,11.275,40.385,76.67,40.385,76.691,-1.989e-4,0,1.989e-4,-180,0.027,1.783,37.946,-113.033,9.795,9.389,0,8.526e-4,-9.476e-8,2.736e4,4271.178,33.559,0.109,260.648,235.544,1.556,0.123,8.745e6,2376.464,10.798,0.521,0.611,0.384,0.015,0.122,2.758,4.294,-2.781e-4,0,0,0,0,1.952e-4,0.005,16.129,204.317,89.998,0.006,6.706,3.624,820.24,333.495,0.015,0.118
0.618,12.203,42.119,77.11,42.119,77.131,-0.001,0,0.001,-180,0.067,1.801,37.946,-113.033,9.794,8.942,0,0.002,-4.698e-8,2.733e4,4244.275,33.534,0.109,261.553,235.45,1.618,0.128,9.109e6,2386.944,11.603,0.521,0.605,0.384,0.015,0.122,2.593,4.195,3.226e-4,0,0,0,0,0.001,0.005,16.129,204.317,89.985,0.003,6.706,3.618,820.146,333.491,0.023,0.119
0.651,13.669,44.741,77.765,44.741,77.785,-0.005,-7.423e-9,0.005,-180,0.128,1.789,37.946,-113.033,9.794,8.309,0,0.004,-2.503e-7,2.729e4,4203.68,33.496,0.109,262.885,235.309,1.71,0.136,9.66e6,2402.524,12.87,0.521,0.597,0.384,0.015,0.122,2.363,4.036,-3.872e-4,0,0,0,0,0.004,0.005,16.129,204.317,89.946,0.003,6.706,3.608,819.998,333.486,0.034,0.121
0.701,16.004,48.673,78.731,48.674,78.748,-0.013,-3.21e-8,0.013,-180,0.215,1.671,37.946,-113.033,9.794,7.432,0,0.008,-2.828e-7,2.723e4,4142.956,33.438,0.108,264.831,235.096,1.844,0.147,1.049e7,2425.428,14.881,0.522,0.585,0.384,0.015,0.123,2.057,3.78,-6.836e-5,0,0,0,0,0.012,0.006,16.129,204.317,89.836,0.002,6.706,3.593,819.761,333.476,0.05,0.123
0.751,18.538,52.662,79.845,52.663,79.857,-0.026,-8.291e-8,0.026,-180,0.292,1.416,37.946,-113.033,9.794,6.603,0,0.012,1.428e-7,2.717e4,4081.586,33.379,0.108,266.781,234.879,1.978,0.159,1.133e7,2452.31,17.054,0.522,0.575,0.384,0.015,0.123,1.779,3.497,-3.41e-4,0,0,0,0,0.022,0.006,16.129,204.317,89.66,7.164e-4,6.706,3.577,819.505,333.466,0.05,0.125
0.801,21.272,56.706,80.941,56.707,80.947,-0.042,-1.801e-7,0.042,-180,0.354,1.003,37.946,-113.033,9.794,5.804,0,0.016,-1.478e-7,2.711e4,4019.514,33.32,0.108,268.775,234.66,2.115,0.171,1.218e7,2478.659,19.397,0.523,0.565,0.384,0.016,0.124,1.523,3.187,4.452e-4,0,0,0,0,0.035,0.007,16.129,204.317,89.412,3.514e-6,6.706,3.559,819.228,333.456,0.05,0.127
0.851,24.21,60.804,82.015,60.805,82.016,-0.061,-3.564e-7,0.061,-180,0.389,0.414,37.946,-113.033,9.794,5.02,0,0.02,1.538e-7,2.705e4,3956.812,33.259,0.108,270.847,234.437,2.257,0.183,1.305e7,2504.457,21.916,0.524,0.557,0.383,0.016,0.124,1.283,2.847,3.214e-4,0,0,0,0,0.049,0.007,16.129,204.317,89.089,-2.047e-4,6.706,3.54,818.931,333.444,0.05,0.129
0.901,27.354,64.954,83.062,64.955,83.063,-0.08,-6.304e-7,0.08,-180,0.391,0.366,37.946,-113.033,9.794,4.241,0,0.024,7.51e-7,2.698e4,3893.503,33.198,0.108,273.028,234.21,2.407,0.196,1.392e7,2529.677,24.622,0.525,0.549,0.383,0.016,0.125,1.055,2.475,3.964e-4,0,0,0,0,0.063,0.007,16.129,204.317,88.688,-4.209e-4,6.706,3.519,818.613,333.432,0.05,0.13
0.951,30.706,69.156,84.077,69.157,84.088,-0.099,-1.038e-6,0.099,-179.999,0.349,1.345,37.946,-113.033,9.794,3.463,0,0.029,6.677e-7,2.692e4,3829.538,33.136,0.108,275.34,233.981,2.564,0.208,1.481e7,2554.306,27.533,0.525,0.542,0.383,0.017,0.126,0.837,2.07,9.639e-5,0,0,0,0,0.076,0.008,16.129,204.317,88.21,-6.907e-4,6.706,3.498,818.273,333.418,0.05,0.131
1.001,34.27,73.406,85.053,73.407,85.09,-0.114,-1.628e-6,0.114,-179.999,0.252,2.525,37.946,-113.033,9.794,2.685,0,0.033,2.501e-8,2.685e4,3764.987,33.073,0.108,277.796,233.748,2.731,0.221,1.571e7,2578.33,30.676,0.526,0.537,0.383,0.017,0.126,0.631,1.635,1.57e-4,0,0,0,0,0.088,0.008,16.129,204.317,87.659,-7.484e-4,6.706,3.474,817.912,333.404,0.05,0.132
1.051,38.048,77.704,85.98,77.704,86.068,-0.123,-2.418e-6,0.123,-179.999,0.091,3.894,37.946,-113.033,9.794,1.91,-5.89e-9,0.036,2.166e-7,2.679e4,3699.873,33.009,0.108,280.393,233.512,2.907,0.234,1.662e7,2601.719,34.084,0.527,0.533,0.383,0.017,0.127,0.436,1.171,-1.781e-4,0,0,0,0,0.095,0.009,16.129,204.317,87.044,-6.046e-4,6.706,3.45,817.53,333.39,0.05,0.134
1.101,42.042,82.046,86.851,82.046,87.02,-0.122,-3.39e-6,0.122,-179.998,0.143,5.43,37.946,-113.033,9.794,1.149,9.015e-9,0.038,1.96e-6,2.672e4,3634.153,32.945,0.108,283.111,233.273,3.09,0.247,1.755e7,2624.464,37.802,0.528,0.53,0.382,0.018,0.128,0.254,0.689,-4.322e-5,0,0,0,0,0.097,0.009,16.129,204.317,86.376,-5.611e-4,6.706,3.424,817.126,333.374,0.05,0.136
1.151,46.254,86.43,87.659,86.431,87.946,-0.108,-4.504e-6,0.108,-179.998,0.457,7.094,37.946,-113.033,9.794,0.414,0,0.04,2.004e-6,2.666e4,3567.895,32.879,0.108,285.904,233.03,3.278,0.26,1.848e7,2646.55,41.874,0.529,0.53,0.382,0.018,0.129,0.089,0.198,3.544e-5,0,0,0,0,0.093,0.01,16.129,204.317,85.674,-5.169e-4,6.706,3.397,816.7,333.357,0.05,0.138
1.201,50.686,90.851,88.402,90.855,88.843,-0.075,-5.72e-6,0.075,-179.996,0.857,8.837,37.946,-113.033,9.794,0.277,1.573e-8,-0.039,3.042e-7,2.659e4,3501.121,32.813,0.108,286.462,232.785,3.328,0.273,1.941e7,2667.951,46.341,0.531,0.531,0.382,0.019,0.13,0.059,0.281,2.042e-4,0,0,0,0,-0.084,0.01,16.129,204.317,84.962,-4.664e-4,6.706,3.368,816.251,333.34,0.05,0.139
1.251,55.34,95.308,89.078,95.317,89.71,-0.02,-6.953e-6,0.02,-179.98,1.345,10.629,37.946,-113.033,9.794,0.901,-1.603e-8,-0.038,3.106e-6,2.652e4,3433.795,32.745,0.108,284.099,232.536,3.197,0.287,2.036e7,2688.656,51.221,0.532,0.533,0.382,0.02,0.131,0.198,0.702,-1.174e-4,0,0,0,0,-0.069,0.011,16.129,204.317,84.268,-4.284e-4,6.706,3.338,815.78,333.321,0.05,0.141
1.301,60.217,99.796,89.696,99.815,90.548,0.061,-8.13e-6,0.061,-0.008,1.924,12.395,37.946,-113.033,9.794,1.435,0,-0.034,2.402e-6,2.645e4,3365.982,32.677,0.108,282.181,232.284,3.094,0.301,2.131e7,2708.653,56.495,0.533,0.536,0.381,0.02,0.132,0.322,1.048,-3.926e-4,0,0,0,0,-0.052,0.011,16.129,204.317,83.621,-2.566e-4,6.706,3.306,815.286,333.302,0.05,0.142
1.351,65.32,104.313,90.27,104.345,91.354,0.173,-9.036e-6,0.173,-0.003,2.588,14.036,37.946,-113.033,9.794,1.855,0,-0.029,8.184e-7,2.639e4,3297.706,32.608,0.108,280.738,232.029,3.02,0.314,2.228e7,2727.918,62.127,0.535,0.54,0.381,0.021,0.133,0.423,1.312,7.579e-5,0,0,0,0,-0.034,0.012,16.129,204.317,83.052,-9.47e-5,6.706,3.273,814.77,333.282,0.05,0.144
1.401,70.649,108.858,90.823,108.909,92.127,0.321,-9.432e-6,0.321,-0.002,3.328,15.442,37.946,-113.033,9.794,2.142,0,-0.022,-9.767e-7,2.632e4,3228.935,32.539,0.108,279.792,231.771,2.977,0.328,2.324e7,2746.44,68.063,0.536,0.543,0.381,0.022,0.134,0.494,1.49,-4.035e-4,0,0,0,0,-0.019,0.013,16.129,204.317,82.59,-8.254e-5,6.706,3.238,814.23,333.261,0.05,0.145
1.451,76.207,113.43,91.383,113.505,92.862,0.507,-9.132e-6,0.507,-0.001,4.131,16.505,37.946,-113.033,9.794,2.281,6.505e-9,-0.014,-3.228e-7,2.625e4,3159.732,32.468,0.108,279.358,231.509,2.967,0.342,2.421e7,2764.21,74.248,0.538,0.546,0.38,0.022,0.135,0.53,1.578,4.044e-4,0,0,0,0,-0.007,0.013,16.129,204.317,82.26,4.263e-6,6.706,3.202,813.668,333.239,0.05,0.146
1.501,81.993,118.029,91.973,118.134,93.554,0.735,-7.93e-6,0.735,-6.183e-4,4.976,17.124,37.946,-113.033,9.794,2.265,0,-0.005,-1.266e-6,2.618e4,3090.119,32.397,0.108,279.449,231.245,2.989,0.356,2.519e7,2781.202,80.634,0.539,0.547,0.38,0.023,0.136,0.526,1.572,-4.537e-4,0,0,0,0,-9.444e-4,0.014,16.129,204.317,82.082,2.72e-5,6.706,3.164,813.082,333.216,0.05,0.148
1.551,88.01,122.659,92.611,122.798,94.198,1.005,-5.601e-6,1.005,-3.192e-4,5.84,17.22,37.946,-113.033,9.794,2.092,0,0.004,2.289e-6,2.611e4,3020.074,32.325,0.108,280.067,230.978,3.043,0.37,2.618e7,2797.412,87.199,0.541,0.548,0.379,0.024,0.138,0.483,1.468,2.953e-4,0,0,0,0,4.38e-4,0.014,16.129,204.317,82.069,1.8e-4,6.706,3.125,812.473,333.193,0.05,0.149
1.601,94.26,127.321,93.302,127.497,94.794,1.319,-1.875e-6,1.319,-8.145e-5,6.693,16.754,37.946,-113.033,9.794,1.772,-5.731e-9,0.013,-3.438e-7,2.604e4,2949.654,32.252,0.107,281.197,230.708,3.13,0.384,2.717e7,2812.829,93.961,0.543,0.548,0.379,0.025,0.139,0.404,1.26,2.998e-4,0,0,0,0,0.005,0.015,16.129,204.317,82.221,3.304e-4,6.706,3.085,811.841,333.168,0.05,0.15
1.651,100.743,132.018,94.032,132.231,95.34,1.674,3.576e-6,1.674,1.224e-4,7.51,15.741,37.946,-113.033,9.794,1.33,6.789e-9,0.021,7.752e-7,2.597e4,2878.882,32.178,0.107,282.798,230.435,3.247,0.399,2.816e7,2827.43,100.984,0.545,0.548,0.379,0.026,0.141,0.298,0.956,-7.52e-5,0,0,0,0,0.011,0.015,16.129,204.317,82.527,3.697e-4,6.706,3.042,811.184,333.143,0.05,0.152
1.701,107.462,136.751,94.773,137,95.839,2.069,1.091e-5,2.069,3.021e-4,8.262,14.258,37.946,-113.033,9.794,0.8,1.269e-8,0.027,-2.176e-6,2.59e4,2807.742,32.104,0.107,284.785,230.159,3.387,0.413,2.916e7,2841.212,108.38,0.547,0.548,0.378,0.027,0.142,0.176,0.578,4.927e-4,0,0,0,0,0.017,0.016,16.129,204.317,82.957,3.608e-4,6.706,2.999,810.504,333.116,0.05,0.154
1.751,114.419,141.52,95.487,141.802,96.295,2.499,2.014e-5,2.499,4.618e-4,8.932,12.454,37.946,-113.033,9.794,0.231,0,0.03,-8.866e-6,2.583e4,2736.287,32.028,0.107,287.014,229.881,3.542,0.427,3.016e7,2854.167,116.273,0.549,0.549,0.378,0.028,0.144,0.05,0.156,3.802e-4,0,0,0,0,0.019,0.016,16.129,204.317,83.469,1.718e-4,6.706,2.954,809.8,333.089,0.05,0.155
1.801,121.615,146.323,96.137,146.631,96.711,2.96,3.116e-5,2.96,6.03e-4,9.507,10.516,37.946,-113.033,9.794,0.319,-2.541e-8,-0.029,-2.624e-6,2.575e4,2664.54,31.953,0.107,286.712,229.6,3.541,0.442,3.117e7,2866.272,124.752,0.552,0.552,0.377,0.029,0.145,0.069,0.261,1.784e-4,0,0,0,0,-0.018,0.017,16.129,204.317,84.002,-1.001e-4,6.706,2.907,809.072,333.06,0.05,0.157
1.851,129.052,151.155,96.705,151.484,97.089,3.448,4.385e-5,3.448,7.286e-4,9.985,8.627,37.946,-113.033,9.794,0.788,0,-0.025,-2.737e-6,2.568e4,2592.493,31.876,0.107,284.962,229.315,3.45,0.457,3.218e7,2877.527,133.803,0.554,0.555,0.377,0.03,0.147,0.173,0.61,3.734e-4,0,0,0,0,-0.012,0.017,16.129,204.317,84.493,-1.75e-4,6.706,2.858,808.319,333.031,0.05,0.158
1.901,136.731,156.012,97.173,156.357,97.43,3.957,5.811e-5,3.957,8.414e-4,10.375,7.069,37.946,-113.033,9.794,1.12,-1.774e-8,-0.017,9.745e-7,2.561e4,2520.194,31.799,0.107,283.782,229.029,3.395,0.471,3.319e7,2887.926,143.311,0.557,0.559,0.376,0.031,0.149,0.25,0.854,2.54e-4,0,0,0,0,-0.006,0.018,16.129,204.317,84.877,-5.467e-5,6.706,2.809,807.542,333.001,0.05,0.16
1.951,144.654,160.89,97.54,161.245,97.732,4.484,7.411e-5,4.484,9.469e-4,10.701,6.119,37.946,-113.033,9.794,1.275,-6.879e-9,-0.008,-2.015e-6,2.554e4,2447.664,31.721,0.107,283.273,228.74,3.381,0.486,3.42e7,2897.449,153.128,0.559,0.562,0.376,0.033,0.151,0.286,0.97,4.392e-6,0,0,0,0,-9.858e-4,0.019,16.129,204.317,85.103,4.74e-4,6.706,2.757,806.74,332.97,0.05,0.161
2.001,152.821,165.782,97.803,166.147,97.986,5.027,9.231e-5,5.027,0.001,11,5.984,37.946,-113.033,9.794,1.233,-7.305e-9,0.003,-1.249e-6,2.546e4,2374.904,31.642,0.107,283.474,228.448,3.412,0.501,3.521e7,2906.095,163.148,0.562,0.564,0.375,0.034,0.153,0.277,0.945,1.872e-4,0,0,0,0,1.917e-4,0.019,16.129,204.317,85.139,0.001,6.706,2.704,805.913,332.937,0.05,0.163
2.051,161.232,170.684,97.959,171.059,98.191,5.585,1.133e-4,5.585,0.001,11.315,6.743,37.946,-113.033,9.794,1.005,0,0.014,-6.231e-6,2.539e4,2301.956,31.563,0.107,284.353,228.154,3.484,0.516,3.622e7,2913.863,173.371,0.565,0.567,0.375,0.036,0.155,0.224,0.777,7.622e-5,0,0,0,0,0.003,0.02,16.129,204.317,84.978,0.002,6.706,2.649,805.062,332.904,0.05,0.164
2.101,169.889,175.59,97.997,175.979,98.348,6.159,1.38e-4,6.159,0.001,11.689,8.305,37.946,-113.033,9.794,0.629,2.079e-8,0.022,-5.072e-6,2.532e4,2228.841,31.483,0.107,285.797,227.857,3.592,0.53,3.723e7,2920.733,183.927,0.568,0.569,0.374,0.037,0.157,0.138,0.489,-4.565e-4,0,0,0,0,0.007,0.02,16.129,204.317,84.645,0.003,6.706,2.593,804.186,332.87,0.05,0.166
2.151,178.791,180.494,97.913,180.903,98.464,6.755,1.674e-4,6.755,0.001,12.157,10.405,37.946,-113.033,9.794,0.172,4.286e-8,0.026,-2.438e-5,2.524e4,2155.567,31.402,0.107,287.596,227.558,3.722,0.545,3.824e7,2926.708,195.012,0.571,0.571,0.373,0.039,0.159,0.037,0.129,4.6e-4,0,0,0,0,0.009,0.021,16.129,204.317,84.2,0.003,6.706,2.535,803.285,332.835,0.05,0.167
2.201,187.938,185.39,97.723,185.827,98.54,7.377,2.022e-4,7.377,0.002,12.736,12.664,37.946,-113.033,9.794,0.281,7.274e-9,-0.026,-1.368e-5,2.517e4,2082.17,31.321,0.107,287.193,227.257,3.716,0.56,3.925e7,2931.788,206.769,0.574,0.574,0.373,0.041,0.161,0.061,0.234,-1.854e-4,0,0,0,0,-0.008,0.021,16.129,204.317,83.724,0.004,6.706,2.476,802.359,332.799,0.05,0.168
2.251,197.33,190.274,97.472,190.747,98.572,8.031,2.431e-4,8.031,0.002,13.425,14.686,37.946,-113.033,9.794,0.641,-1.744e-8,-0.02,-3.872e-6,2.51e4,2008.672,31.24,0.107,285.829,226.954,3.65,0.575,4.025e7,2935.955,219.154,0.578,0.578,0.372,0.043,0.163,0.141,0.52,1.118e-5,0,0,0,0,-0.005,0.022,16.129,204.317,83.311,0.004,6.706,2.415,801.408,332.762,0.05,0.17
2.301,206.966,195.144,97.239,195.66,98.546,8.721,2.902e-4,8.721,0.002,14.198,15.998,37.946,-113.033,9.794,0.835,6.232e-9,-0.01,-3.726e-6,2.502e4,1935.086,31.157,0.107,285.114,226.648,3.625,0.59,4.126e7,2939.215,231.974,0.581,0.582,0.371,0.045,0.165,0.186,0.674,4.758e-5,0,0,0,0,-0.001,0.023,16.129,204.317,83.044,0.004,6.706,2.352,800.433,332.724,0.05,0.171
2.351,216.809,199.987,97.094,200.549,98.444,9.449,3.436e-4,9.449,0.002,15.008,16.249,37.946,-113.033,9.794,0.827,0,0.002,4.907e-6,2.495e4,1861.705,31.075,0.107,285.155,226.342,3.646,0.605,4.225e7,2941.566,245.005,0.585,0.586,0.371,0.047,0.168,0.184,0.671,-4.633e-4,0,0,0,0,2.941e-5,0.023,16.129,204.317,82.973,0.004,6.706,2.288,799.437,332.685,0.05,0.173
2.399,226.477,204.627,97.052,205.233,98.267,10.184,4.01e-4,10.184,0.002,15.769,15.405,37.946,-113.033,9.794,0.637,-7.793e-9,0.012,1.058e-5,2.488e4,1791.285,30.995,0.106,285.874,226.046,3.709,0.619,4.32e7,2942.979,257.735,0.589,0.589,0.37,0.049,0.17,0.141,0.52,-2.256e-4,0,0,0,0,0.002,0.024,16.129,204.317,83.096,0.004,6.706,2.225,798.458,332.647,0.048,0.175
2.449,236.83,209.48,97.064,210.128,98.01,10.991,4.685e-4,10.991,0.002,16.496,13.588,37.946,-113.033,9.794,0.299,2.027e-8,0.019,1.09e-5,2.481e4,1717.594,30.912,0.106,287.169,225.735,3.809,0.634,4.419e7,2943.519,271.475,0.593,0.593,0.369,0.051,0.172,0.065,0.245,3.125e-4,0,0,0,0,0.004,0.024,16.129,204.317,83.386,0.005,6.706,2.158,797.41,332.607,0.05,0.177
2.499,247.425,214.333,97.046,215.015,97.703,11.832,5.434e-4,11.832,0.003,17.117,11.307,37.946,-113.033,9.794,0.089,-1.301e-8,-0.021,3.188e-5,2.473e4,1643.913,30.827,0.106,287.992,225.422,3.879,0.648,4.518e7,2943.171,285.874,0.597,0.597,0.369,0.054,0.175,0.019,0.078,-2.569e-4,0,0,0,0,-0.004,0.025,16.129,204.317,83.756,0.005,6.706,2.089,796.338,332.565,0.05,0.178
2.549,258.263,219.181,96.924,219.889,97.355,12.701,6.257e-4,12.701,0.003,17.624,9.157,37.946,-113.033,9.794,0.418,-2.322e-8,-0.016,9.51e-6,2.466e4,1570.261,30.743,0.106,286.711,225.107,3.819,0.663,4.616e7,2941.901,300.985,0.601,0.602,0.368,0.056,0.177,0.092,0.353,-3.479e-4,0,0,0,0,-0.002,0.025,16.129,204.317,84.095,0.005,6.706,2.019,795.241,332.522,0.05,0.179
2.599,269.343,224.019,96.647,224.744,96.961,13.593,7.146e-4,13.593,0.003,18.039,7.794,37.946,-113.033,9.794,0.596,-1.263e-8,-0.007,1.046e-5,2.459e4,1496.668,30.657,0.106,286.037,224.791,3.797,0.678,4.713e7,2939.723,316.636,0.606,0.607,0.367,0.059,0.18,0.132,0.502,-5.158e-5,0,0,0,0,-3.86e-4,0.026,16.129,204.317,84.302,0.004,6.706,1.947,794.16,332.478,0.05,0.18
2.649,280.639,228.827,96.197,229.567,96.504,14.502,8.08e-4,14.502,0.003,18.417,7.695,37.946,-113.033,9.794,0.575,0,0.005,1.389e-5,2.451e4,1423.318,30.572,0.106,286.119,224.473,3.822,0.692,4.809e7,2936.637,332.581,0.611,0.612,0.366,0.062,0.182,0.128,0.487,2.583e-5,0,0,0,0,1.913e-4,0.026,16.129,204.317,84.314,0.002,6.706,1.873,793.073,332.434,0.05,0.181
2.698,292.093,233.574,95.571,234.331,95.984,15.424,9.03e-4,15.424,0.003,18.823,8.892,37.946,-113.033,9.794,0.372,0,0.014,1.785e-5,2.444e4,1350.566,30.487,0.106,286.892,224.157,3.89,0.707,4.905e7,2932.657,348.762,0.616,0.616,0.366,0.065,0.185,0.082,0.317,4.648e-4,0,0,0,0,0.002,0.027,16.129,204.317,84.133,0.001,6.706,1.799,791.97,332.389,0.05,0.182
2.748,303.891,238.328,94.779,239.11,95.411,16.377,9.998e-4,16.377,0.003,19.318,10.964,37.946,-113.033,9.794,0.06,0,0.019,8.646e-5,2.437e4,1277.274,30.401,0.106,288.103,223.836,3.985,0.721,5e7,2927.78,365.685,0.621,0.621,0.365,0.069,0.188,0.013,0.05,2.311e-4,0,0,0,0,0.003,0.028,16.129,204.317,83.821,0.002,6.706,1.722,790.835,332.342,0.05,0.183
2.798,315.925,243.038,93.879,243.854,94.795,17.358,0.001,17.358,0.004,19.925,13.146,37.946,-113.033,9.794,0.245,-1.285e-8,-0.017,1.828e-5,2.429e4,1204.122,30.314,0.106,287.387,223.514,3.96,0.736,5.094e7,2921.98,383.383,0.627,0.627,0.364,0.073,0.19,0.054,0.215,-4.213e-4,0,0,0,0,-0.002,0.028,16.129,204.317,83.49,0.003,6.706,1.644,789.677,332.295,0.05,0.184
2.848,328.194,247.702,92.975,248.559,94.117,18.372,0.001,18.372,0.004,20.627,14.615,37.946,-113.033,9.794,0.431,0,-0.008,-7.942e-7,2.422e4,1131.134,30.227,0.106,286.684,223.19,3.937,0.75,5.187e7,2915.274,401.754,0.633,0.633,0.363,0.077,0.193,0.096,0.377,1.13e-4,0,0,0,0,-5.046e-4,0.029,16.129,204.317,83.261,0.004,6.706,1.564,788.496,332.247,0.05,0.185
2.898,340.694,252.322,92.173,253.225,93.342,19.421,0.001,19.421,0.004,21.369,14.728,37.946,-113.033,9.794,0.432,0,0.002,9.825e-6,2.415e4,1058.347,30.14,0.106,286.69,222.866,3.957,0.764,5.279e7,2907.682,420.59,0.639,0.64,0.362,0.081,0.196,0.096,0.38,-2.772e-4,0,0,0,0,4.181e-5,0.029,16.129,204.317,83.212,0.005,6.706,1.483,787.292,332.197,0.05,0.186
2.948,353.425,256.904,91.483,257.851,92.46,20.508,0.001,20.508,0.004,22.078,13.401,37.946,-113.033,9.793,0.258,-3.733e-8,0.011,8.864e-6,2.407e4,985.764,30.053,0.106,287.368,222.54,4.019,0.778,5.37e7,2899.203,439.911,0.646,0.646,0.361,0.086,0.199,0.057,0.228,3.362e-4,0,0,0,0,8.737e-4,0.03,16.129,204.317,83.35,0.006,6.706,1.4,786.067,332.147,0.05,0.187
2.998,366.384,261.452,90.813,262.435,91.502,21.628,0.002,21.628,0.004,22.691,11.209,37.946,-113.033,9.793,0.009,-1.313e-8,-0.015,6.647e-5,2.4e4,913.411,29.965,0.106,288.352,222.214,4.101,0.792,5.459e7,2889.836,459.978,0.653,0.653,0.361,0.091,0.202,0.002,0.009,-2.899e-4,0,0,0,0,-0.001,0.03,16.129,204.317,83.602,0.006,6.706,1.316,784.82,332.096,0.05,0.189
3.048,379.569,265.963,90.037,266.973,90.495,22.775,0.002,22.775,0.004,23.191,9.092,37.946,-113.033,9.793,0.246,-2.248e-8,-0.011,1.826e-6,2.393e4,841.329,29.877,0.106,287.455,221.886,4.065,0.806,5.548e7,2879.603,480.957,0.661,0.661,0.36,0.096,0.204,0.054,0.222,-2.928e-4,0,0,0,0,-7.401e-4,0.031,16.129,204.317,83.845,0.006,6.706,1.23,783.551,332.044,0.05,0.191
3.098,392.979,270.431,89.068,271.459,89.426,23.945,0.002,23.945,0.004,23.606,8,37.946,-113.033,9.793,0.347,-1.716e-8,-0.002,1.177e-5,2.386e4,769.515,29.789,0.106,287.096,221.559,4.063,0.82,5.634e7,2868.504,502.73,0.669,0.669,0.359,0.102,0.207,0.077,0.314,-2.302e-4,0,0,0,0,-2.247e-5,0.031,16.129,204.317,83.962,0.005,6.706,1.143,782.26,331.991,0.05,0.192
3.148,406.611,274.843,87.867,275.889,88.271,25.135,0.002,25.135,0.005,24.006,8.432,37.946,-113.033,9.793,0.272,-1.418e-8,0.008,-5.908e-7,2.379e4,697.994,29.701,0.105,287.41,221.23,4.103,0.833,5.72e7,2856.543,525.21,0.677,0.678,0.358,0.109,0.21,0.061,0.248,-4.527e-4,0,0,0,0,3.526e-4,0.032,16.129,204.317,83.9,0.005,6.706,1.054,780.948,331.938,0.05,0.193
3.198,420.454,278.864,79.986,279.932,80.533,26.346,0.002,26.346,0.005,24.429,9.364,37.946,-113.033,9.793,0.07,-3.596e-8,0.013,3.815e-6,2.372e4,633.199,29.621,0.105,288.22,220.931,4.172,0.845,5.797e7,2688.174,546.764,0.686,0.686,0.357,0.116,0.213,0.015,0.063,-1.173e-4,0,0,0,0,9.96e-4,0.032,16.129,204.317,83.694,0.006,6.706,0.964,779.615,331.883,0.05,0.195
3.248,434.435,280.365,29.783,281.448,30.311,27.573,0.002,27.573,0.005,24.672,5.632,37.946,-113.033,9.793,0.149,2.682e-8,-0.012,-2.16e-5,2.368e4,593.113,29.571,0.105,287.926,220.745,4.165,0.85,5.822e7,1501.288,554.811,0.69,0.69,0.357,0.119,0.214,0.033,0.138,-3.828e-4,0,0,0,0,-7.733e-4,0.032,16.129,204.317,83.453,0.007,6.706,0.873,778.27,331.828,0.05,0.196
3.298,448.487,281.695,26.446,282.8,27.186,28.814,0.002,28.814,0.005,24.971,6.3,37.946,-113.033,9.793,0.271,-2.525e-8,-0.004,2.06e-6,2.365e4,557.29,29.526,0.105,287.474,220.578,4.148,0.854,5.843e7,1430.722,562.131,0.693,0.693,0.357,0.121,0.215,0.06,0.251,-8.14e-5,0,0,0,0,-1.122e-4,0.033,16.129,204.317,83.302,0.007,6.706,0.782,776.917,331.773,0.05,0.198
3.348,462.604,282.997,25.935,284.124,26.62,30.07,0.003,30.07,0.005,25.287,6.002,37.946,-113.033,9.793,0.238,-2.975e-8,0.004,-1.375e-5,2.361e4,521.652,29.481,0.105,287.612,220.411,4.166,0.859,5.864e7,1423.788,569.316,0.696,0.696,0.356,0.124,0.216,0.053,0.22,9.121e-5,0,0,0,0,1.007e-4,0.033,16.129,204.317,83.307,0.007,6.706,0.69,775.558,331.717,0.05,0.199
3.398,476.786,284.275,25.538,285.422,25.957,31.342,0.003,31.342,0.005,25.555,4.645,37.946,-113.033,9.793,0.079,2.784e-8,0.01,-7.961e-6,2.357e4,486.187,29.437,0.105,288.233,220.245,4.215,0.863,5.884e7,1416.562,576.421,0.7,0.7,0.356,0.127,0.217,0.018,0.074,7.379e-5,0,0,0,0,5.211e-4,0.033,16.129,204.317,83.449,0.007,6.706,0.598,774.193,331.661,0.05,0.201
3.448,491.031,285.535,25.147,286.693,25.328,32.625,0.003,32.625,0.005,25.742,3.019,37.946,-113.033,9.793,0.108,-1.617e-8,-0.009,-7.457e-6,2.354e4,450.907,29.392,0.105,288.135,220.079,4.219,0.867,5.903e7,1409.044,583.596,0.703,0.703,0.356,0.13,0.218,0.024,0.102,8.306e-5,0,0,0,0,-4.536e-4,0.033,16.129,204.317,83.635,0.006,6.706,0.506,772.822,331.605,0.05,0.202
3.498,505.339,286.773,24.669,287.937,24.749,33.915,0.003,33.915,0.006,25.858,1.993,37.946,-113.033,9.793,0.22,-1.534e-8,-0.003,-9.737e-6,2.35e4,415.833,29.348,0.105,287.72,219.914,4.204,0.871,5.921e7,1401.243,590.794,0.707,0.707,0.356,0.132,0.219,0.049,0.206,1.094e-4,0,0,0,0,-5.448e-5,0.033,16.129,204.317,83.752,0.007,6.706,0.413,771.445,331.549,0.05,0.203
3.548,519.708,287.984,24.061,289.151,24.151,35.21,0.003,35.21,0.006,25.951,2.085,37.946,-113.033,9.793,0.199,-2.29e-8,0.004,-2.737e-5,2.347e4,380.954,29.304,0.105,287.812,219.749,4.22,0.874,5.939e7,1393.161,597.868,0.71,0.71,0.355,0.135,0.219,0.044,0.187,2.221e-4,0,0,0,0,1.042e-4,0.033,16.129,204.317,83.735,0.009,6.706,0.319,770.062,331.492,0.05,0.204
3.598,534.137,289.16,23.339,290.334,23.548,36.51,0.004,36.51,0.006,26.077,3.133,37.946,-113.033,9.793,0.068,-5.132e-8,0.009,-3.554e-5,2.344e4,346.28,29.26,0.105,288.329,219.585,4.262,0.878,5.956e7,1384.8,604.85,0.714,0.714,0.355,0.138,0.22,0.015,0.064,-1.092e-4,0,0,0,0,4.559e-4,0.033,16.129,204.317,83.597,0.01,6.706,0.225,768.673,331.435,0.05,0.205
3.648,548.623,290.299,22.568,291.485,22.999,37.819,0.004,37.819,0.006,26.269,4.429,37.946,-113.033,9.793,0.09,-3.262e-8,-0.009,-1.314e-5,2.34e4,311.835,29.216,0.105,288.258,219.421,4.268,0.882,5.973e7,1376.168,611.852,0.717,0.717,0.355,0.141,0.221,0.02,0.086,-2.195e-4,0,0,0,0,-4.07e-4,0.034,16.129,204.317,83.421,0.009,6.706,0.131,767.279,331.378,0.05,0.206
3.698,563.166,291.399,21.842,292.602,22.449,39.138,0.004,39.138,0.006,26.516,5.182,37.946,-113.033,9.793,0.183,-2.19e-8,-0.004,-4.377e-7,2.337e4,277.604,29.172,0.105,287.917,219.258,4.257,0.885,5.989e7,1367.267,618.836,0.721,0.721,0.355,0.145,0.222,0.041,0.173,-2.727e-4,0,0,0,0,-6.719e-5,0.034,16.129,204.317,83.304,0.007,6.706,0.037,765.879,331.321,0.05,0.207
3.748,577.762,292.465,21.226,293.688,21.794,40.471,0.004,40.471,0.006,26.775,4.942,37.946,-113.033,9.793,0.161,-1.756e-8,0.003,-8.235e-6,2.333e4,243.598,29.128,0.105,288.014,219.095,4.273,0.889,6.003e7,1358.1,625.691,0.725,0.725,0.354,0.148,0.223,0.036,0.153,-1.49e-4,0,0,0,0,4.447e-5,0.034,16.129,204.317,83.304,0.006,6.706,-0.058,764.474,331.264,0.05,0.209
3.798,592.386,292.498,0.736,293.73,1.739,41.812,0.005,41.812,0.006,26.88,1.575,37.946,-113.033,9.793,0.047,0,0.007,-1.857e-5,2.331e4,221.735,29.1,0.105,288.452,218.991,4.307,0.889,5.997e7,873.358,625.174,0.725,0.725,0.354,0.148,0.223,0.01,0.045,1.32e-5,0,0,0,0,2.46e-4,0.034,16.129,204.317,83.405,0.007,6.706,-0.153,763.066,331.206,0.05,0.21
3.848,606.999,292.024,-9.327,293.258,9.352,43.156,0.005,43.156,0.007,26.869,0.681,37.946,-113.033,9.793,0.085,-2.391e-8,-0.006,-8.013e-6,2.329e4,205.957,29.08,0.105,288.301,218.915,4.302,0.888,5.98e7,630.206,621.06,0.724,0.724,0.354,0.147,0.222,0.019,0.082,7.584e-5,0,0,0,0,-1.934e-4,0.034,16.129,204.317,83.534,0.009,6.706,-0.248,761.66,331.148,0.05,0.212
3.898,621.589,291.558,-9.225,292.788,9.311,44.498,0.005,44.498,0.007,26.814,1.261,37.946,-113.033,9.793,0.157,-1.172e-8,-0.001,-1.589e-5,2.328e4,190.257,29.06,0.105,288.02,218.839,4.289,0.886,5.963e7,627.026,617.019,0.722,0.722,0.355,0.146,0.222,0.035,0.15,-3.307e-4,0,0,0,0,-1.097e-5,0.034,16.129,204.317,83.607,0.012,6.706,-0.343,760.255,331.091,0.05,0.214
3.948,636.155,291.094,-9.216,292.32,9.275,45.837,0.005,45.837,0.007,26.75,1.042,37.946,-113.033,9.793,0.131,-1.763e-8,0.004,-9.775e-6,2.326e4,174.644,29.04,0.105,288.114,218.764,4.3,0.885,5.946e7,623.756,612.978,0.721,0.721,0.355,0.144,0.222,0.029,0.126,4.259e-4,0,0,0,0,8.38e-5,0.034,16.129,204.317,83.578,0.013,6.706,-0.438,758.853,331.034,0.05,0.216
3.998,650.698,290.628,-9.279,291.853,9.282,47.174,0.006,47.174,0.007,26.717,0.224,37.946,-113.033,9.793,0.031,-1.162e-8,0.007,-2.618e-5,2.325e4,159.112,29.019,0.105,288.496,218.689,4.328,0.884,5.93e7,620.398,608.967,0.72,0.72,0.355,0.143,0.222,0.007,0.029,-1.147e-4,0,0,0,0,2.592e-4,0.034,16.129,204.317,83.468,0.011,6.706,-0.532,757.453,330.976,0.05,0.217
4.048,665.218,290.158,-9.361,291.387,9.384,48.51,0.006,48.51,0.007,26.73,0.663,37.946,-113.033,9.793,0.08,0,-0.006,-1.138e-5,2.323e4,143.664,28.999,0.105,288.302,218.615,4.321,0.883,5.913e7,616.951,605.039,0.718,0.718,0.355,0.142,0.221,0.018,0.076,-4.69e-4,0,0,0,0,-1.921e-4,0.034,16.129,204.317,83.34,0.008,6.706,-0.627,756.056,330.919,0.05,0.218
4.098,679.714,289.685,-9.398,290.92,9.463,49.847,0.006,49.847,0.007,26.779,1.105,37.946,-113.033,9.792,0.135,-1.063e-8,-0.002,-1.025e-5,2.322e4,128.31,28.98,0.105,288.085,218.541,4.312,0.881,5.896e7,613.419,601.161,0.717,0.717,0.355,0.141,0.221,0.03,0.129,-3.375e-4,0,0,0,0,-2.103e-5,0.034,16.129,204.317,83.265,0.007,6.706,-0.721,754.661,330.862,0.05,0.219
4.148,694.186,289.211,-9.36,290.453,9.402,51.188,0.007,51.188,0.007,26.833,0.884,37.946,-113.033,9.792,0.108,-2.372e-8,0.003,-2.886e-6,2.32e4,113.043,28.96,0.105,288.185,218.467,4.323,0.88,5.88e7,609.801,597.285,0.716,0.716,0.355,0.14,0.221,0.024,0.104,6.126e-5,0,0,0,0,3.466e-5,0.033,16.129,204.317,83.275,0.006,6.706,-0.815,753.268,330.805,0.05,0.22
4.198,708.635,288.741,-9.271,289.988,9.273,52.53,0.007,52.53,0.007,26.86,0.188,37.946,-113.033,9.792,0.02,-5.915e-9,0.005,-6.237e-5,2.319e4,97.867,28.94,0.105,288.519,218.393,4.348,0.879,5.863e7,606.098,593.436,0.715,0.715,0.355,0.139,0.22,0.004,0.019,-3.418e-4,0,0,0,0,1.288e-4,0.033,16.129,204.317,83.352,0.008,6.706,-0.909,751.877,330.748,0.05,0.221
4.248,723.06,288.276,-9.187,289.524,9.203,53.873,0.007,53.873,0.008,26.848,0.54,37.946,-113.033,9.792,0.072,-9.211e-9,-0.004,-3.31e-5,2.317e4,82.791,28.92,0.105,288.311,218.32,4.339,0.878,5.847e7,602.312,589.649,0.713,0.713,0.355,0.138,0.22,0.016,0.07,-3.416e-4,0,0,0,0,-8.096e-5,0.033,16.129,204.317,83.439,0.011,6.706,-1.003,750.488,330.691,0.05,0.222
4.298,737.462,287.814,-9.153,289.06,9.195,55.215,0.007,55.215,0.008,26.808,0.881,37.946,-113.033,9.792,0.116,-1.602e-8,-3.843e-4,-2.537e-5,2.316e4,67.809,28.901,0.105,288.139,218.247,4.333,0.876,5.83e7,598.444,585.897,0.712,0.712,0.355,0.137,0.22,0.026,0.112,-1.696e-4,0,0,0,0,-7.912e-7,0.033,16.129,204.317,83.48,0.015,6.706,-1.096,749.102,330.635,0.05,0.223
4.348,751.842,287.352,-9.185,288.596,9.21,56.554,0.008,56.554,0.008,26.765,0.672,37.946,-113.033,9.792,0.09,-1.444e-8,0.003,-2.809e-5,2.314e4,52.923,28.882,0.105,288.236,218.175,4.344,0.875,5.813e7,594.494,582.148,0.711,0.711,0.355,0.136,0.22,0.02,0.086,-8.152e-5,0,0,0,0,6.311e-5,0.033,16.129,204.317,83.448,0.017,6.706,-1.19,747.718,330.578,0.05,0.224
4.398,766.198,286.886,-9.266,288.13,9.267,57.891,0.008,57.891,0.008,26.745,0.08,37.946,-113.033,9.792,0.014,-2.994e-8,0.005,-1.178e-4,2.313e4,38.144,28.862,0.105,288.525,218.103,4.366,0.874,5.797e7,590.465,578.441,0.71,0.71,0.355,0.135,0.219,0.003,0.013,3.827e-4,0,0,0,0,1.51e-4,0.033,16.129,204.317,83.361,0.015,6.706,-1.283,746.36,330.521,0.05,0.225
4.448,780.53,286.416,-9.357,287.663,9.372,59.229,0.008,59.229,0.008,26.758,0.519,37.946,-113.033,9.792,0.064,-1.587e-8,-0.004,-2.572e-5,2.311e4,23.464,28.843,0.105,288.327,218.031,4.358,0.873,5.781e7,586.357,574.812,0.709,0.709,0.355,0.134,0.219,0.014,0.062,-7.448e-5,0,0,0,0,-1.022e-4,0.033,16.129,204.317,83.267,0.011,6.706,-1.376,745.049,330.465,0.05,0.225
4.498,794.831,285.612,-15.977,286.862,15.977,60.567,0.009,60.567,0.008,26.754,0.007,37.946,-113.033,9.792,0.099,-8.213e-9,-0.001,-2.717e-5,2.31e4,12.994,28.829,0.105,288.181,217.98,4.352,0.87,5.759e7,427.44,569.147,0.706,0.706,0.356,0.132,0.218,0.022,0.096,-4.888e-4,0,0,0,0,-1.011e-5,0.033,16.129,204.317,83.214,0.008,6.706,-1.469,743.741,330.409,0.05,0.226
4.501,795.545,285.527,-33.844,286.777,33.908,60.634,0.009,60.634,0.008,26.749,2.087,37.946,-113.033,9.792,0.104,-1.565e-8,-0.001,-6.032e-6,2.31e4,12.745,28.829,0.105,288.164,217.979,4.351,0.87,5.757e7,11.324,568.591,0.706,0.706,0.356,0.132,0.218,0.023,0.101,3.165e-4,0,0,0,0,-6.531e-6,0.033,16.129,204.317,83.213,0.007,6.706,-1.474,743.676,330.406,0.003,0.229
4.505,796.615,285.398,-34.294,286.648,34.361,60.734,0.009,60.734,0.008,26.741,2.142,37.946,-113.033,9.792,0.104,-1.564e-8,-8.265e-4,-7.212e-6,2.31e4,12.745,28.829,0.105,288.163,217.979,4.351,0.87,5.753e7,0,567.746,0.706,0.706,0.356,0.132,0.218,0.023,0.1,2.627e-4,0,0,0,0,-3.722e-6,0.033,16.129,204.317,83.212,0.007,6.706,-1.481,743.578,330.402,0.004,0.232
4.51,798.22,285.206,-34.238,286.455,34.306,60.884,0.009,60.884,0.008,26.729,2.144,37.946,-113.033,9.792,0.103,-1.565e-8,-4.255e-4,-6.714e-6,2.31e4,12.745,28.829,0.105,288.164,217.979,4.351,0.869,5.749e7,0,566.482,0.705,0.705,0.356,0.131,0.218,0.023,0.099,3.492e-4,0,0,0,0,-9.875e-7,0.033,16.129,204.317,83.211,0.007,6.706,-1.491,743.431,330.395,0.006,0.233
4.519,800.625,284.917,-34.155,286.166,34.223,61.11,0.009,61.11,0.008,26.711,2.157,37.946,-113.033,9.792,0.1,-1.568e-8,1.636e-4,-9.009e-6,2.31e4,12.745,28.829,0.105,288.171,217.979,4.352,0.868,5.742e7,0,564.598,0.705,0.705,0.356,0.131,0.218,0.022,0.096,-1.337e-4,0,0,0,0,1.463e-7,0.033,16.129,204.317,83.21,0.007,6.706,-1.507,743.211,330.386,0.008,0.234
4.531,804.228,284.486,-34.027,285.734,34.098,61.448,0.009,61.448,0.008,26.683,2.2,37.946,-113.033,9.792,0.093,-1.553e-8,0.001,-9.355e-6,2.31e4,12.745,28.829,0.105,288.195,217.979,4.353,0.867,5.732e7,0,561.795,0.703,0.703,0.356,0.13,0.218,0.021,0.09,-1.234e-4,0,0,0,0,5.511e-6,0.033,16.129,204.317,83.213,0.007,6.706,-1.53,742.881,330.372,0.013,0.235
4.55,809.623,283.841,-33.833,285.089,33.912,61.954,0.009,61.954,0.008,26.641,2.309,37.946,-113.033,9.792,0.076,-1.574e-8,0.002,-1.505e-5,2.31e4,12.745,28.829,0.105,288.255,217.979,4.357,0.865,5.716e7,0,557.644,0.702,0.702,0.356,0.129,0.217,0.017,0.073,-3.392e-4,0,0,0,0,2.437e-5,0.033,16.129,204.317,83.224,0.007,6.706,-1.565,742.388,330.35,0.019,0.236
4.579,817.692,282.882,-33.539,284.127,33.635,62.711,0.009,62.711,0.009,26.572,2.543,37.946,-113.033,9.792,0.039,-1.8e-8,0.003,-2.681e-5,2.31e4,12.745,28.829,0.105,288.387,217.979,4.365,0.862,5.693e7,0,551.539,0.699,0.699,0.356,0.127,0.217,0.009,0.037,-2.302e-5,0,0,0,0,5.686e-5,0.033,16.129,204.317,83.252,0.008,6.706,-1.618,741.65,330.319,0.028,0.237
4.621,829.745,281.459,-33.105,282.699,33.235,63.844,0.01,63.844,0.009,26.454,2.938,37.946,-113.033,9.792,0.023,-2.124e-8,-0.003,-3.341e-5,2.31e4,12.745,28.829,0.105,288.439,217.979,4.369,0.858,5.659e7,0,542.645,0.696,0.696,0.356,0.124,0.216,0.005,0.022,1.546e-4,0,0,0,0,-6.376e-5,0.033,16.129,204.317,83.305,0.01,6.706,-1.696,740.547,330.271,0.043,0.238
4.671,843.777,279.816,-32.63,281.049,32.792,65.163,0.01,65.163,0.009,26.297,3.257,37.946,-113.033,9.792,0.076,-1.877e-8,-0.002,-1.723e-5,2.31e4,12.745,28.829,0.105,288.218,217.979,4.355,0.853,5.62e7,0,532.608,0.692,0.692,0.357,0.121,0.215,0.017,0.073,2.911e-4,0,0,0,0,-1.46e-5,0.032,16.129,204.317,83.353,0.014,6.706,-1.787,739.263,330.216,0.05,0.239
4.721,857.727,278.195,-32.207,279.42,32.373,66.473,0.01,66.473,0.009,26.131,3.269,37.946,-113.033,9.792,0.085,-1.655e-8,0.001,-3.172e-5,2.31e4,12.745,28.829,0.105,288.167,217.979,4.352,0.848,5.581e7,0,522.93,0.688,0.688,0.357,0.118,0.214,0.019,0.082,7.128e-5,0,0,0,0,8.099e-6,0.032,16.129,204.317,83.356,0.018,6.706,-1.878,737.987,330.161,0.05,0.239
4.771,871.597,276.594,-31.834,277.811,31.972,67.776,0.011,67.776,0.009,25.974,2.968,37.946,-113.033,9.792,0.049,-1.589e-8,0.003,-3.592e-5,2.31e4,12.745,28.829,0.105,288.297,217.979,4.36,0.844,5.543e7,0,513.581,0.685,0.685,0.357,0.115,0.213,0.011,0.047,-1.999e-5,0,0,0,0,6.924e-5,0.032,16.129,204.317,83.31,0.019,6.706,-1.968,736.719,330.106,0.05,0.24
4.821,885.387,275.011,-31.493,276.222,31.594,69.071,0.011,69.071,0.009,25.837,2.523,37.946,-113.032,9.792,0.011,-2.974e-8,-0.004,-1.175e-4,2.31e4,12.745,28.829,0.105,288.43,217.979,4.368,0.839,5.505e7,0,504.552,0.681,0.681,0.358,0.112,0.212,0.003,0.011,-7.424e-5,0,0,0,0,-9.61e-5,0.032,16.129,204.317,83.238,0.017,6.706,-2.058,735.457,330.052,0.05,0.241
4.871,899.098,273.445,-31.157,274.652,31.231,70.36,0.011,70.36,0.009,25.722,2.156,37.946,-113.032,9.792,0.062,-2.842e-8,-0.003,-8.285e-6,2.31e4,12.745,28.829,0.105,288.223,217.979,4.355,0.834,5.468e7,0,495.827,0.678,0.678,0.358,0.11,0.211,0.014,0.059,-4.538e-4,0,0,0,0,-4.8e-5,0.032,16.129,204.317,83.172,0.013,6.706,-2.147,734.203,329.998,0.05,0.242
4.921,912.731,271.896,-30.804,273.1,30.87,71.644,0.012,71.644,0.009,25.619,2.027,37.946,-113.032,9.792,0.076,-1.378e-8,-6.117e-4,-1.616e-5,2.31e4,12.745,28.829,0.105,288.155,217.979,4.351,0.83,5.431e7,0,487.375,0.675,0.675,0.358,0.107,0.21,0.017,0.073,-2.851e-4,0,0,0,0,-2.245e-6,0.031,16.129,204.317,83.141,0.011,6.706,-2.236,732.956,329.944,0.05,0.243
4.971,926.288,270.365,-30.431,271.566,30.507,72.922,0.012,72.922,0.01,25.516,2.157,37.946,-113.032,9.792,0.051,-1.924e-8,0.001,-1.976e-5,2.31e4,12.745,28.829,0.105,288.242,217.979,4.356,0.825,5.394e7,0,479.176,0.672,0.672,0.359,0.105,0.209,0.011,0.05,1.77e-5,0,0,0,0,1.237e-5,0.031,16.129,204.317,83.152,0.011,6.706,-2.324,731.715,329.891,0.05,0.244
5.021,939.768,268.853,-30.05,270.05,30.149,74.195,0.013,74.195,0.01,25.401,2.436,37.946,-113.032,9.792,0.002,-1.695e-8,0.002,-3.1e-4,2.31e4,12.745,28.829,0.105,288.425,217.979,4.368,0.821,5.359e7,0,471.223,0.669,0.669,0.359,0.103,0.208,4.812e-4,0.002,2.205e-4,0,0,0,0,3.156e-5,0.031,16.129,204.317,83.189,0.011,6.706,-2.411,730.482,329.838,0.05,0.245
5.071,953.173,267.36,-29.683,268.551,29.805,75.462,0.013,75.462,0.01,25.272,2.696,37.946,-113.032,9.792,0.045,-1.801e-8,-0.002,-1.075e-5,2.31e4,12.745,28.829,0.105,288.248,217.979,4.357,0.816,5.323e7,0,463.508,0.667,0.667,0.359,0.101,0.207,0.01,0.044,-4.667e-6,0,0,0,0,-1.594e-5,0.031,16.129,204.317,83.228,0.013,6.706,-2.498,729.256,329.785,0.05,0.245
5.121,966.504,265.884,-29.345,267.069,29.477,76.722,0.013,76.722,0.01,25.133,2.794,37.946,-113.032,9.792,0.068,-1.568e-8,1.426e-4,-5.624e-6,2.31e4,12.745,28.829,0.105,288.153,217.979,4.351,0.812,5.288e7,0,456.011,0.664,0.664,0.359,0.099,0.206,0.015,0.065,4.263e-4,0,0,0,0,1.275e-7,0.031,16.129,204.317,83.241,0.015,6.706,-2.585,728.036,329.732,0.05,0.247
5.171,979.762,264.425,-29.04,265.603,29.163,77.975,0.014,77.975,0.01,24.995,2.681,37.946,-113.032,9.792,0.056,-1.017e-8,0.002,-1.792e-5,2.31e4,12.745,28.829,0.105,288.192,217.979,4.353,0.808,5.253e7,0,448.717,0.662,0.662,0.36,0.097,0.205,0.012,0.053,6.394e-5,0,0,0,0,2.542e-5,0.031,16.129,204.317,83.22,0.017,6.706,-2.671,726.824,329.68,0.05,0.248
5.221,992.947,262.98,-28.762,264.153,28.863,79.222,0.014,79.222,0.01,24.867,2.417,37.946,-113.032,9.792,0.018,-1.999e-8,0.003,-4.983e-5,2.31e4,12.745,28.829,0.105,288.332,217.979,4.362,0.804,5.219e7,0,441.617,0.659,0.659,0.36,0.095,0.204,0.004,0.018,-4.523e-4,0,0,0,0,6.157e-5,0.03,16.129,204.317,83.171,0.018,6.706,-2.757,725.617,329.628,0.05,0.249
5.271,1006.06,261.548,-28.495,262.717,28.575,80.462,0.015,80.462,0.01,24.754,2.125,37.946,-113.032,9.791,0.026,-2.048e-8,-0.003,-2.824e-5,2.31e4,12.745,28.829,0.105,288.295,217.979,4.36,0.799,5.185e7,0,434.709,0.657,0.657,0.36,0.094,0.203,0.006,0.025,6.623e-5,0,0,0,0,-5.68e-5,0.03,16.129,204.317,83.113,0.017,6.706,-2.842,724.418,329.577,0.05,0.25
5.321,1019.102,260.13,-28.226,261.296,28.292,81.697,0.015,81.697,0.011,24.654,1.929,37.946,-113.032,9.791,0.055,-1.508e-8,-0.002,-1.029e-5,2.31e4,12.745,28.829,0.105,288.177,217.979,4.352,0.795,5.151e7,0,427.983,0.655,0.655,0.36,0.092,0.202,0.012,0.052,1.749e-4,0,0,0,0,-2.116e-5,0.03,16.129,204.317,83.069,0.016,6.706,-2.927,723.225,329.525,0.05,0.251
5.371,1032.074,258.726,-27.944,259.889,28.008,82.928,0.015,82.928,0.011,24.56,1.893,37.946,-113.032,9.791,0.056,-1.608e-8,-1.806e-4,1.08e-7,2.31e4,12.745,28.829,0.105,288.164,217.979,4.352,0.791,5.118e7,0,421.423,0.652,0.652,0.361,0.09,0.201,0.012,0.054,-2.598e-4,0,0,0,0,-2.161e-7,0.03,16.129,204.317,83.052,0.015,6.706,-3.011,722.038,329.474,0.05,0.252
5.421,1044.975,257.336,-27.651,258.496,27.724,84.153,0.016,84.153,0.011,24.463,2.008,37.946,-113.032,9.791,0.032,-1.444e-8,0.001,6.018e-6,2.31e4,12.745,28.829,0.105,288.255,217.979,4.357,0.787,5.085e7,0,415.023,0.65,0.65,0.361,0.089,0.2,0.007,0.03,2.979e-5,0,0,0,0,7.282e-6,0.03,16.129,204.317,83.062,0.016,6.706,-3.095,720.858,329.423,0.05,0.253
5.471,1057.807,255.961,-27.357,257.117,27.444,85.374,0.016,85.374,0.011,24.358,2.191,37.946,-113.032,9.791,0.005,-1.833e-8,-0.001,2.794e-5,2.31e4,12.745,28.829,0.105,288.354,217.979,4.363,0.783,5.053e7,0,408.78,0.648,0.648,0.361,0.087,0.2,0.001,0.005,2.196e-4,0,0,0,0,-1.395e-5,0.03,16.129,204.317,83.087,0.017,6.706,-3.178,719.684,329.373,0.05,0.254
5.521,1070.571,254.6,-27.072,255.752,27.174,86.589,0.017,86.589,0.011,24.244,2.345,37.946,-113.032,9.791,0.038,-1.77e-8,-8.251e-4,-1.322e-6,2.31e4,12.745,28.829,0.105,288.221,217.979,4.355,0.779,5.021e7,0,402.689,0.646,0.646,0.361,0.086,0.199,0.008,0.036,-1.648e-4,0,0,0,0,-4.656e-6,0.029,16.129,204.317,83.109,0.018,6.706,-3.261,718.516,329.322,0.05,0.255
5.571,1083.268,253.253,-26.807,254.4,26.914,87.798,0.017,87.798,0.011,24.124,2.391,37.946,-113.032,9.791,0.052,-1.736e-8,4.2e-4,5.185e-7,2.31e4,12.745,28.829,0.105,288.162,217.979,4.351,0.775,4.989e7,0,396.741,0.644,0.644,0.362,0.084,0.198,0.011,0.049,-1.017e-4,0,0,0,0,1.219e-6,0.029,16.129,204.317,83.113,0.019,6.706,-3.344,717.355,329.272,0.05,0.257
5.621,1095.897,251.919,-26.564,253.06,26.664,89.001,0.018,89.001,0.011,24.006,2.309,37.946,-113.032,9.791,0.043,-1.881e-8,0.002,5.198e-6,2.31e4,12.745,28.829,0.105,288.195,217.979,4.353,0.771,4.957e7,0,390.926,0.642,0.642,0.362,0.083,0.197,0.009,0.041,-2.017e-4,0,0,0,0,2.011e-5,0.029,16.129,204.317,83.092,0.019,6.706,-3.426,716.2,329.223,0.05,0.258
5.671,1108.46,250.597,-26.337,251.733,26.423,90.199,0.018,90.199,0.012,23.895,2.132,37.946,-113.032,9.791,0.015,-2.046e-8,0.002,4.253e-6,2.31e4,12.745,28.829,0.105,288.299,217.979,4.36,0.767,4.926e7,0,385.243,0.64,0.64,0.362,0.082,0.196,0.003,0.014,1.569e-4,0,0,0,0,4.305e-5,0.029,16.129,204.317,83.053,0.017,6.706,-3.508,715.05,329.173,0.05,0.259
5.721,1120.957,249.285,-26.119,250.418,26.19,91.391,0.019,91.391,0.012,23.793,1.935,37.946,-113.032,9.791,0.017,-2.179e-8,-0.002,2.938e-5,2.31e4,12.745,28.829,0.105,288.29,217.979,4.359,0.763,4.895e7,0,379.688,0.639,0.639,0.362,0.081,0.196,0.004,0.016,2.07e-4,0,0,0,0,-4.246e-5,0.029,16.129,204.317,83.007,0.016,6.706,-3.589,713.907,329.124,0.05,0.26
5.771,1133.388,247.985,-25.9,249.115,25.962,92.578,0.019,92.578,0.012,23.701,1.79,37.946,-113.032,9.791,0.04,-1.052e-8,-0.002,-5.146e-6,2.31e4,12.745,28.829,0.105,288.197,217.979,4.354,0.759,4.865e7,0,374.257,0.637,0.637,0.363,0.079,0.195,0.009,0.038,4.538e-4,0,0,0,0,-2.124e-5,0.029,16.129,204.317,82.968,0.016,6.706,-3.67,712.77,329.075,0.05,0.261
5.821,1145.755,246.695,-25.674,247.823,25.733,93.761,0.02,93.761,0.012,23.613,1.743,37.946,-113.032,9.791,0.045,-1.483e-8,-6.221e-4,2.628e-6,2.31e4,12.745,28.829,0.105,288.175,217.979,4.352,0.755,4.835e7,0,368.942,0.635,0.635,0.363,0.078,0.194,0.01,0.043,-3.607e-4,0,0,0,0,-2.818e-6,0.029,16.129,204.317,82.948,0.016,6.706,-3.75,711.639,329.026,0.05,0.262
5.871,1158.058,245.417,-25.441,246.542,25.504,94.94,0.02,94.94,0.012,23.525,1.794,37.946,-113.032,9.791,0.031,-1.619e-8,3.483e-4,1.105e-5,2.31e4,12.745,28.829,0.105,288.227,217.979,4.355,0.752,4.805e7,0,363.738,0.634,0.634,0.363,0.077,0.193,0.007,0.03,2.784e-4,0,0,0,0,8.927e-7,0.028,16.129,204.317,82.946,0.017,6.706,-3.83,710.513,328.978,0.05,0.263
5.921,1170.297,244.151,-25.205,245.273,25.276,96.114,0.02,96.114,0.012,23.433,1.903,37.946,-113.032,9.791,0.005,-1.559e-8,7.917e-4,3.358e-5,2.31e4,12.745,28.829,0.105,288.327,217.979,4.362,0.748,4.775e7,0,358.644,0.632,0.632,0.363,0.076,0.193,0.001,0.005,2.865e-4,0,0,0,0,4.659e-6,0.028,16.129,204.317,82.958,0.019,6.706,-3.91,709.393,328.93,0.05,0.264
5.971,1182.473,242.897,-24.973,244.015,25.055,97.283,0.021,97.283,0.012,23.335,2.014,37.946,-113.032,9.791,0.021,-1.62e-8,-6.058e-4,5.311e-6,2.31e4,12.745,28.829,0.105,288.261,217.979,4.358,0.744,4.746e7,0,353.656,0.63,0.63,0.363,0.075,0.192,0.005,0.02,4.686e-4,0,0,0,0,-2.756e-6,0.028,16.129,204.317,82.972,0.02,6.706,-3.989,708.28,328.882,0.05,0.265
6.021,1194.587,241.654,-24.753,242.768,24.84,98.447,0.021,98.447,0.012,23.232,2.072,37.946,-113.032,9.791,0.038,-1.552e-8,1.242e-4,-8.767e-6,2.31e4,12.745,28.829,0.105,288.194,217.979,4.353,0.74,4.717e7,0,348.771,0.629,0.629,0.364,0.074,0.191,0.008,0.037,-1.109e-4,0,0,0,0,1.17e-7,0.028,16.129,204.317,82.977,0.02,6.706,-4.068,707.171,328.834,0.05,0.267
6.071,1206.639,240.421,-24.547,241.531,24.632,99.606,0.022,99.606,0.013,23.128,2.051,37.946,-113.032,9.791,0.039,-1.517e-8,0.001,-1.225e-5,2.31e4,12.745,28.829,0.105,288.19,217.979,4.353,0.737,4.688e7,0,343.983,0.627,0.627,0.364,0.073,0.191,0.008,0.037,3.91e-4,0,0,0,0,8.474e-6,0.028,16.129,204.317,82.966,0.02,6.706,-4.146,706.069,328.786,0.05,0.269
6.121,1218.629,239.199,-24.353,240.305,24.432,100.76,0.022,100.76,0.013,23.028,1.958,37.946,-113.032,9.791,0.025,-1.247e-8,0.002,-7.156e-6,2.31e4,12.745,28.829,0.105,288.244,217.979,4.356,0.733,4.659e7,0,339.289,0.626,0.626,0.364,0.072,0.19,0.005,0.023,-2.136e-4,0,0,0,0,2.531e-5,0.028,16.129,204.317,82.939,0.021,6.706,-4.224,704.972,328.739,0.05,0.272
6.171,1230.559,237.986,-24.169,239.088,24.238,101.909,0.023,101.909,0.013,22.933,1.827,37.946,-113.032,9.791,0.002,-1.496e-8,0.002,-2.012e-4,2.31e4,12.745,28.829,0.105,288.333,217.979,4.362,0.73,4.631e7,0,334.688,0.625,0.625,0.364,0.071,0.189,4.126e-4,0.001,4.844e-4,0,0,0,0,3.481e-5,0.028,16.129,204.317,82.902,0.02,6.706,-4.301,703.881,328.692,0.05,0.273
