# Time (s),Altitude (m),Vertical velocity (m/s),Vertical acceleration (m/s²),Total velocity (m/s),Total acceleration (m/s²),Position East of launch (m),Position North of launch (m),Lateral distance (m),Lateral direction (°),Lateral velocity (m/s),Lateral acceleration (m/s²),Latitude (°),Longitude (°),Gravitational acceleration (m/s²),Angle of attack (°),Roll rate (r/s),Pitch rate (r/s),Yaw rate (r/s),Mass (g),Motor mass (g),Longitudinal moment of inertia (kg·m²),Rotational moment of inertia (kg·m²),CP location (cm),CG location (cm),Stability margin calibers (​),Mach number (​),Reynolds number (​),Thrust (N),Drag force (N),Drag coefficient (​),Axial drag coefficient (​),Friction drag coefficient (​),Pressure drag coefficient (​),Base drag coefficient (​),Normal force coefficient (​),Pitch moment coefficient (​),Yaw moment coefficient (​),Side force coefficient (​),Roll moment coefficient (​),Roll forcing coefficient (​),Roll damping coefficient (​),Pitch damping coefficient (​),Coriolis acceleration (m/s²),Reference length (cm),Reference area (cm²),Vertical orientation (zenith) (°),Lateral orientation (azimuth) (°),Wind velocity (m/s),Air temperature (°C),Air pressure (mbar),Speed of sound (m/s),Simulation time step (s),Computation time (s)
0.01,1.1678914e-4,0.0233615,2.3372575,0.0233615,2.3372575,0,0,0,0,0,0,43.5,-120,9.8005961,0,0,0,0,2.7996384e4,4907.6407068,34.0887393,0.1091298,NaN,237.562642,NaN,6.9745633e-5,5142.5525895,339.8160167,1.0407182e-5,1.7428149,1.7428149,1.6095572,0.0132577,0.12,NaN,NaN,NaN,NaN,NaN,NaN,NaN,NaN,2.4714208e-6,16.129,204.3171233,90,0,0,6.0299992,858.3245579,334.9530795,0.01,0.001997
0.02,0.0016811,0.2895171,26.6188577,0.2895171,26.6188577,0,0,0,0,0,0,43.5,-120,9.8005961,0,0,0,0,2.7991279e4,4902.5364136,34.0841172,0.1091254,NaN,237.5456335,NaN,8.6435126e-4,6.3731176e4,1019.42805,9.4749243e-4,1.033112,1.033112,0.8998318,0.0132801,0.1200001,NaN,NaN,NaN,NaN,NaN,NaN,NaN,NaN,3.0628092e-5,16.129,204.3171233,90,0,0,6.0299891,858.3243915,334.9530734,0.01,0.0026381
0.03,0.0071214,0.7985545,50.9091762,0.7985545,50.9091762,0,0,0,0,0,0,43.5,-120,9.8005961,0,0,0,0,2.7986175e4,4897.4321204,34.0794935,0.109121,NaN,237.5286188,NaN,0.0023841,1.7578511e5,1699.0400833,0.0057744,0.8275973,0.8275973,0.6942985,0.0132981,0.1200007,NaN,NaN,NaN,NaN,NaN,NaN,NaN,NaN,8.4479296e-5,16.129,204.3171233,90,0,0,6.0299537,858.3238128,334.9530519,0.01,0.0031223
0.04,0.0182657,1.4303418,63.191904,1.4303418,63.191904,0,0,0,0,0,0,43.5,-120,9.8005961,0,0,0,0,2.7975918e4,4887.1754763,34.0701978,0.1091121,NaN,237.4944104,NaN,0.0042703,3.1485961e5,2042.0487833,0.0165628,0.7399038,0.7399038,0.6065886,0.0133129,0.1200024,NaN,NaN,NaN,NaN,NaN,NaN,NaN,NaN,1.5131625e-4,16.129,204.3171233,90,0,0,6.0298813,858.3226274,334.9530081,0.01,0.0035256
0.05,0.0357406,2.064682,63.4471552,2.064682,63.4471552,0,0,0,0,0,0,43.5,-120,9.800596,0,0,0,0,2.7965662e4,4876.9188323,34.0608954,0.1091033,NaN,237.460177,NaN,0.0061641,4.5449559e5,2048.45415,0.032321,0.6929476,0.6929476,0.5596179,0.0133248,0.1200049,NaN,NaN,NaN,NaN,NaN,NaN,NaN,NaN,2.1842327e-4,16.129,204.3171233,90,0,0,6.0297677,858.3207685,334.9529392,0.01,0.003936
0.06,0.0595716,2.7015753,63.7024226,2.7015753,63.7024226,0,0,0,0,0,0,43.5,-120,9.800596,0,0,0,0,2.7955405e4,4866.6621883,34.0515865,0.1090944,NaN,237.4259184,NaN,0.0080655,5.9469284e5,2054.8595167,0.0528599,0.6619345,0.6619345,0.5285906,0.0133354,0.1200085,NaN,NaN,NaN,NaN,NaN,NaN,NaN,NaN,2.8580037e-4,16.129,204.3171233,90,0,0,6.0296128,858.3182336,334.9528453,0.01,0.0043455
0.07,0.0897844,3.3410174,63.9574024,3.3410174,63.9574024,0,0,0,0,0,0,43.5,-120,9.8005959,0,0,0,0,2.7945052e4,4856.3095645,34.0421839,0.1090855,NaN,237.3913137,NaN,0.0099746,7.3545022e5,2061.2492,0.0780701,0.6392212,0.6392212,0.5058628,0.0133454,0.1200129,NaN,NaN,NaN,NaN,NaN,NaN,NaN,NaN,3.5344712e-4,16.129,204.3171233,90,0,0,6.0294164,858.3150198,334.9527263,0.01,0.0047007
0.08,0.1264043,3.9830042,64.2118451,3.9830042,64.2118451,0,0,0,0,0,0,43.5,-120,9.8005958,0,0,0,0,2.79347e4,4845.9569407,34.0327745,0.1090766,NaN,237.3566834,NaN,0.0118912,8.7676661e5,2067.6232,0.1078829,0.6215221,0.6215221,0.4881486,0.0133552,0.1200184,NaN,NaN,NaN,NaN,NaN,NaN,NaN,NaN,4.2136308e-4,16.129,204.3171233,90,0,0,6.0291784,858.3111245,334.9525821,0.01,0.0050579
0.09,0.1694567,4.6275359,64.4663131,4.6275359,64.4663131,0,0,0,0,0,0,43.5,-120,9.8005957,0,0,0,0,2.7924347e4,4835.6043169,34.0233584,0.1090676,NaN,237.3220274,NaN,0.0138155,1.0186418e6,2073.9972,0.1422544,0.6071464,0.6071464,0.4737568,0.0133648,0.1200248,NaN,NaN,NaN,NaN,NaN,NaN,NaN,NaN,4.8954827e-4,16.129,204.3171233,90,0,0,6.0288985,858.306545,334.9524125,0.01,0.0054188
0.1,0.2189672,5.2746083,64.7204727,5.2746083,64.7204727,0,0,0,0,0,0,43.5,-120,9.8005956,0,0,0,0,2.7913899e4,4825.1561963,34.0138487,0.1090586,NaN,237.2870257,NaN,0.0157473,1.1610747e6,2080.3547333,0.1811566,0.5951184,0.5951184,0.4617116,0.0133745,0.1200322,NaN,NaN,NaN,NaN,NaN,NaN,NaN,NaN,5.5800223e-4,16.129,204.3171233,90,0,0,6.0285767,858.3012785,334.9522175,0.01,0.0057798
0.11,0.2749611,5.924217,64.9740707,5.924217,64.9740707,0,0,0,0,0,0,43.5,-120,9.8005954,0,0,0,0,2.7903451e4,4814.7080757,34.0043321,0.1090496,NaN,237.2519978,NaN,0.0176868,1.304064e6,2086.6958,0.2245731,0.5848276,0.5848276,0.4514026,0.0133844,0.1200407,NaN,NaN,NaN,NaN,NaN,NaN,NaN,NaN,6.267245e-4,16.129,204.3171233,90,0,0,6.0282128,858.2953223,334.9519969,0.01,0.0061381
0.12,0.3374638,6.5763622,65.2276972,6.5763622,65.2276972,0,0,0,0,0,0,43.5,-120,9.8005953,0,0,0,0,2.7893003e4,4804.2599551,33.9948087,0.1090406,NaN,237.2169436,NaN,0.0196338,1.4476095e6,2093.0368667,0.2724961,0.575869,0.575869,0.4424244,0.0133944,0.1200501,NaN,NaN,NaN,NaN,NaN,NaN,NaN,NaN,6.9571512e-4,16.129,204.3171233,90,0,0,6.0278065,858.2886738,334.9517507,0.01,0.006494
0.13,0.4065006,7.2310394,65.4809917,7.2310394,65.4809917,0,0,0,0,0,0,43.5,-120,9.8005951,0,0,0,0,2.788246e4,4793.7168434,33.9851918,0.1090315,NaN,237.1815441,NaN,0.0215883,1.59171e6,2099.3607333,0.3249241,0.5679608,0.5679608,0.4344954,0.0134048,0.1200606,NaN,NaN,NaN,NaN,NaN,NaN,NaN,NaN,7.6497359e-4,16.129,204.3171233,90,0,0,6.0273577,858.2813303,334.9514788,0.01,0.0068417
0.14,0.4820968,7.8882439,65.7336991,7.8882439,65.7336991,0,0,0,0,0,0,43.5,-120,9.8005949,0,0,0,0,2.7871917e4,4783.1737317,33.9755678,0.1090224,NaN,237.1461178,NaN,0.0235504,1.7363643e6,2105.6674,0.3818607,0.5609,0.5609,0.4274124,0.0134155,0.1200721,NaN,NaN,NaN,NaN,NaN,NaN,NaN,NaN,8.3449943e-4,16.129,204.3171233,90,0,0,6.0268664,858.273289,334.951181,0.01,0.0071851
0.15,0.5642777,8.547976,65.9864356,8.547976,65.9864356,0,0,0,0,0,0,43.5,-120,9.8005946,0,0,0,0,2.7861373e4,4772.6306199,33.9659368,0.1090133,NaN,237.1106647,NaN,0.0255201,1.8815722e6,2111.9740667,0.443314,0.5545358,0.5545358,0.4210246,0.0134265,0.1200847,NaN,NaN,NaN,NaN,NaN,NaN,NaN,NaN,9.0429267e-4,16.129,204.3171233,90,0,0,6.0263322,858.2645473,334.9508573,0.01,0.0075334
0.16,0.6530685,9.2102309,66.2388143,9.2102309,66.2388143,0,0,0,0,0,0,43.5,-120,9.8005944,0,0,0,0,2.7850736e4,4761.9930451,33.9562125,0.1090042,NaN,237.0748667,NaN,0.0274973,2.0273323e6,2118.2627833,0.5092951,0.5487532,0.5487532,0.415217,0.0134379,0.1200983,NaN,NaN,NaN,NaN,NaN,NaN,NaN,NaN,9.7435279e-4,16.129,204.3171233,90,0,0,6.0257551,858.2551025,334.9505076,0.01,0.0078967
0.17,0.7484944,9.8750038,66.490578,9.8750038,66.490578,0,0,0,0,0,0,43.5,-120,9.8005941,0,0,0,0,2.7840098e4,4751.3554702,33.946481,0.108995,NaN,237.0390414,NaN,0.029482,2.1736433e6,2124.53355,0.579818,0.543463,0.543463,0.4099003,0.0134497,0.120113,NaN,NaN,NaN,NaN,NaN,NaN,NaN,NaN,0.0010447,16.129,204.3171233,90,0,0,6.0251348,858.2449519,334.9501317,0.01,0.0140982
0.18,0.8505807,10.5422949,66.7423704,10.5422949,66.7423704,0,0,0,0,0,0,43.5,-120,9.8005938,0,0,0,0,2.7829461e4,4740.7178954,33.9367423,0.1089858,NaN,237.0031887,NaN,0.0314743,2.3205051e6,2130.8043167,0.6548997,0.5385943,0.5385943,0.4050035,0.013462,0.1201288,NaN,NaN,NaN,NaN,NaN,NaN,NaN,NaN,0.0011153,16.129,204.3171233,90,0,0,6.0244712,858.2340929,334.9497296,0.01,0.014527
0.19,0.9593525,11.212099,66.9937779,11.212099,66.9937779,0,0,0,0,0,0,43.5,-120,9.8005935,0,0,0,0,2.7818729e4,4729.9864079,33.9269105,0.1089766,NaN,236.9669916,NaN,0.033474,2.4679161e6,2137.0563833,0.7345586,0.5340902,0.5340902,0.4004698,0.0134747,0.1201457,NaN,NaN,NaN,NaN,NaN,NaN,NaN,NaN,0.0011861,16.129,204.3171233,90,0,0,6.0237642,858.2225227,334.9493011,0.01,0.0148931
0.2,1.0748348,11.8844111,67.2445416,11.8844111,67.2445416,0,0,0,0,0,0,43.5,-120,9.8005932,0,0,0,0,2.7807998e4,4719.2549205,33.9170713,0.1089673,NaN,236.9307667,NaN,0.0354813,2.6158751e6,2143.28975,0.8188149,0.5299043,0.5299043,0.3962528,0.0134879,0.1201637,NaN,NaN,NaN,NaN,NaN,NaN,NaN,NaN,0.0012573,16.129,204.3171233,90,0,0,6.0230136,858.2102387,334.9488462,0.01,0.0152405
0.21,1.1970528,12.5592313,67.4953328,12.5592313,67.4953328,0,0,0,0,0,0,43.5,-120,9.8005928,0,0,0,0,2.7797266e4,4708.523433,33.9072248,0.1089581,NaN,236.8945138,NaN,0.037496,2.7643819e6,2149.5231167,0.9076912,0.5259984,0.5259984,0.392314,0.0135016,0.1201828,NaN,NaN,NaN,NaN,NaN,NaN,NaN,NaN,0.0013286,16.129,204.3171233,90,0,0,6.0222192,858.1972382,334.9483648,0.01,0.0155912
0.22,1.3260315,13.2365544,67.7457099,13.2365544,67.7457099,0,0,0,0,0,0,43.5,-120,9.8005924,0,0,0,0,2.7786441e4,4697.6986065,33.8972853,0.1089487,NaN,236.8579172,NaN,0.0395183,2.9134349e6,2155.737,1.0012108,0.5223405,0.5223405,0.3886216,0.0135158,0.120203,NaN,NaN,NaN,NaN,NaN,NaN,NaN,NaN,0.0014003,16.129,204.3171233,90,0,0,6.0213808,858.1835186,334.9478568,0.01,0.0159435
0.23,1.4617959,13.9163748,67.9954127,13.9163748,67.9954127,0,0,0,0,0,0,43.5,-120,9.800592,0,0,0,0,2.7775617e4,4686.87378,33.8873383,0.1089394,NaN,236.821292,NaN,0.041548,3.0630327e6,2161.9314,1.099398,0.5189036,0.5189036,0.3851487,0.0135305,0.1202244,NaN,NaN,NaN,NaN,NaN,NaN,NaN,NaN,0.0014722,16.129,204.3171233,90,0,0,6.0204983,858.1690771,334.947322,0.01,0.0162971
0.24,1.604371,14.5986917,68.2449047,14.5986917,68.2449047,0,0,0,0,0,0,43.5,-120,9.8005916,0,0,0,0,2.7764792e4,4676.0489535,33.8773839,0.1089301,NaN,236.7846383,NaN,0.0435851,3.2131748e6,2168.1258,1.2088437,0.5184806,0.5184806,0.3846878,0.0135458,0.120247,NaN,NaN,NaN,NaN,NaN,NaN,NaN,NaN,0.0015444,16.129,204.3171233,90,0,0,6.0195716,858.1539112,334.9467604,0.01,0.0166441
0.25,1.7537817,15.2834976,68.4938836,15.2834976,68.4938836,0,0,0,0,0,0,43.5,-120,9.8005912,0,0,0,0,2.7753874e4,4665.1313843,33.8673366,0.1089206,NaN,236.7476417,NaN,0.0456297,3.3638594e6,2174.2999833,1.3249774,0.5185131,0.5185131,0.3846808,0.0135616,0.1202707,NaN,NaN,NaN,NaN,NaN,NaN,NaN,NaN,0.0016168,16.129,204.3171233,90,0,0,6.0186004,858.1380182,334.9461719,0.01,0.0170998
0.26,1.9100529,15.9707865,68.7421213,15.9707865,68.7421213,0,0,0,0,0,0,43.5,-120,9.8005907,0,0,0,0,2.7742957e4,4654.2138151,33.8572817,0.1089112,NaN,236.7106159,NaN,0.0476817,3.5150847e6,2180.45395,1.4468954,0.518547,0.518547,0.3846735,0.013578,0.1202956,NaN,NaN,NaN,NaN,NaN,NaN,NaN,NaN,0.0016896,16.129,204.3171233,90,0,0,6.0175847,858.1213954,334.9455563,0.01,0.0174585
0.27,2.0732094,16.6605581,68.9903437,16.6605581,68.9903437,0,0,0,0,0,0,43.5,-120,9.8005902,0,0,0,0,2.7732039e4,4643.2962458,33.8472192,0.1089018,NaN,236.6735609,NaN,0.0497412,3.6668505e6,2186.6079167,1.5746573,0.5185823,0.5185823,0.3846657,0.0135949,0.1203216,NaN,NaN,NaN,NaN,NaN,NaN,NaN,NaN,0.0017625,16.129,204.3171233,90,0,0,6.0165241,858.1040402,334.9449136,0.01,0.0178435
0.28,2.243276,17.352806,69.2380556,17.352806,69.2380556,0,0,0,0,0,0,43.5,-120,9.8005897,0,0,0,0,2.7721029e4,4632.2865523,33.8370641,0.1088923,NaN,236.6361637,NaN,0.051808,3.8191551e6,2192.7409333,1.708322,0.518619,0.518619,0.3846577,0.0136124,0.1203489,NaN,NaN,NaN,NaN,NaN,NaN,NaN,NaN,0.0018358,16.129,204.3171233,90,0,0,6.0154187,858.08595,334.9442437,0.01,0.0181995
0.29,2.4202775,18.0475238,69.4849932,18.0475238,69.4849932,0,0,0,0,0,0,43.5,-120,9.8005892,0,0,0,0,2.771002e4,4621.2768587,33.8269012,0.1088828,NaN,236.5987368,NaN,0.0538823,3.9719967e6,2198.853,1.8479482,0.5186572,0.5186572,0.3846492,0.0136306,0.1203774,NaN,NaN,NaN,NaN,NaN,NaN,NaN,NaN,0.0019093,16.129,204.3171233,90,0,0,6.0142682,858.0671222,334.9435465,0.01,0.0185957
0.3,2.6042384,18.7447113,69.7319098,18.7447113,69.7319098,0,0,0,0,0,0,43.5,-120,9.8005887,0,0,0,0,2.769901e4,4610.2671651,33.8167305,0.1088733,NaN,236.5612801,NaN,0.0559639,4.125375e6,2204.9650667,1.9935963,0.5186969,0.5186969,0.3846404,0.0136493,0.1204072,NaN,NaN,NaN,NaN,NaN,NaN,NaN,NaN,0.001983,16.129,204.3171233,90,0,0,6.0130724,858.047554,334.9428219,0.01,0.0190503
0.31,2.7951836,19.4443618,69.9782817,19.4443618,69.9782817,0,0,0,0,0,0,43.5,-120,9.8005881,0,0,0,0,2.7687909e4,4599.1659883,33.8064675,0.1088638,NaN,236.5234821,NaN,0.0580529,4.2792883e6,2211.0554,2.1453255,0.518738,0.518738,0.3846313,0.0136686,0.1204381,NaN,NaN,NaN,NaN,NaN,NaN,NaN,NaN,0.002057,16.129,204.3171233,90,0,0,6.0118313,858.0272429,334.9420698,0.01,0.0195111
0.32,2.9931375,20.1464685,70.2238442,20.1464685,70.2238442,0,0,0,0,0,0,43.5,-120,9.8005875,0,0,0,0,2.7676808e4,4588.0648116,33.7961965,0.1088542,NaN,236.4856537,NaN,0.0601493,4.4337347e6,2217.124,2.303195,0.5187807,0.5187807,0.3846217,0.0136886,0.1204703,NaN,NaN,NaN,NaN,NaN,NaN,NaN,NaN,0.0021313,16.129,204.3171233,90,0,0,6.0105446,858.0061863,334.94129,0.01,0.0198507
0.33,3.1981248,20.8510311,70.4693797,20.8510311,70.4693797,0,0,0,0,0,0,43.5,-120,9.8005869,0,0,0,0,2.7665706e4,4576.9636348,33.7859176,0.1088446,NaN,236.447795,NaN,0.0622529,4.5887139e6,2223.1926,2.4672658,0.5188248,0.5188248,0.3846118,0.0137092,0.1205038,NaN,NaN,NaN,NaN,NaN,NaN,NaN,NaN,0.0022058,16.129,204.3171233,90,0,0,6.0092122,857.9843815,334.9404826,0.01,0.0202438
0.34,3.4101699,21.5580426,70.7143379,21.5580426,70.7143379,0,0,0,0,0,0,43.5,-120,9.8005863,0,0,0,0,2.7654514e4,4565.7716387,33.7755466,0.108835,NaN,236.4095957,NaN,0.064364,4.744224e6,2229.2387333,2.6375974,0.5188706,0.5188706,0.3846015,0.0137305,0.1205386,NaN,NaN,NaN,NaN,NaN,NaN,NaN,NaN,0.0022806,16.129,204.3171233,90,0,0,6.0078339,857.961826,334.9396473,0.01,0.0205965
0.35,3.6292974,22.2674958,70.9584531,22.2674958,70.9584531,0,0,0,0,0,0,43.5,-120,9.8005856,0,0,0,0,2.7643322e4,4554.5796427,33.7651675,0.1088253,NaN,236.3713656,NaN,0.0664823,4.9002632e6,2235.2624,2.8142495,0.5189178,0.5189178,0.3845909,0.0137524,0.1205746,NaN,NaN,NaN,NaN,NaN,NaN,NaN,NaN,0.0023557,16.129,204.3171233,90,0,0,6.0064096,857.9385171,334.9387842,0.01,0.0209387
0.36,3.8555316,22.9793904,71.2025351,22.9793904,71.2025351,0,0,0,0,0,0,43.5,-120,9.8005849,0,0,0,0,2.763213e4,4543.3876466,33.7547803,0.1088157,NaN,236.3331044,NaN,0.0686079,5.056831e6,2241.2860667,2.9972835,0.5189667,0.5189667,0.3845798,0.0137749,0.1206119,NaN,NaN,NaN,NaN,NaN,NaN,NaN,NaN,0.002431,16.129,204.3171233,90,0,0,6.004939,857.9144523,334.9378931,0.01,0.0212819
0.37,4.0888969,23.6937191,71.4460063,23.6937191,71.4460063,0,0,0,0,0,0,43.5,-120,9.8005842,0,0,0,0,2.7620848e4,4532.1055175,33.7443013,0.1088059,NaN,236.2945038,NaN,0.0707408,5.2139256e6,2247.2865167,3.1867595,0.5190171,0.5190171,0.3845684,0.0137982,0.1206506,NaN,NaN,NaN,NaN,NaN,NaN,NaN,NaN,0.0025066,16.129,204.3171233,90,0,0,6.0034222,857.8896289,334.9369738,0.01,0.0216226
0.38,4.3294177,24.4104743,71.6886001,24.4104743,71.6886001,0,0,0,0,0,0,43.5,-120,9.8005835,0,0,0,0,2.7609566e4,4520.8233884,33.733814,0.1087962,NaN,236.2558716,NaN,0.072881,5.3715449e6,2253.26375,3.3827374,0.5190692,0.5190692,0.3845566,0.0138221,0.1206905,NaN,NaN,NaN,NaN,NaN,NaN,NaN,NaN,0.0025824,16.129,204.3171233,90,0,0,6.0018588,857.8640444,334.9360264,0.01,0.021968
0.39,4.5771181,25.1296557,71.9311544,25.1296557,71.9311544,0,0,0,0,0,0,43.5,-120,9.8005828,0,0,0,0,2.7598284e4,4509.5412593,33.7233185,0.1087865,NaN,236.2172078,NaN,0.0750284,5.5296886e6,2259.2409833,3.5852793,0.5191228,0.5191228,0.3845443,0.0138467,0.1207318,NaN,NaN,NaN,NaN,NaN,NaN,NaN,NaN,0.0026585,16.129,204.3171233,90,0,0,6.0002487,857.8376961,334.9350507,0.01,0.0223188
0.4,4.8320225,25.8512555,72.173064,25.8512555,72.173064,0,0,0,0,0,0,43.5,-120,9.800582,0,0,0,0,2.7586913e4,4498.1697059,33.7127315,0.1087767,NaN,236.1782056,NaN,0.0771831,5.6883546e6,2265.19425,3.7944456,0.5191782,0.5191782,0.3845317,0.013872,0.1207744,NaN,NaN,NaN,NaN,NaN,NaN,NaN,NaN,0.0027348,16.129,204.3171233,90,0,0,5.9985919,857.8105816,334.9340467,0.01,0.0226697
0.41,5.0941549,26.5752659,72.4140616,26.5752659,72.4140616,0,0,0,0,0,0,43.5,-120,9.8005812,0,0,0,0,2.7575541e4,4486.7981525,33.702136,0.1087669,NaN,236.1391712,NaN,0.079345,5.8475409e6,2271.12355,4.0102965,0.5192351,0.5192351,0.3845187,0.013898,0.1208184,NaN,NaN,NaN,NaN,NaN,NaN,NaN,NaN,0.0028114,16.129,204.3171233,90,0,0,5.996888,857.7826982,334.9330141,0.01,0.0230181
0.42,5.3635394,27.3016866,72.6550132,27.3016866,72.6550132,0,0,0,0,0,0,43.5,-120,9.8005804,0,0,0,0,2.7564169e4,4475.4265991,33.6915321,0.1087571,NaN,236.1001046,NaN,0.0815141,6.007247e6,2277.05285,4.2328947,0.5192938,0.5192938,0.3845053,0.0139247,0.1208638,NaN,NaN,NaN,NaN,NaN,NaN,NaN,NaN,0.0028883,16.129,204.3171233,90,0,0,5.995137,857.7540435,334.931953,0.01,0.0233649
0.43,5.6402002,28.0305093,72.8952864,28.0305093,72.8952864,0,0,0,0,0,0,43.5,-120,9.8005796,0,0,0,0,2.7552709e4,4463.9663524,33.680837,0.1087472,NaN,236.0607006,NaN,0.0836904,6.1674708e6,2282.95745,4.462301,0.5193541,0.5193541,0.3844914,0.0139522,0.1209105,NaN,NaN,NaN,NaN,NaN,NaN,NaN,NaN,0.0029654,16.129,204.3171233,90,0,0,5.9933387,857.7246147,334.9308633,0.01,0.0238419
0.44,5.9241611,28.761726,73.1346134,28.761726,73.1346134,0,0,0,0,0,0,43.5,-120,9.8005788,0,0,0,0,2.7541249e4,4452.5061057,33.6701334,0.1087373,NaN,236.0212639,NaN,0.0858739,6.3282103e6,2288.83735,4.6985759,0.5194162,0.5194162,0.3844772,0.0139803,0.1209587,NaN,NaN,NaN,NaN,NaN,NaN,NaN,NaN,0.0030427,16.129,204.3171233,90,0,0,5.991493,857.6944094,334.9297447,0.01,0.0242576
0.45,6.2154462,29.4953362,73.3738879,29.4953362,73.3738879,0,0,0,0,0,0,43.5,-120,9.8005779,0,0,0,0,2.7529789e4,4441.0458589,33.6594212,0.1087274,NaN,235.9817943,NaN,0.0880646,6.4894649e6,2294.71725,4.9417827,0.51948,0.51948,0.3844625,0.0140093,0.1210082,NaN,NaN,NaN,NaN,NaN,NaN,NaN,NaN,0.0031203,16.129,204.3171233,90,0,0,5.9895996,857.663425,334.9285974,0.01,0.0247878
0.46,6.5140793,30.2313313,73.6124492,30.2313313,73.6124492,0,0,0,0,0,0,43.5,-120,9.800577,0,0,0,0,2.7518241e4,4429.4976722,33.648618,0.1087174,NaN,235.9419886,NaN,0.0902623,6.6512325e6,2300.5717,5.1919824,0.5195455,0.5195455,0.3844475,0.0140389,0.1210591,NaN,NaN,NaN,NaN,NaN,NaN,NaN,NaN,0.0031982,16.129,204.3171233,90,0,0,5.9876585,857.631659,334.927421,0.01,0.0253186
0.47,6.8200843,30.969703,73.8500293,30.969703,73.8500293,0,0,0,0,0,0,43.5,-120,9.8005761,0,0,0,0,2.7506692e4,4417.9494855,33.6378062,0.1087075,NaN,235.9021495,NaN,0.0924672,6.8135108e6,2306.4007,5.4492359,0.5196128,0.5196128,0.384432,0.0140693,0.1211115,NaN,NaN,NaN,NaN,NaN,NaN,NaN,NaN,0.0032763,16.129,204.3171233,90,0,0,5.9856695,857.5991088,334.9262157,0.01,0.0258376
0.48,7.1334849,31.7104507,74.08755,31.7104507,74.08755,0,0,0,0,0,0,43.5,-120,9.8005751,0,0,0,0,2.7495144e4,4406.4012988,33.6269856,0.1086975,NaN,235.862277,NaN,0.0946793,6.9762994e6,2312.2297,5.713607,0.5196819,0.5196819,0.384416,0.0141005,0.1211653,NaN,NaN,NaN,NaN,NaN,NaN,NaN,NaN,0.0033547,16.129,204.3171233,90,0,0,5.9836323,857.565772,334.9249812,0.01,0.0262107
0.49,7.4543047,32.4535654,74.3243233,32.4535654,74.3243233,0,0,0,0,0,0,43.5,-120,9.8005742,0,0,0,0,2.7483509e4,4394.7659478,33.6160745,0.1086875,NaN,235.8220695,NaN,0.0968984,7.139596e6,2318.0325167,5.9851571,0.5197528,0.5197528,0.3843997,0.0141325,0.1212206,NaN,NaN,NaN,NaN,NaN,NaN,NaN,NaN,0.0034333,16.129,204.3171233,90,0,0,5.981547,857.531646,334.9237175,0.01,0.0265552
0.5,7.7825675,33.1990386,74.5600806,33.1990386,74.5600806,0,0,0,0,0,0,43.5,-120,9.8005732,0,0,0,0,2.7471873e4,4383.1305967,33.6051545,0.1086775,NaN,235.7818281,NaN,0.0991246,7.3033982e6,2323.80915,6.2639474,0.5198254,0.5198254,0.3843829,0.0141652,0.1212773,NaN,NaN,NaN,NaN,NaN,NaN,NaN,NaN,0.0035121,16.129,204.3171233,90,0,0,5.9794133,857.4967282,334.9224245,0.01,0.0269272
0.51,8.1182969,33.9468694,74.7957716,33.9468694,74.7957716,0,0,0,0,0,0,43.5,-120,9.8005722,0,0,0,0,2.7460238e4,4371.4952456,33.5942256,0.1086674,NaN,235.7415525,NaN,0.1013578,7.4677056e6,2329.5857833,6.5500422,0.5199,0.5199,0.3843657,0.0141988,0.1213355,NaN,NaN,NaN,NaN,NaN,NaN,NaN,NaN,0.0035912,16.129,204.3171233,90,0,0,5.9772311,857.4610162,334.921102,0.01,0.0272738
0.52,8.4615162,34.6970488,75.0306804,34.6970488,75.0306804,0,0,0,0,0,0,43.5,-120,9.8005711,0,0,0,0,2.7448516e4,4359.7735277,33.5832066,0.1086573,NaN,235.7009434,NaN,0.1035981,7.6325158e6,2335.3355,6.8435031,0.5199763,0.5199763,0.384348,0.0142331,0.1213952,NaN,NaN,NaN,NaN,NaN,NaN,NaN,NaN,0.0036706,16.129,204.3171233,90,0,0,5.9750001,857.4245075,334.9197501,0.01,0.0276683
0.53,8.8122491,35.4495675,75.2645382,35.4495675,75.2645382,0,0,0,0,0,0,43.5,-120,9.8005701,0,0,0,0,2.7436795e4,4348.0518098,33.5721785,0.1086472,NaN,235.6602996,NaN,0.1058454,7.7978265e6,2341.0583,7.1443916,0.5200545,0.5200545,0.3843299,0.0142682,0.1214564,NaN,NaN,NaN,NaN,NaN,NaN,NaN,NaN,0.0037502,16.129,204.3171233,90,0,0,5.9727204,857.3871996,334.9183685,0.01,0.028087
0.54,9.1705189,36.2044249,75.4983227,36.2044249,75.4983227,0,0,0,0,0,0,43.5,-120,9.800569,0,0,0,0,2.7425073e4,4336.3300919,33.5611413,0.1086371,NaN,235.6196211,NaN,0.1080997,7.963637e6,2346.7811,7.4527728,0.5201346,0.5201346,0.3843113,0.0143042,0.1215191,NaN,NaN,NaN,NaN,NaN,NaN,NaN,NaN,0.0038301,16.129,204.3171233,90,0,0,5.9703916,857.34909,334.9169573,0.01,0.0285914
0.55,9.5363488,36.9616115,75.7312899,36.9616115,75.7312899,0,0,0,0,0,0,43.5,-120,9.8005679,0,0,0,0,2.7413266e4,4324.5228269,33.5500144,0.1086269,NaN,235.5786106,NaN,0.110361,8.129945e6,2352.47625,7.7687082,0.5202166,0.5202166,0.3842923,0.014341,0.1215833,NaN,NaN,NaN,NaN,NaN,NaN,NaN,NaN,0.0039102,16.129,204.3171233,90,0,0,5.9680137,857.3101761,334.9155163,0.01,0.0290201
0.56,9.9097623,37.7211177,75.9631709,37.7211177,75.9631709,0,0,0,0,0,0,43.5,-120,9.8005668,0,0,0,0,2.7401458e4,4312.7155619,33.5388783,0.1086167,NaN,235.5375647,NaN,0.1126293,8.296748e6,2358.14375,8.0922597,0.5203005,0.5203005,0.3842728,0.0143786,0.1216491,NaN,NaN,NaN,NaN,NaN,NaN,NaN,NaN,0.0039905,16.129,204.3171233,90,0,0,5.9655865,857.2704557,334.9140454,0.01,0.0294184
0.57,10.2907824,38.4829427,76.1949713,38.4829427,76.1949713,0,0,0,0,0,0,43.5,-120,9.8005656,0,0,0,0,2.7389651e4,4300.9082969,33.5277329,0.1086066,NaN,235.4964834,NaN,0.1149045,8.4640453e6,2363.81125,8.4234929,0.5203864,0.5203864,0.3842529,0.014417,0.1217164,NaN,NaN,NaN,NaN,NaN,NaN,NaN,NaN,0.0040711,16.129,204.3171233,90,0,0,5.9631099,857.229926,334.9125446,0.01,0.0298028
0.58,10.6794322,39.2470768,76.425919,39.2470768,76.425919,0,0,0,0,0,0,43.5,-120,9.8005644,0,0,0,0,2.7377759e4,4289.0163264,33.5164982,0.1085963,NaN,235.4550716,NaN,0.1171866,8.6318346e6,2369.4503667,8.7624698,0.5204741,0.5204741,0.3842326,0.0144563,0.1217853,NaN,NaN,NaN,NaN,NaN,NaN,NaN,NaN,0.004152,16.129,204.3171233,90,0,0,5.9605837,857.1885848,334.9110137,0.01,0.0301527
0.595,11.2767646,40.3974603,76.7193567,40.3974603,76.7193568,-4.721088e-7,0,4.721088e-7,-179.9999713,6.3282895e-5,0.004286,43.5,-120,9.8005633,8.9755937e-5,0,0,0,2.7359921e4,4271.1783707,33.4996285,0.1085809,286.8240136,235.3928864,3.1887363,0.1206227,8.8844357e6,2376.4637833,9.2855911,0.5206095,0.5206095,0.3842011,0.0145169,0.1218915,1.8881833e-5,-4.009441e-5,-4.0684451e-4,0,0,0,0,0,0.0042737,16.129,204.3171233,90,0,0,5.956701,857.1250455,334.9086608,0.015,0.0305802
0.6175,12.2052223,42.1326061,77.15803,42.1326061,77.1580301,-2.9905114e-6,0,2.9905114e-6,-179.9999286,1.6109483e-4,0.0044246,43.5,-120,9.8005614,2.1894592e-4,0,0,0,2.7333018e4,4244.2747133,33.4741452,0.1085577,286.8277853,235.2989435,3.1947946,0.1258055,9.2653629e6,2386.9443227,10.1036172,0.5208209,0.5208209,0.384152,0.0146114,0.1220575,4.606311e-5,-2.7628129e-4,2.3945577e-4,0,0,0,0,0,0.0044572,16.129,204.3171233,90,0,0,5.950666,857.0262836,334.9050036,0.0225,0.0309529
0.65125,13.6714605,44.7566854,77.8104626,44.7566854,77.8104627,-1.0993601e-5,0,1.0993601e-5,-179.9998652,3.1452606e-4,0.0046669,43.5,-120,9.8005586,4.0264277e-4,0,0,0,2.7292423e4,4203.6800612,33.4356021,0.1085227,286.8338818,235.1568435,3.2039828,0.1336442,9.8413066e6,2402.524232,11.407192,0.5211573,0.5211573,0.3840737,0.0147616,0.1223219,8.4721245e-5,1.8938559e-4,-4.9143806e-5,0,0,0,0,0,0.0047349,16.129,204.3171233,90,0,0,5.9411353,856.8703157,334.899228,0.03375,0.0313089
0.70125,16.00759,48.6908397,78.7695993,48.6908397,78.7695995,-3.2701813e-5,0,3.2701813e-5,-179.9997727,5.5674531e-4,0.00502,43.5,-120,9.800554,6.5513318e-4,0,0,0,2.7231699e4,4142.9564904,33.3777409,0.1084704,286.8438943,234.9434922,3.2178314,0.1453976,1.0704448e7,2425.4277436,13.5119591,0.5216993,0.5216993,0.3839475,0.0150035,0.1227483,1.3787694e-4,4.2393662e-4,4.2839469e-4,0,0,0,0,0,0.0051512,16.129,204.3171233,90,0,0,5.9259501,856.6218117,334.8900257,0.05,0.0316861
0.75125,18.5418772,52.6816216,79.8737314,52.6816216,79.8737316,-6.6959069e-5,0,6.6959069e-5,-179.999682,8.1641826e-4,0.0053647,43.5,-120,9.8005469,8.8793116e-4,0,0,0,2.7170329e4,4081.5863339,33.3190105,0.1084174,286.8550959,234.7269001,3.2319546,0.1573149,1.1579061e7,2452.3104615,15.8308033,0.5222954,0.5222954,0.3838087,0.0152694,0.1232172,1.8691284e-4,7.2326071e-4,-4.4004424e-4,0,0,0,0,0,0.0055732,16.129,204.3171233,90,0,0,5.9094776,856.3522435,334.8800434,0.05,0.0320537
0.80125,21.2770605,56.7266591,80.9572634,56.7266591,80.9572636,-1.1462707e-4,0,1.1462707e-4,-179.9995929,0.0010931,0.0056998,43.5,-120,9.8005391,0.0011041,0,1.5912889e-6,-4.7801456e-8,2.7108256e4,4019.5135359,33.2593472,0.1083639,286.86752,234.5068307,3.2463692,0.1693994,1.2465317e7,2478.6588333,18.3730576,0.5229479,0.5229479,0.3836568,0.0155606,0.1237305,2.3246741e-4,0.0010975,9.4641142e-5,0,0,0,0,0,0.0060011,16.129,204.3171233,90,0,0,5.891699,856.0612984,334.8692696,0.05,0.0324195
0.85125,24.215826,60.8248785,82.0190221,60.8248785,82.0190223,-1.7654339e-4,0,1.7654339e-4,-179.9995053,0.0013863,0.006024,43.5,-120,9.8005307,0.0013058,0,2.4702447e-6,-4.443819e-7,2.7045555e4,3956.8117383,33.1988115,0.1083098,286.8811921,234.2835057,3.2610631,0.181644,1.336263e7,2504.4568386,21.1461179,0.5236589,0.5236589,0.3834914,0.0158781,0.1242893,2.750237e-4,0.0013409,4.7017022e-6,0,0,0,0,0,0.0064347,16.129,204.3171233,90,0,0,5.872597,855.7486981,334.8576938,0.05,0.0327865
0.90125,27.3608041,64.9751275,83.0575437,64.9751276,83.0575439,-2.5351825e-4,0,2.5351825e-4,-179.9994194,0.0016964,0.0064683,43.5,-120,9.8005216,0.0014282,0,4.2937515e-6,-7.6101653e-7,2.6982246e4,3893.5032482,33.1374151,0.1082552,286.896411,234.0569667,3.2760521,0.1940452,1.4270689e7,2529.6773209,24.1581561,0.5244303,0.5244303,0.3833122,0.0162232,0.124895,3.0087335e-4,5.2623534e-4,-4.2981362e-4,0,0,0,0,0,0.0068737,16.129,204.3171233,89.9999317,-175.5820485,0,5.8521546,855.4141627,334.8453057,0.05,0.0331347
0.95125,30.7145663,69.1762108,84.0720893,69.1762108,84.0720896,-3.4655638e-4,-1.9356447e-8,3.4655638e-4,-179.9967998,0.0020292,0.0069686,43.5,-120,9.8005119,0.0015149,0,5.6693526e-6,1.2556205e-7,2.6918281e4,3829.5379407,33.0750992,0.1082001,286.9130389,233.8269953,3.2913413,0.2065997,1.5189172e7,2554.3064204,27.4173875,0.5252645,0.5252645,0.3831186,0.016597,0.1255488,3.1924593e-4,9.5222979e-4,4.7146498e-4,0,0,0,0,0,0.0073182,16.129,204.3171233,89.9998385,-178.2602489,0,5.8303552,855.0574186,334.8320952,0.05,0.0334971
1.00125,34.2796235,73.4268851,85.0614583,73.4268851,85.0614587,-4.5690057e-4,-6.4329499e-8,4.5690058e-4,-179.991933,0.0023893,0.0075326,43.5,-120,9.8005016,0.0015704,0,8.3391994e-6,4.0100995e-7,2.685373e4,3764.9870262,33.0119227,0.1081444,286.9310959,233.5938077,3.3069185,0.2193039,1.6117747e7,2578.3295037,30.9320632,0.5261636,0.5261636,0.3829105,0.0170009,0.1262522,3.3104889e-4,0.0012843,4.2478046e-4,0,0,0,0,5.7682194e-9,0.0077679,16.129,204.3171233,89.9997078,-178.8861563,0,5.8071823,854.6781988,334.8180525,0.05,0.0339579
1.05125,38.0584222,77.7258261,86.0241319,77.7258261,86.0241323,-5.8603781e-4,-1.4275444e-7,5.8603783e-4,-179.9860432,0.0027818,0.0082027,43.5,-120,9.8004907,0.0015745,0,1.0866929e-5,-7.9538231e-7,2.6788616e4,3699.8733591,32.9478981,0.1080883,286.9506992,233.3574487,3.3227882,0.2321538,1.7056059e7,2601.7194624,34.710434,0.5271297,0.5271297,0.3826872,0.0174361,0.1270064,3.320276e-4,0.0016013,1.4598741e-4,0,0,0,0,8.7415059e-9,0.0082226,16.129,204.3171233,89.9995321,-179.1459402,0,5.7826201,854.276243,334.8031678,0.05,0.0343379
1.10125,42.0533416,82.0716664,86.9593683,82.0716665,86.9593687,-7.3568063e-4,-2.5234699e-7,7.3568067e-4,-179.9803469,0.0032102,0.0089475,43.5,-120,9.800479,0.0015522,0,1.3716328e-5,4.1100615e-7,2.6722896e4,3634.1531041,32.8829721,0.1080316,286.9717848,233.1177198,3.3389587,0.2451456,1.8003744e7,2624.464098,38.7607752,0.5281652,0.5281652,0.3824487,0.017904,0.1278125,3.2744262e-4,9.0416943e-4,-3.223672e-4,0,0,0,0,1.2490865e-8,0.0086824,16.129,204.3171233,89.9993057,-179.2422861,0,5.7566532,853.8512983,334.7874318,0.05,0.0347088
1.15125,46.2666913,86.4629908,87.8659692,86.4629909,87.8659697,-9.0775551e-4,-4.1161115e-7,9.077556e-4,-179.9740199,0.0036804,0.0098791,43.5,-120,9.8004667,0.0014582,0,1.7743436e-5,-5.7850804e-8,2.6656637e4,3567.8945877,32.8172018,0.1079745,286.9945691,232.8748309,3.3554305,0.2582752,1.8960426e7,2646.5501393,43.0913785,0.5292722,0.5292722,0.3821943,0.018406,0.1286718,3.0773034e-4,7.9737865e-4,3.6453519e-4,0,0,0,0,1.8832944e-8,0.0091469,16.129,204.3171233,89.9990242,-179.5779584,0,5.7292664,853.4031187,334.7708354,0.05,0.0350855
1.20125,50.7007083,90.8983004,88.7423738,90.8983005,88.7423745,-0.0011046,-6.2392134e-7,0.0011046,-179.9676357,0.0042001,0.0109156,43.5,-120,9.8004538,0.0013371,0,1.9245827e-5,-1.0598679e-6,2.6589864e4,3501.1210763,32.7506006,0.1079169,287.0189076,232.6288295,3.3721916,0.2715382,1.992571e7,2667.9508711,47.7105062,0.530453,0.530453,0.381924,0.0189437,0.1295853,2.8229633e-4,7.9561768e-4,1.3018812e-5,0,0,0,0,2.0047716e-8,0.0096162,16.129,204.3171233,89.9986878,-179.3316023,0,5.7004453,852.9314666,334.7533698,0.05,0.0354292
1.25125,55.3575532,95.3760543,89.5878414,95.3760544,89.5878423,-0.0013287,-9.1730039e-7,0.0013287,-179.9604445,0.0047756,0.0120844,43.5,-120,9.8004401,0.0011829,0,2.1531165e-5,-1.7297631e-6,2.6522538e4,3433.7953437,32.6831211,0.1078588,287.044858,232.3795395,3.3892565,0.2849301,2.0899189e7,2688.6559062,52.6264253,0.5317099,0.5317099,0.3816372,0.0195185,0.1305541,2.4985581e-4,0.0012285,1.8958658e-5,0,0,0,0,2.2790802e-8,0.0100899,16.129,204.3171233,89.9983076,-178.9705665,0,5.6701758,852.4361119,334.7350265,0.05,0.0357662
1.30125,60.2393088,99.8946631,90.401184,99.8946632,90.401185,-0.0015832,-1.4098053e-6,0.0015832,-179.9489784,0.0054139,0.0134068,43.5,-120,9.8004258,9.9271042e-4,0,2.6594866e-5,-2.7003812e-6,2.6454725e4,3365.9823871,32.6148183,0.1078003,287.0724641,232.1271629,3.4066155,0.2984463,2.1880445e7,2708.6534364,57.8473958,0.5330451,0.5330451,0.3813339,0.0201322,0.1315791,2.097808e-4,7.2104994e-4,4.9979281e-4,0,0,0,0,3.1696719e-8,0.0105679,16.129,204.3171233,89.9978682,-178.4409137,0,5.6384444,851.9168332,334.7157973,0.05,0.0361065
1.35125,65.347976,104.4524531,91.1808164,104.4524533,91.1808176,-0.0018713,-2.2811952e-6,0.0018713,-179.9301551,0.0061251,0.0150014,43.5,-120,9.8004108,7.3207145e-4,0,2.8700547e-5,-4.4918195e-6,2.6386449e4,3297.7057396,32.5457062,0.1077415,287.1018946,231.8717499,3.4242758,0.3120819,2.2869039e7,2727.9175613,63.381618,0.5344612,0.5344612,0.3810135,0.0207863,0.1326614,1.5477879e-4,9.2974624e-4,-2.8434157e-4,0,0,0,0,3.376341e-8,0.0110501,16.129,204.3171233,89.9973665,-177.903967,0,5.6052381,851.3734176,334.6956743,0.05,0.0365128
1.40125,70.685471,109.0477088,91.9259951,109.047709,91.9259967,-0.0021971,-3.7630702e-6,0.0021971,-179.9018654,0.0069187,0.0167464,43.5,-120,9.8003951,4.5980051e-4,0,0,0,2.6317678e4,3228.9350607,32.4757443,0.1076822,287.1329439,231.6131492,3.4422342,0.325832,2.3864525e7,2746.4396303,69.2372737,0.5359603,0.5359603,0.3806761,0.0214826,0.1338016,9.7264489e-5,-1.5998653e-4,3.1480732e-4,0,0,0,0,0,0.0115362,16.129,204.3171233,89.9968093,-177.6815054,0,5.5705444,850.8056613,334.6746499,0.05,0.0368717
1.45125,76.2536233,113.6786667,92.63556,113.6786669,92.6355618,-0.0025647,-6.128907e-6,0.0025647,-179.8630796,0.0078028,0.0186518,43.5,-120,9.8003787,1.9867626e-4,0,0,0,2.6248474e4,3159.7315839,32.4049848,0.1076225,287.1655495,231.3515532,3.4604747,0.3396915,2.4866443e7,2764.2096134,75.4225136,0.5375451,0.5375451,0.3803212,0.0222232,0.1350007,4.2050434e-5,-2.9313801e-4,1.8845771e-4,0,0,0,0,0,0.0120261,16.129,204.3171233,89.9962215,-177.2963603,0,5.5343514,850.2133697,334.6527169,0.05,0.0373321
1.50125,82.0541717,118.3434785,93.3079061,118.3434789,93.3079084,-0.0029789,-9.7088757e-6,0.0029789,-179.813263,0.0087827,0.0205488,43.5,-120,9.8003616,2.3607575e-4,0,0,0,2.6178862e4,3090.11896,32.3334427,0.1075625,287.1985898,231.0870152,3.4789246,0.3536549,2.5874314e7,2781.20247,81.945396,0.5392178,0.5392178,0.3799487,0.0230098,0.1362593,4.9995827e-5,-2.3617988e-4,-2.976164e-5,0,0,0,0,0,0.0125196,16.129,204.3171233,89.9956107,-177.0003965,0,5.4966478,849.5963579,334.6298686,0.05,0.0378311
1.55125,88.0887619,123.0402552,93.9423034,123.0402556,93.9423061,-0.0034446,-1.4931826e-5,0.0034447,-179.7516355,0.0098633,0.0226032,43.5,-120,9.8003437,4.731262e-4,0,-3.0039067e-5,-1.6107614e-5,2.6108817e4,3020.0739591,32.2610843,0.1075021,287.2324861,230.8194103,3.4976177,0.3677168,2.688765e7,2797.4116903,88.8139372,0.5409812,0.5409812,0.3795584,0.0238448,0.137578,1.0026144e-4,5.6784769e-4,4.6538088e-4,0,0,0,0,-2.6655184e-8,0.0130165,16.129,204.3171233,89.9949968,-176.5999592,0,5.457423,848.9544507,334.6060984,0.05,0.038283
1.60125,94.3589438,127.7670604,94.5376247,127.7670609,94.5376279,-0.0039669,-2.2301607e-5,0.003967,-179.6778912,0.0110456,0.0246005,43.5,-120,9.8003251,6.8578647e-4,0,-3.1043864e-5,-9.9635162e-6,2.6038396e4,2949.6536349,32.1879593,0.1074413,287.2681575,230.5489201,3.5165998,0.3818714,2.7905951e7,2812.8289898,96.0360981,0.5428376,0.5428376,0.3791501,0.0247302,0.1389574,1.45423e-4,4.6949235e-4,-4.5518274e-4,0,0,0,0,-2.6400794e-8,0.0135165,16.129,204.3171233,89.9943974,-176.365122,0,5.4166669,848.2874833,334.5814001,0.05,0.0386436
1.65125,100.8661684,132.5218731,95.0922602,132.5218737,95.0922639,-0.0045507,-3.2307455e-5,0.0045509,-179.5932424,0.0123257,0.0264008,43.5,-120.0000001,9.8003059,8.3249279e-4,0,-2.8934511e-5,-9.8687821e-6,2.5967624e4,2878.8815993,32.1140831,0.1073803,287.3057917,230.2756009,3.5358789,0.396113,2.8928701e7,2827.430463,103.619715,0.5447899,0.5447899,0.3787238,0.0256684,0.1403977,1.7665425e-4,9.6629313e-4,2.8933817e-4,0,0,0,0,-2.1318685e-8,0.0140196,16.129,204.3171233,89.9938562,-176.1065552,0,5.3743699,847.5953013,334.5557682,0.05,0.0390427
1.70125,107.6117847,137.302633,95.6054957,137.3026337,95.6054998,-0.0052008,-4.5468888e-5,0.005201,-179.4990932,0.0136942,0.0281196,43.5,-120.0000001,9.8002858,9.2588514e-4,0,-2.3551702e-5,-3.490582e-6,2.5896485e4,2807.7419102,32.03943,0.107319,287.3453579,229.9993563,3.5554592,0.4104355,2.9955372e7,2841.2117614,111.5725617,0.5468408,0.5468408,0.3782794,0.026662,0.1418994,1.9661322e-4,2.0558021e-4,4.1896856e-4,0,0,0,0,-1.3158007e-8,0.0145253,16.129,204.3171233,89.9933929,-175.9219328,0,5.3305234,846.8777614,334.5291972,0.05,0.0394593
1.75125,114.5970375,142.1072338,96.0762552,142.1072346,96.0762597,-0.0059212,-6.2182576e-5,0.0059215,-179.3983159,0.0151382,0.0293774,43.5,-120.0000001,9.8002651,9.012053e-4,0,-1.9253909e-5,-1.0862908e-5,2.582503e4,2736.2870445,31.964046,0.1072573,287.3871322,229.7203558,3.5753473,0.4248327,3.0985427e7,2854.1666208,119.9023367,0.5489931,0.5489931,0.3778167,0.0277137,0.1434628,1.9151504e-4,8.3060613e-4,2.9271688e-4,0,0,0,0,-8.2093488e-9,0.0150336,16.129,204.3171233,89.9930034,-176.0113423,0,5.2851193,846.1347309,334.5016823,0.05,0.040519
1.80125,121.8230643,146.933485,96.5028783,146.9334859,96.5028831,-0.0067152,-8.2628747e-5,0.0067158,-179.2950307,0.0166422,0.0303858,43.5,-120.0000001,9.8002436,7.854815e-4,0,-1.5347928e-5,-5.3108967e-6,2.5753283e4,2664.5404154,31.8879475,0.1071955,287.4310218,229.4386583,3.5955337,0.4392983,3.2018667e7,2866.2724081,128.6180175,0.5512499,0.5512499,0.3773357,0.0288264,0.1450878,1.6705169e-4,5.309571e-4,1.3854112e-5,0,0,0,0,0,0.0155442,16.129,204.3171233,89.9927238,-176.4041988,0,5.2381501,845.3754879,334.473219,0.05,0.041688
1.85125,129.2908917,151.7791505,96.8845318,151.7791516,96.8845367,-0.0075855,-1.0653254e-4,0.0075863,-179.1953806,0.0181862,0.0310452,43.5,-120.0000001,9.8002214,6.0735119e-4,0,-6.7173588e-6,-1.1098654e-5,2.5681236e4,2592.4934936,31.8111169,0.1071333,287.4769252,229.1541979,3.6160163,0.4538257,3.3055334e7,2877.5269184,137.7305816,0.5536141,0.5536141,0.3768365,0.0300031,0.1467745,1.2927168e-4,2.5530284e-4,4.2587865e-4,0,0,0,0,0,0.0160568,16.129,204.3171233,89.9925447,-176.8794005,0,5.1896093,844.619626,334.4438032,0.05,0.0422606
1.90125,137.0014337,156.6419533,97.2203503,156.6419546,97.2203554,-0.0085336,-1.3345152e-4,0.0085346,-179.1040612,0.0197541,0.0314321,43.5,-120.0000001,9.8001984,3.5082514e-4,0,0,0,2.5608937e4,2520.1938133,31.7335966,0.107071,287.5249167,228.8671305,3.63679,0.4684082,3.4093841e7,2887.925984,147.2435586,0.5560891,0.5560891,0.376319,0.0312472,0.1485228,7.4733536e-5,-5.8529308e-5,3.43237e-5,0,0,0,0,0,0.0165713,16.129,204.3171233,89.9924302,-177.6203351,0,5.1394908,843.8391976,334.4134314,0.05,0.0426925
1.95125,144.9554883,161.5195371,97.508752,161.5195385,97.5087571,-0.0095603,-1.6244782e-4,0.0095617,-179.0265318,0.0213338,0.0317956,43.5,-120.0000001,9.8001747,1.3288734e-4,0,0,0,2.5536407e4,2447.6644234,31.6554035,0.1070085,287.5745377,228.5775179,3.6578225,0.4830389,3.5133602e7,2897.4486955,157.1642725,0.5586783,0.5586783,0.3757834,0.0325624,0.1503325,2.8332485e-5,-2.155519e-4,1.39563e-4,0,0,0,0,0,0.0170873,16.129,204.3171233,89.9923441,-178.5311184,0,5.0877894,843.0341218,334.3821004,0.05,0.0430977
2.00125,153.153735,166.4095093,97.7490593,166.4095109,97.7490645,-0.0106662,-1.9221927e-4,0.010668,-178.9675678,0.0229197,0.0318705,43.5,-120.0000001,9.8001502,1.9234935e-4,0,0,0,2.5463647e4,2374.9042725,31.5765287,0.1069457,287.6248424,228.285326,3.6790574,0.4977109,3.6174025e7,2906.0950665,167.4999858,0.5613854,0.5613854,0.3752298,0.0339525,0.1522031,4.1047565e-5,-1.4454084e-4,-2.8422845e-4,0,0,0,0,0,0.0176046,16.129,204.3171233,89.9922505,-179.7195498,0,5.0345009,842.20433,334.3498075,0.05,0.0434996
2.05125,161.5967323,171.3094351,97.9403169,171.3094368,97.9403222,-0.0118517,-2.2116174e-4,0.0118537,-178.9309394,0.0245138,0.0320683,43.5,-120.0000001,9.800125,4.8618867e-4,0,-2.458365e-6,5.6802783e-6,2.5390698e4,2301.9556145,31.4970106,0.1068828,287.6715544,227.990696,3.7002206,0.512417,3.7214512e7,2913.8629294,178.2578986,0.5642142,0.5642142,0.3746582,0.0354217,0.1541342,1.0385222e-4,2.8317564e-4,-1.7880284e-4,0,0,0,0,0,0.0181229,16.129,204.3171233,89.9921583,179.045645,0,4.9796214,841.3497655,334.3165506,0.05,0.0439449
2.10125,170.2849152,176.2167994,98.0809755,176.2168013,98.0809809,-0.0131171,-2.4739162e-4,0.0131194,-178.9195126,0.0261153,0.03239,43.5,-120.0000002,9.8000991,6.6935799e-4,0,1.4612158e-6,9.394064e-6,2.5317584e4,2228.840974,31.4168667,0.1068198,287.7103602,227.693692,3.7210409,0.5271497,3.8254445e7,2920.7331752,189.4450753,0.567169,0.567169,0.3740689,0.0369748,0.1561253,1.4311858e-4,2.2868951e-4,-4.2510061e-4,0,0,0,0,0,0.0186421,16.129,204.3171233,89.9920224,178.1229127,0,4.9231482,840.4703844,334.2823278,0.05,0.0443032
2.15125,179.2185921,181.1290535,98.1703834,181.1290556,98.1703889,-0.0144631,-2.6936041e-4,0.0144656,-178.933049,0.0277377,0.032736,43.5,-120.0000002,9.8000723,7.922035e-4,0,1.1518967e-5,1.6157725e-5,2.524431e4,2155.5667926,31.3360972,0.1067566,287.7414281,227.3943139,3.7415286,0.5419017,3.9293203e7,2926.708131,201.0685667,0.5702542,0.5702542,0.3734621,0.0386166,0.1581755,1.6955641e-4,8.1506773e-4,-1.4887882e-5,0,0,0,0,0,0.0191617,16.129,204.3171233,89.9917975,177.3324476,0,4.8650793,839.5661555,334.2471381,0.05,0.0446855
2.20125,188.3979428,186.0436082,98.2076622,186.0436105,98.2076681,-0.0158914,-2.858146e-4,0.015894,-178.9696208,0.0294092,0.0341494,43.5,-120.0000002,9.8000449,6.6602882e-4,0,1.2972913e-5,8.2680073e-6,2.5170913e4,2082.1697361,31.254736,0.1066933,287.7664333,227.0926863,3.7617798,0.5566653,4.0330155e7,2931.7879246,213.1354273,0.5734748,0.5734748,0.3728381,0.0403528,0.1602839,1.4269877e-4,5.1460569e-4,1.643856e-4,0,0,0,0,0,0.0196816,16.129,204.3171233,89.9914754,177.2595347,0,4.8054136,838.6370604,334.2109806,0.05,0.0450236
2.25125,197.8230159,190.9577967,98.1912888,190.9577993,98.1912952,-0.0174049,-2.9673709e-4,0.0174074,-179.0232558,0.0311432,0.0355472,43.5,-120.0000002,9.8000166,5.9851542e-4,0,2.4718103e-5,1.1724214e-5,2.5097414e4,2008.6716452,31.1728011,0.1066299,287.7850643,226.7888756,3.7817713,0.5714326,4.1364657e7,2935.9551548,225.652658,0.5768361,0.5768361,0.3721971,0.0421894,0.1624496,1.2837125e-4,5.1564737e-4,-2.8333504e-4,0,0,0,0,7.4930505e-9,0.0202015,16.129,204.3171233,89.9911028,177.9561703,0,4.7441506,837.6830945,334.1738553,0.05,0.0453932
2.30125,207.4937256,195.8689206,98.1206395,195.8689233,98.1206465,-0.0190072,-3.0314348e-4,0.0190096,-179.0862729,0.0329626,0.0371904,43.5,-120.0000002,9.7999876,3.9176676e-4,0,3.4825754e-5,4.7718599e-6,2.5023829e4,1935.0864096,31.0903022,0.1065664,287.7990025,226.4829169,3.8016049,0.5861958,4.2396059e7,2939.214659,238.6273689,0.580344,0.580344,0.3715396,0.0441331,0.1646713,8.4119552e-5,2.1118358e-4,3.3146062e-4,0,0,0,0,1.4137518e-8,0.020721,16.129,204.3171233,89.9906239,179.0864303,0,4.6812911,836.7042662,334.1357624,0.05,0.0457236
2.35125,217.4098504,200.7742426,97.9948965,200.7742457,97.9949045,-0.020703,-3.0727979e-4,0.0207053,-179.1496626,0.0348897,0.0396921,43.5,-120.0000003,9.7999579,5.2865069e-5,0,0,0,2.4950188e4,1861.4448436,31.0072683,0.1065029,287.809092,226.1749172,3.8213265,0.6009467,4.3423704e7,2941.5686274,252.066831,0.5840049,0.5840049,0.3708658,0.0461913,0.1669478,1.1363887e-5,4.5919636e-4,-1.2973255e-4,0,0,0,0,0,0.02124,16.129,204.3171233,89.9900776,-179.4657926,0,4.6168363,835.700598,334.0967028,0.05,0.0460526
2.40125,227.5710302,205.6709506,97.8125704,205.6709539,97.8125797,-0.0224984,-3.1229872e-4,0.0225005,-179.2047317,0.0369484,0.042564,43.5,-120.0000003,9.7999274,3.9289732e-4,0,-3.0541826e-5,-1.81368e-5,2.4876511e4,1787.7679426,30.9237181,0.1064394,287.8129691,225.8649448,3.8407852,0.615677,4.4446923e7,2943.0018719,265.9784558,0.5878261,0.5878261,0.3701763,0.0483722,0.1692776,8.4557537e-5,2.9770468e-4,4.8038866e-4,0,0,0,0,-9.8615971e-9,0.021758,16.129,204.3171233,89.9894497,-178.3012877,0,4.5507886,834.6721264,334.0566779,0.05,0.0463868
2.45125,237.9767633,210.5562014,97.5730323,210.556205,97.5730429,-0.0244001,-3.2153644e-4,0.0244023,-179.2450199,0.0391454,0.0453757,43.5,-120.0000003,9.7998961,6.7064613e-4,0,-3.0944513e-5,-6.0617908e-6,2.480282e4,1714.076949,30.8396709,0.1063759,287.814393,225.5530711,3.8602097,0.6303784,4.5465042e7,2943.5213758,280.3700219,0.5918155,0.5918155,0.3694714,0.0506851,0.171659,1.445089e-4,1.2428568e-4,-4.7867925e-4,0,0,0,0,-9.6590491e-9,0.0222748,16.129,204.3171233,89.9888472,-177.2492398,0,4.4831514,833.6189022,334.0156897,0.05,0.0467177
2.50125,248.6264049,215.4271143,97.2755084,215.4271183,97.2755197,-0.0264147,-3.380214e-4,0.0264168,-179.2668419,0.0414522,0.0467901,43.5,-120.0000003,9.7998641,7.3530236e-4,0,-2.3719654e-5,-3.7851481e-6,2.4729139e4,1640.3966001,30.7551506,0.1063123,287.8147449,225.2393841,3.8796801,0.6450423,4.647738e7,2943.1315693,295.2497929,0.5959823,0.5959823,0.3687518,0.0531401,0.1740903,1.5863716e-4,0.0011006,3.3885568e-4,0,0,0,0,-5.4214955e-9,0.0227901,16.129,204.3171233,89.9883907,-176.4768258,0,4.4139287,832.5409905,333.9737408,0.05,0.047046
2.55125,259.5191645,220.2807344,96.9185108,220.2807388,96.9185224,-0.028546,-3.6376079e-4,0.0285483,-179.269921,0.0438099,0.0474229,43.5,-120.0000004,9.7998314,6.7010463e-4,0,-2.0502275e-6,-1.4002615e-5,2.465549e4,1566.7468935,30.6701761,0.1062488,287.814444,224.9239539,3.8992182,0.65966,4.7483245e7,2941.8195173,310.626573,0.6003365,0.6003365,0.368018,0.0557488,0.1765697,1.4475398e-4,9.3038946e-4,1.7205664e-4,0,0,0,0,0,0.0233036,16.129,204.3171233,89.9881667,-176.7940441,0,4.3431258,831.4384716,333.9308343,0.05,0.0473747
2.60125,270.6541028,225.1140756,96.5013646,225.1140803,96.501376,-0.0307952,-3.9798524e-4,0.0307978,-179.2595731,0.0461671,0.0469904,43.5,-120.0000004,9.7997979,3.4289616e-4,0,8.3416116e-6,-7.5589252e-6,2.4581899e4,1493.1562706,30.5847769,0.1061854,287.81472,224.6068889,3.9188934,0.6742226,4.848194e7,2939.5944389,326.5100447,0.6048897,0.6048897,0.3672706,0.0585242,0.1790949,7.4166529e-5,8.8512448e-5,-2.7173646e-4,0,0,0,0,0,0.023815,16.129,204.3171233,89.9880506,-177.8639627,0,4.2707488,830.3114403,333.8869738,0.05,0.0477515
2.65125,282.0301306,229.9241115,96.0232762,229.9241166,96.0232869,-0.0331615,-4.373789e-4,0.0331644,-179.2443498,0.0484858,0.0453634,43.5,-120.0000004,9.7997636,1.91989e-4,0,0,0,2.4508386e4,1419.6432103,30.4989712,0.106122,287.8145141,224.288257,3.9386358,0.6887212,4.9472765e7,2936.4628529,342.9110134,0.6096552,0.6096552,0.3665103,0.0614811,0.1816638,4.1581032e-5,8.3600055e-6,2.1128466e-4,0,0,0,0,0,0.0243238,16.129,204.3171233,89.9880477,-179.1080213,0,4.1968046,829.160007,333.8421636,0.05,0.0480691
2.70125,293.6460051,234.7077405,95.4826895,234.7077459,95.4826997,-0.035642,-4.7751057e-4,0.0356452,-179.2324316,0.0507349,0.0441986,43.5,-120.0000004,9.7997286,5.3341998e-4,0,5.7374887e-6,1.2250509e-5,2.4434969e4,1346.2265676,30.4127784,0.1060586,287.8132126,223.9681296,3.9584031,0.7031466,5.0455004e7,2932.4141909,359.8416132,0.6146479,0.6146479,0.3657378,0.0646362,0.184274,1.1568665e-4,5.7425442e-4,-1.6206957e-4,0,0,0,0,0,0.0248299,16.129,204.3171233,89.9880467,179.8244804,0,4.1213015,827.9842974,333.7964087,0.05,0.0483899
2.75125,305.5003278,239.4618235,94.8787815,239.4618294,94.8787925,-0.0382339,-5.1472092e-4,0.0382374,-179.2287066,0.0529608,0.0458452,43.5,-120.0000005,9.7996929,5.1671295e-4,0,4.9170551e-6,2.5889249e-5,2.4361685e4,1272.9417803,30.3262379,0.1059955,287.8147379,223.6466528,3.9784292,0.7174895,5.1427939e7,2927.4597458,377.3158541,0.6198854,0.6198854,0.3649538,0.0680088,0.1869228,1.1221842e-4,7.1489696e-4,1.2804582e-4,0,0,0,0,0,0.0253328,16.129,204.3171233,89.987819,179.1059213,0,4.0442484,826.7844531,333.7497145,0.05,0.0487637
2.80125,317.5915419,244.1831751,94.2106253,244.1831813,94.2106375,-0.0409386,-5.4638287e-4,0.0409423,-179.2353537,0.0552604,0.0478279,43.5,-120.0000005,9.7996565,3.8009519e-4,0,6.6321763e-6,2.8134427e-5,2.4288544e4,1199.8009305,30.2393623,0.1059324,287.8186811,223.3238732,3.9986861,0.7317403,5.2390848e7,2921.6083189,395.350122,0.6253879,0.6253879,0.3641591,0.0716211,0.1896077,8.2664235e-5,3.8709957e-4,-4.9680244e-4,0,0,0,0,0,0.0258323,16.129,204.3171233,89.98731,178.7134478,0,3.9656556,825.5606317,333.7020873,0.05,0.0491037
2.85125,329.9179294,248.8685249,93.4764351,248.8685315,93.4764488,-0.0437619,-5.7135789e-4,0.0437657,-179.2519859,0.0577043,0.0507448,43.5,-120.0000005,9.7996193,4.4797008e-4,0,4.384242e-6,5.0321373e-5,2.4215564e4,1126.8215941,30.1521711,0.1058694,287.8242514,222.999863,4.0191201,0.7458894,5.334299e7,2914.8515721,413.9637016,0.6311791,0.6311791,0.3633547,0.0754988,0.1923256,9.7566278e-5,7.1870374e-4,-2.0827695e-5,0,0,0,0,0,0.0263279,16.129,204.3171233,89.9866294,178.8618841,0,3.8855341,824.313007,333.6535336,0.05,0.0494267
2.90125,342.4776075,253.5145513,92.6750435,253.5145585,92.675059,-0.0467124,-5.9004365e-4,0.0467161,-179.2763114,0.0603394,0.0536161,43.5,-120.0000006,9.7995814,3.4974616e-4,0,-3.2186507e-5,3.1818984e-5,2.4142789e4,1054.0459499,30.0647139,0.1058067,287.8333287,222.6748064,4.0398365,0.7599268,5.4283623e7,2907.2029089,433.1797548,0.6372868,0.6372868,0.3625414,0.0796719,0.1950735,7.6284618e-5,-1.2288334e-4,-1.255782e-5,0,0,0,0,-7.2085007e-9,0.0268194,16.129,204.3171233,89.9859245,179.7374008,0,3.8038962,823.0417697,333.6040611,0.05,0.0497893
2.95125,355.2685256,258.1178675,91.8051228,258.1178752,91.8051404,-0.0497989,-6.0622685e-4,0.0498026,-179.3025439,0.063141,0.056868,43.5,-120.0000006,9.7995427,5.7715035e-4,0,-3.4446388e-5,1.7543102e-5,2.4070222e4,981.4795951,29.9769971,0.1057441,287.8443684,222.3487275,4.0607379,0.7738424,5.5211994e7,2898.6732123,453.0263715,0.643744,0.643744,0.3617202,0.0841756,0.1978482,1.2607306e-4,4.2758721e-4,-3.8924633e-4,0,0,0,0,-7.964422e-9,0.0273064,16.129,204.3171233,89.9853435,-179.4263555,0,3.7207553,821.7471272,333.5536777,0.05,0.0501148
3.00125,368.2884612,262.6749782,90.8643284,262.6749866,90.8643471,-0.0530282,-6.241395e-4,0.0530318,-179.3256619,0.0660413,0.0583559,43.5,-120.0000007,9.7995034,6.5050213e-4,0,-1.1511975e-5,6.9213781e-6,2.3997882e4,909.1387001,29.8890403,0.1056817,287.8595678,222.0216989,4.081956,0.7876258,5.612733e7,2889.2564657,473.5378124,0.6505899,0.6505899,0.3608921,0.0890517,0.2006461,1.4231091e-4,2.9007893e-4,-2.3200339e-4,0,0,0,0,0,0.0277885,16.129,204.3171233,89.9849744,-178.7230629,0,3.6361257,820.4293046,333.5023922,0.05,0.0504716
3.05125,381.5350152,267.1823039,89.8507132,267.1823128,89.8507311,-0.0564027,-6.4718737e-4,0.0564064,-179.3425934,0.0689298,0.0567775,43.5,-120.0000007,9.7994634,3.9121004e-4,0,-1.856085e-5,1.2681923e-5,2.3925815e4,837.0718834,29.8009032,0.1056196,287.879889,221.693943,4.1035369,0.8012663,5.7028848e7,2878.968063,494.7564796,0.6578719,0.6578719,0.3600582,0.0943501,0.2034636,8.5715338e-5,3.7397373e-4,1.3350894e-4,0,0,0,0,0,0.0282654,16.129,204.3171233,89.9848374,-178.3969999,0,3.5500232,819.0885447,333.4502141,0.05,0.0508145
3.10125,395.0056064,271.6361554,88.7619729,271.6361649,88.7619899,-0.0599192,-6.7674553e-4,0.0599231,-179.3529121,0.0717211,0.055028,43.5,-120.0000007,9.7994226,1.7360181e-4,0,0,0,2.3854021e4,765.2782182,29.7125861,0.1055577,287.9040876,221.3654601,4.1254032,0.8147529,5.7915748e7,2867.8208057,516.7352991,0.6656474,0.6656474,0.3592196,0.1001309,0.2062969,3.8095242e-5,-8.5846965e-5,-1.7402614e-4,0,0,0,0,0,0.0287365,16.129,204.3171233,89.9848954,-178.4704498,0,3.4624644,817.7251087,333.3971534,0.05,0.0511837
3.15125,408.6974656,276.0326795,87.5944568,276.0326895,87.5944728,-0.0635721,-7.1246201e-4,0.0635761,-179.3579043,0.0743872,0.0529079,43.5,-120.0000008,9.7993812,2.8322517e-4,0,2.1530815e-5,1.3659464e-5,2.3782515e4,693.772354,29.6241081,0.105496,287.9312169,221.0363228,4.1474917,0.8280739,5.8787199e7,2855.8111141,539.5408008,0.6739868,0.6739868,0.3583776,0.1064674,0.2091418,6.2248567e-5,4.6116522e-4,1.5206545e-4,0,0,0,0,0,0.0292017,16.129,204.3171233,89.9848481,-178.9232609,0,3.3734674,816.339277,333.3432212,0.05,0.0515273
3.20125,422.5966249,279.9282209,77.5699916,279.9282315,77.5700077,-0.067354,-7.512249e-4,0.0673582,-179.360985,0.0768955,0.0499838,43.5,-120.0000008,9.7993391,4.0993228e-4,0,2.0374941e-5,2.4023275e-5,2.3718772e4,630.0291231,29.5447985,0.105441,287.9591749,220.7412433,4.1675201,0.8398988,5.9548916e7,2633.0141,560.7210054,0.6820372,0.6820372,0.3576187,0.1127126,0.2117059,9.0225192e-5,5.584972e-4,-6.0000814e-5,0,0,0,0,0,0.0296138,16.129,204.3171233,89.9846172,-179.9497601,0,3.2831228,814.9324617,333.2884724,0.05,0.0519185
3.25125,436.6287439,281.3544023,28.3934663,281.3544133,28.3934921,-0.0712454,-7.8764994e-4,0.0712497,-179.366595,0.0787731,0.0382903,43.5,-120.0000009,9.7992963,5.0319799e-4,0,3.0007417e-5,1.7079198e-5,2.3679733e4,590.9905511,29.4960216,0.1054074,287.9704507,220.559742,4.1794723,0.8443171,5.9783183e7,1472.6843296,568.2900687,0.6852237,0.6852238,0.3573324,0.115218,0.2126733,1.1081272e-4,6.2528188e-4,2.4814342e-4,0,0,0,0,5.0868969e-9,0.0297646,16.129,204.3171233,89.9842226,179.4085876,0,3.1919135,813.5121816,333.2331996,0.05,0.052249
3.30125,450.7296177,282.6785052,26.3590594,282.6785167,26.3590911,-0.0752322,-8.1803433e-4,0.0752366,-179.3770209,0.0807286,0.0408477,43.5,-120.0000009,9.7992532,2.4091247e-4,0,6.6501467e-6,3.0116942e-5,2.3643919e4,555.1765678,29.4511361,0.1053765,287.9828119,220.3927055,4.190595,0.8484319,5.9994706e7,1430.3205992,575.3965329,0.6882878,0.6882878,0.3570644,0.1176447,0.2135788,5.3079186e-5,1.8250503e-4,4.8384809e-4,0,0,0,0,0,0.0299047,16.129,204.3171233,89.9836053,179.6898689,0,3.1002578,812.0849502,333.1776562,0.05,0.0526157
3.35125,464.8960224,283.9756346,25.819549,283.9756467,25.8195841,-0.0793201,-8.4426871e-4,0.0793246,-179.3901772,0.0828103,0.0425969,43.5,-120.000001,9.7992098,2.732169e-4,0,-4.1397946e-5,-9.9455204e-6,2.3608291e4,519.5478713,29.4063515,0.1053458,287.9942977,220.2260304,4.201641,0.8524679,6.0199446e7,1423.3682252,582.4703678,0.6913896,0.6913896,0.3568003,0.1201181,0.2144712,6.0226736e-5,1.7998073e-4,2.1764713e-4,0,0,0,0,-9.5038308e-9,0.0300419,16.129,204.3171233,89.9829858,-179.6965821,0,3.0081762,810.6510861,333.1218548,0.05,0.0529432
3.40125,479.1265932,285.2451545,25.267437,285.2451672,25.2674755,-0.0835153,-8.7070295e-4,0.0835198,-179.4026746,0.0850096,0.044096,43.5,-120.000001,9.7991663,4.3108637e-4,0,-3.5460407e-5,-1.3653042e-5,2.3572839e4,484.096329,29.3616589,0.1053152,288.0055368,220.0596839,4.2126513,0.8564229,6.0397278e7,1416.1251483,589.5058987,0.6945277,0.6945277,0.3565402,0.1226376,0.2153498,9.5074089e-5,1.3071338e-4,2.2799048e-4,0,0,0,0,-6.9112111e-9,0.0301762,16.129,204.3171233,89.9823973,-179.1780007,0,2.9156775,809.2107274,333.0658006,0.05,0.0532628
3.45125,493.419934,286.4864379,24.7029009,286.4864512,24.7029424,-0.0878225,-9.0009852e-4,0.0878271,-179.4127925,0.0872862,0.045251,43.5,-120.0000011,9.7991225,5.3246393e-4,0,-1.2163984e-5,-3.5052323e-6,2.3537568e4,448.8255798,29.3170645,0.1052848,288.0172062,219.8936885,4.2236665,0.8602952,6.0588091e7,1408.5908993,596.4973096,0.6977009,0.6977009,0.3562845,0.1252024,0.216214,1.1748979e-4,6.1671326e-4,-4.3833773e-4,0,0,0,0,0,0.0303075,16.129,204.3171233,89.9819905,-179.1450809,0,2.8227708,807.7640154,333.0094991,0.05,0.0537508
3.50125,507.7746179,287.6988811,24.1263949,287.698895,24.1264344,-0.0922427,-9.3284557e-4,0.0922474,-179.4205906,0.0895109,0.0436488,43.5,-120.0000011,9.7990785,3.2583631e-4,0,-9.4574376e-6,-2.6031398e-6,2.3502506e4,413.7632209,29.2726046,0.1052546,288.0302493,219.72818,4.2347368,0.8640828,6.0771779e7,1400.7721073,603.4386253,0.7009075,0.7009075,0.3560332,0.1278112,0.2170631,7.1930447e-5,6.1319822e-4,-3.5495884e-4,0,0,0,0,0,0.0304358,16.129,204.3171233,89.9818876,-179.0975166,0,2.7294653,806.3110945,332.952956,0.05,0.0541024
3.55125,522.1891882,288.8819021,23.5383898,288.8819166,23.538424,-0.0967707,-9.6894473e-4,0.0967755,-179.4263285,0.0915871,0.0400977,43.5,-120.0000012,9.7990344,1.5531408e-4,0,0,0,2.3467642e4,378.8988678,29.2282677,0.1052245,288.0433048,219.5631159,4.2457802,0.8677839,6.0948242e7,1392.6741645,610.3236332,0.7041456,0.7041456,0.3557866,0.1304627,0.2178964,3.4302411e-5,-2.1795144e-5,-2.6864062e-4,0,0,0,0,0,0.030561,16.129,204.3171233,89.9819576,-179.0054774,0,2.6357706,804.8521121,332.896177,0.05,0.0544628
3.60125,536.6621596,290.0349313,22.9391277,290.0349463,22.9391558,-0.1013987,-0.0010081,0.1014037,-179.4303868,0.0935062,0.0359209,43.5,-120.0000013,9.7989901,6.0505331e-4,0,-5.3082216e-6,-1.947656e-6,2.3432978e4,344.2355738,29.1840593,0.1051946,288.054084,219.3985166,4.2566537,0.8713968,6.1117383e7,1384.2971722,617.1457958,0.7074131,0.7074131,0.3555448,0.1331551,0.2187132,1.3369506e-4,6.1238148e-4,2.1911645e-4,0,0,0,0,0,0.030683,16.129,204.3171233,89.9820507,-179.3988125,0,2.5416963,803.3872186,332.839168,0.05,0.0551203
3.65125,551.1920187,291.1574249,22.3291135,291.1574405,22.3291414,-0.1061189,-0.0010483,0.1061241,-179.433994,0.0952998,0.0353022,43.5,-120.0000013,9.7989456,6.8051919e-4,0,2.0634556e-5,-3.9331308e-6,2.3398546e4,309.8028149,29.1400189,0.1051649,288.0664007,219.2345293,4.2675846,0.8749197,6.1279113e7,1375.6479247,623.8983074,0.7107076,0.7107076,0.3553081,0.1358865,0.219513,1.504387e-4,2.2982634e-4,-3.7319617e-4,0,0,0,0,0,0.0308017,16.129,204.3171233,89.9818606,-179.451117,0,2.4472522,801.9165671,332.7819348,0.05,0.0558433
3.70125,565.7772257,292.2488639,21.7088855,292.2488801,21.7089201,-0.1109294,-0.0010893,0.1109348,-179.4374027,0.097152,0.0387617,43.5,-120.0000014,9.7989009,3.3399686e-4,0,4.0551943e-5,1.0667422e-5,2.3364331e4,275.5880072,29.0961322,0.1051354,288.0804057,219.0711012,4.2785854,0.8783511,6.1433348e7,1366.7321927,630.5740662,0.7140262,0.7140262,0.3550766,0.1386545,0.2202951,7.3866524e-5,-1.6476777e-4,2.5909716e-4,0,0,0,0,8.6103526e-9,0.0309172,16.129,204.3171233,89.9812357,-179.4449784,0,2.3524484,800.4403136,332.7244837,0.05,0.0563146
3.75125,580.4161956,293.3079521,21.0627547,293.3079689,21.0627958,-0.1158374,-0.0011307,0.1158429,-179.4407625,0.0991973,0.0416232,43.5,-120.0000014,9.798856,1.8529052e-5,0,0,0,2.333056e4,241.8172084,29.0526923,0.1051063,288.0943066,218.9093238,4.2894775,0.881687,6.1579843e7,1357.178467,637.1600077,0.7173633,0.7173633,0.3548507,0.1414543,0.2210583,4.0995938e-6,-7.0721235e-5,-1.5032829e-4,0,0,0,0,0,0.0310292,16.129,204.3171233,89.9805214,-179.4127538,0,2.2572951,798.9586184,332.6668208,0.05,0.0568171
3.80125,595.0797607,293.2351934,-1.423249,293.2352108,1.4236747,-0.1208415,-0.0011727,0.1208471,-179.4439703,0.1009729,0.0348154,43.5,-120.0000015,9.798811,1.7186529e-4,0,0,0,2.3309541e4,220.7986405,29.0255939,0.1050882,288.0934611,218.8083987,4.2956825,0.8816213,6.1488212e7,831.0515378,635.8212574,0.7172961,0.7172961,0.3548552,0.1413976,0.2210433,3.8025488e-5,2.7374914e-4,-2.8420217e-4,0,0,0,0,0,0.0310215,16.129,204.3171233,89.9799614,-179.4554334,0,2.1619815,797.4744274,332.6090608,0.05,0.0573346
3.85125,609.7290384,292.7374562,-9.862589,292.7374742,9.8626482,-0.1259319,-0.0012159,0.1259378,-179.4468162,0.1026576,0.0341709,43.5,-120.0000016,9.7987659,3.8680752e-4,0,1.7951154e-6,-5.9709105e-6,2.3293769e4,205.026517,29.0052284,0.1050746,288.087481,218.7325459,4.3000146,0.8802775,6.1307587e7,630.0208386,631.5077454,0.7159385,0.7159385,0.3549463,0.1402568,0.2207355,8.5567629e-5,3.6201803e-4,2.0987226e-4,0,0,0,0,0,0.0309689,16.129,204.3171233,89.9796451,-179.4102493,0,2.066761,795.9916864,332.5513572,0.05,0.0578605
3.90125,624.3534886,292.2420716,-9.8172338,292.2420902,9.8172824,-0.1311055,-0.0012597,0.1311115,-179.4495077,0.1042748,0.0308803,43.5,-120.0000016,9.7987209,7.3924177e-5,0,0,0,2.3278074e4,189.330874,28.984935,0.105061,288.083623,218.6569589,4.3044618,0.8789401,6.1129403e7,626.834939,627.2661414,0.7146058,0.7146058,0.3550368,0.1391394,0.2204296,1.6350095e-5,-4.9522226e-5,-4.9695797e-4,0,0,0,0,0,0.0309165,16.129,204.3171233,89.9795478,-179.5479227,0,1.9717021,794.5330638,332.4937515,0.05,0.0583988
3.95125,638.9532196,291.7486519,-9.7795523,291.7486711,9.7795963,-0.1363566,-0.0013038,0.1363628,-179.4521566,0.1057626,0.0293401,43.5,-120.0000017,9.7986759,1.8737949e-4,0,0,0,2.3262465e4,173.7225334,28.964728,0.1050476,288.0781962,218.5816912,4.3087919,0.8776079,6.0955813e7,623.5596734,623.1150842,0.7132958,0.7132958,0.3551268,0.1380436,0.2201254,4.1436496e-5,1.2908553e-4,-1.3923571e-5,0,0,0,0,0,0.0308643,16.129,204.3171233,89.9794702,-179.5542731,0,1.8768038,793.1277864,332.4362431,0.05,0.0589189
4.00125,653.528321,291.2568751,-9.7476261,291.2568948,9.7476694,-0.1416804,-0.001348,0.1416868,-179.45488,0.1071996,0.0290737,43.5,-120.0000018,9.798631,2.1308966e-4,0,2.0509113e-5,-1.0232032e-5,2.3246939e4,158.1963947,28.9446013,0.1050342,288.0731817,218.5067196,4.3131293,0.8762799,6.0782826e7,620.1964339,619.0110039,0.7120072,0.7120072,0.3552164,0.1369681,0.2198226,4.7113935e-5,5.3137364e-4,-1.7735577e-4,0,0,0,0,0,0.0308122,16.129,204.3171233,89.9791459,-179.3172946,0,1.7820657,791.7248797,332.3788318,0.05,0.0594312
4.05125,668.0788679,290.7664557,-9.7213512,290.766476,9.7213996,-0.147077,-0.0013933,0.1470836,-179.4572213,0.1086888,0.0306563,43.5,-120.0000018,9.7985862,8.2710355e-5,0,0,0,2.3231496e4,142.7531211,28.924556,0.1050209,288.0688399,218.4320487,4.3174897,0.8749553,6.0610379e7,616.7449985,614.950983,0.7107384,0.7107384,0.3553057,0.1359117,0.2195211,1.8283971e-5,2.6022709e-4,4.4015161e-4,0,0,0,0,0,0.0307604,16.129,204.3171233,89.9785408,-179.4323665,0,1.6874871,790.3243364,332.3215172,0.05,0.0599512
