# Time (s),Altitude (m),Vertical velocity (m/s),Vertical acceleration (m/s²),Total velocity (m/s),Total acceleration (m/s²),Position East of launch (m),Position North of launch (m),Lateral distance (m),Lateral direction (°),Lateral velocity (m/s),Lateral acceleration (m/s²),Latitude (°),Longitude (°),Gravitational acceleration (m/s²),Angle of attack (°),Roll rate (r/s),Pitch rate (r/s),Yaw rate (r/s),Mass (g),Motor mass (g),Longitudinal moment of inertia (kg·m²),Rotational moment of inertia (kg·m²),CP location (cm),CG location (cm),Stability margin calibers (​),Mach number (​),Reynolds number (​),Thrust (N),Drag force (N),Drag coefficient (​),Axial drag coefficient (​),Friction drag coefficient (​),Pressure drag coefficient (​),Base drag coefficient (​),Normal force coefficient (​),Pitch moment coefficient (​),Yaw moment coefficient (​),Side force coefficient (​),Roll moment coefficient (​),Roll forcing coefficient (​),Roll damping coefficient (​),Pitch damping coefficient (​),Coriolis acceleration (m/s²),Reference length (cm),Reference area (cm²),Vertical orientation (zenith) (°),Lateral orientation (azimuth) (°),Wind velocity (m/s),Air temperature (°C),Air pressure (mbar),Speed of sound (m/s),Simulation time step (s),Computation time (s)
0.01,2.571e-4,0.051,5.144,0.051,5.144,0,0,0,0,0,0,28.591,-80.615,9.792,88.407,0,0,0,2.764e4,9926,25.616,0.097,NaN,236.8,NaN,0.005,4.641e5,412.876,1.65e-6,0.774,4.192e-5,0.606,0.117,0.051,NaN,NaN,NaN,NaN,NaN,NaN,NaN,NaN,6.585e-6,15.6,190,90.012,0,1.838,15,1013,340.389,0.01,0.001
0.02,0.003,0.402,35.025,0.402,35.025,0,0,0,0,0,0,28.591,-80.615,9.792,77.865,0,0,0,2.764e4,9921,25.612,0.097,NaN,236.8,NaN,0.006,4.824e5,1238.628,6.833e-4,0.769,0.016,0.601,0.117,0.051,NaN,NaN,NaN,NaN,NaN,NaN,NaN,NaN,5.142e-5,15.6,190,90.012,0,1.868,15,1013,340.389,0.01,0.002
0.03,0.01,1.038,63.671,1.038,63.671,0,0,0,0,0,0,28.591,-80.615,9.792,61.306,0,0,0,2.763e4,9915,25.607,0.097,NaN,236.8,NaN,0.006,5.463e5,2029.863,0.009,0.753,0.167,0.585,0.117,0.051,NaN,NaN,NaN,NaN,NaN,NaN,NaN,NaN,1.329e-4,15.6,190,90.012,0,1.899,15,1013,340.389,0.01,0.002
0.04,0.024,1.764,72.626,1.764,72.626,0,0,0,0,0,0,28.591,-80.615,9.792,47.555,0,0,0,2.762e4,9905,25.6,0.097,NaN,236.8,NaN,0.008,6.6e5,2276.511,0.034,0.731,0.421,0.562,0.117,0.051,NaN,NaN,NaN,NaN,NaN,NaN,NaN,NaN,2.259e-4,15.6,190,90.012,0,1.93,15,1013,340.389,0.01,0.002
0.05,0.045,2.512,74.781,2.512,74.781,0,0,0,0,0,0,28.591,-80.615,9.792,37.987,0,0,0,2.761e4,9895,25.593,0.097,NaN,236.7,NaN,0.009,8.043e5,2335.237,0.073,0.708,0.621,0.54,0.117,0.051,NaN,NaN,NaN,NaN,NaN,NaN,NaN,NaN,3.216e-4,15.6,190,90.012,0,1.96,15,1013,340.389,0.01,0.003
0.06,0.074,3.281,76.937,3.281,76.937,0,0,0,0,0,0,28.591,-80.615,9.792,30.882,0,0,0,2.76e4,9885,25.585,0.097,NaN,236.7,NaN,0.011,9.649e5,2393.963,0.127,0.689,0.747,0.521,0.117,0.051,NaN,NaN,NaN,NaN,NaN,NaN,NaN,NaN,4.201e-4,15.6,190,90.012,0,1.961,15,1013,340.389,0.01,0.003
0.07,0.111,4.072,79.087,4.072,79.087,0,0,0,0,0,0,28.591,-80.615,9.792,25.726,0,0,0,2.759e4,9875,25.578,0.097,NaN,236.7,NaN,0.013,1.141e6,2452.472,0.193,0.672,0.81,0.504,0.117,0.051,NaN,NaN,NaN,NaN,NaN,NaN,NaN,NaN,5.214e-4,15.6,190,90.012,0,1.961,14.999,1013,340.388,0.01,0.003
0.08,0.156,4.875,80.307,4.875,80.307,0,0,0,0,0,0,28.591,-80.615,9.792,21.944,0,0,0,2.758e4,9865,25.57,0.097,NaN,236.7,NaN,0.015,1.326e6,2485.26,0.268,0.658,0.833,0.489,0.117,0.051,NaN,NaN,NaN,NaN,NaN,NaN,NaN,NaN,6.242e-4,15.6,190,90.012,0,1.962,14.999,1013,340.388,0.01,0.004
0.09,0.208,5.684,80.888,5.684,80.888,0,0,0,0,0,0,28.591,-80.615,9.792,19.079,0,0,0,2.757e4,9854,25.562,0.097,NaN,236.6,NaN,0.018,1.518e6,2500.393,0.351,0.645,0.835,0.477,0.117,0.051,NaN,NaN,NaN,NaN,NaN,NaN,NaN,NaN,7.277e-4,15.6,190,90.012,0,1.963,14.999,1013,340.388,0.01,0.004
0.1,0.269,6.498,81.468,6.498,81.468,0,0,0,0,0,0,28.591,-80.615,9.792,16.788,0,0,0,2.756e4,9844,25.554,0.097,NaN,236.6,NaN,0.02,1.713e6,2515.527,0.442,0.634,0.824,0.466,0.117,0.051,NaN,NaN,NaN,NaN,NaN,NaN,NaN,NaN,8.32e-4,15.6,190,90.012,0,1.963,14.998,1013,340.388,0.01,0.005
0.11,0.338,7.318,82.049,7.318,82.049,0,0,0,0,0,0,28.591,-80.615,9.792,15.011,0,0,0,2.755e4,9833,25.546,0.097,NaN,236.6,NaN,0.022,1.912e6,2530.66,0.538,0.625,0.805,0.456,0.117,0.051,NaN,NaN,NaN,NaN,NaN,NaN,NaN,NaN,9.37e-4,15.6,190,90.012,0,1.961,14.998,1013,340.388,0.01,0.005
0.12,0.416,8.143,82.518,8.143,82.518,0,0,0,0,0,0,28.591,-80.615,9.792,13.522,0,0,0,2.754e4,9822,25.537,0.097,NaN,236.5,NaN,0.025,2.114e6,2542.648,0.638,0.616,0.781,0.448,0.117,0.051,NaN,NaN,NaN,NaN,NaN,NaN,NaN,NaN,0.001,15.6,190,90.012,0,1.958,14.997,1013,340.387,0.01,0.005
0.13,0.501,8.972,82.82,8.972,82.82,0,0,0,0,0,0,28.591,-80.615,9.792,12.319,0,0,0,2.753e4,9811,25.529,0.097,NaN,236.5,NaN,0.027,2.318e6,2550.056,0.743,0.609,0.757,0.44,0.117,0.051,NaN,NaN,NaN,NaN,NaN,NaN,NaN,NaN,0.001,15.6,190,90.012,0,1.955,14.997,1013,340.387,0.01,0.006
0.14,0.595,9.803,83.121,9.803,83.121,0,0,0,0,0,0,28.591,-80.615,9.792,11.287,0,0,0,2.752e4,9800,25.521,0.097,NaN,236.5,NaN,0.029,2.523e6,2557.424,0.855,0.602,0.735,0.434,0.117,0.051,NaN,NaN,NaN,NaN,NaN,NaN,NaN,NaN,0.001,15.6,190,90.012,0,1.953,14.996,1013,340.387,0.01,0.006
0.15,0.697,10.637,83.422,10.637,83.422,0,0,0,0,0,0,28.591,-80.615,9.792,10.371,0,0,0,2.751e4,9789,25.512,0.097,NaN,236.4,NaN,0.032,2.729e6,2564.792,0.973,0.596,0.715,0.427,0.117,0.051,NaN,NaN,NaN,NaN,NaN,NaN,NaN,NaN,0.001,15.6,190,90.012,0,1.95,14.995,1013,340.386,0.01,0.006
0.16,0.808,11.474,83.723,11.474,83.723,0,0,0,0,0,0,28.591,-80.615,9.792,9.626,0,0,0,2.749e4,9778,25.504,0.097,NaN,236.4,NaN,0.034,2.937e6,2572.16,1.098,0.59,0.696,0.422,0.117,0.051,NaN,NaN,NaN,NaN,NaN,NaN,NaN,NaN,0.001,15.6,190,90.012,0,1.943,14.995,1013,340.386,0.01,0.007
0.17,0.927,12.314,84.024,12.314,84.024,0,0,0,0,0,0,28.591,-80.615,9.792,8.938,0,0,0,2.748e4,9767,25.495,0.097,NaN,236.4,NaN,0.037,3.146e6,2579.529,1.23,0.585,0.68,0.417,0.117,0.051,NaN,NaN,NaN,NaN,NaN,NaN,NaN,NaN,0.002,15.6,190,90.012,0,1.937,14.994,1013,340.385,0.01,0.007
0.18,1.054,13.157,84.325,13.157,84.325,0,0,0,0,0,0,28.591,-80.615,9.792,8.365,0,0,0,2.747e4,9756,25.487,0.097,NaN,236.3,NaN,0.039,3.356e6,2586.897,1.379,0.584,0.67,0.416,0.117,0.051,NaN,NaN,NaN,NaN,NaN,NaN,NaN,NaN,0.002,15.6,190,90.012,0,1.93,14.993,1013,340.385,0.01,0.007
0.19,1.19,14.003,84.625,14.003,84.625,0,0,0,0,0,0,28.591,-80.615,9.792,7.792,0,0,0,2.746e4,9744,25.479,0.097,NaN,236.3,NaN,0.042,3.567e6,2594.265,1.539,0.584,0.662,0.416,0.117,0.051,NaN,NaN,NaN,NaN,NaN,NaN,NaN,NaN,0.002,15.6,190,90.012,0,1.923,14.992,1013,340.384,0.01,0.008
0.2,1.334,14.852,84.926,14.852,84.926,0,0,0,0,0,0,28.591,-80.615,9.792,7.334,0,0,0,2.745e4,9733,25.47,0.097,NaN,236.3,NaN,0.044,3.78e6,2601.633,1.709,0.585,0.655,0.416,0.117,0.051,NaN,NaN,NaN,NaN,NaN,NaN,NaN,NaN,0.002,15.6,190,90.012,0,1.916,14.991,1013,340.384,0.01,0.008
0.21,1.487,15.704,85.226,15.704,85.226,0,0,0,0,0,0,28.591,-80.615,9.792,6.99,0,0,0,2.744e4,9722,25.462,0.097,NaN,236.2,NaN,0.046,3.993e6,2609.002,1.891,0.585,0.649,0.416,0.117,0.051,NaN,NaN,NaN,NaN,NaN,NaN,NaN,NaN,0.002,15.6,190,90.012,0,1.921,14.99,1013,340.383,0.01,0.009
0.22,1.648,16.559,85.526,16.559,85.526,0,0,0,0,0,0,28.591,-80.615,9.792,6.646,0,0,0,2.743e4,9711,25.453,0.097,NaN,236.2,NaN,0.049,4.207e6,2616.37,2.083,0.585,0.644,0.416,0.117,0.051,NaN,NaN,NaN,NaN,NaN,NaN,NaN,NaN,0.002,15.6,190,90.012,0,1.925,14.989,1013,340.382,0.01,0.009
0.23,1.818,17.417,85.826,17.417,85.826,0,0,0,0,0,0,28.591,-80.615,9.792,6.303,0,0,0,2.742e4,9700,25.445,0.097,NaN,236.2,NaN,0.051,4.423e6,2623.738,2.285,0.585,0.639,0.416,0.117,0.051,NaN,NaN,NaN,NaN,NaN,NaN,NaN,NaN,0.002,15.6,190,90.012,0,1.929,14.988,1013,340.382,0.01,0.009
0.24,1.997,18.278,86.126,18.278,86.126,0,0,0,0,0,0,28.591,-80.615,9.792,6.016,0,0,0,2.741e4,9689,25.436,0.097,NaN,236.1,NaN,0.054,4.639e6,2631.107,2.498,0.585,0.635,0.416,0.117,0.051,NaN,NaN,NaN,NaN,NaN,NaN,NaN,NaN,0.002,15.6,190,90.012,0,1.933,14.987,1013,340.381,0.01,0.01
0.25,2.184,19.143,86.425,19.143,86.425,0,0,0,0,0,0,28.591,-80.615,9.792,5.787,0,0,0,2.739e4,9678,25.428,0.097,NaN,236.1,NaN,0.057,4.856e6,2638.475,2.722,0.585,0.632,0.416,0.117,0.051,NaN,NaN,NaN,NaN,NaN,NaN,NaN,NaN,0.002,15.6,190,90.012,0,1.938,14.986,1013,340.38,0.01,0.01
0.26,2.38,20.01,86.725,20.01,86.725,0,0,0,0,0,0,28.591,-80.615,9.792,5.5,0,0,0,2.738e4,9667,25.419,0.097,NaN,236.1,NaN,0.059,5.073e6,2645.843,2.954,0.585,0.628,0.416,0.117,0.051,NaN,NaN,NaN,NaN,NaN,NaN,NaN,NaN,0.003,15.6,190,90.012,0,1.93,14.985,1013,340.38,0.01,0.01
0.27,2.584,20.88,87.024,20.88,87.024,0,0,0,0,0,0,28.591,-80.615,9.792,5.271,0,0,0,2.737e4,9656,25.411,0.097,NaN,236,NaN,0.062,5.292e6,2653.211,3.197,0.585,0.625,0.416,0.118,0.051,NaN,NaN,NaN,NaN,NaN,NaN,NaN,NaN,0.003,15.6,190,90.012,0,1.922,14.983,1013,340.379,0.01,0.011
0.28,2.797,21.753,87.324,21.753,87.324,0,0,0,0,0,0,28.591,-80.615,9.792,5.042,0,0,0,2.736e4,9645,25.402,0.097,NaN,236,NaN,0.064,5.511e6,2660.58,3.451,0.585,0.622,0.416,0.118,0.051,NaN,NaN,NaN,NaN,NaN,NaN,NaN,NaN,0.003,15.6,190,90.012,0,1.915,14.982,1013,340.378,0.01,0.011
0.29,3.019,22.629,87.623,22.629,87.623,0,0,0,0,0,0,28.591,-80.615,9.792,4.813,0,0,0,2.735e4,9634,25.394,0.097,NaN,236,NaN,0.067,5.731e6,2667.948,3.716,0.585,0.619,0.416,0.118,0.051,NaN,NaN,NaN,NaN,NaN,NaN,NaN,NaN,0.003,15.6,190,90.012,0,1.907,14.98,1013,340.377,0.01,0.011
0.3,3.25,23.508,87.922,23.508,87.922,0,0,0,0,0,0,28.591,-80.615,9.792,4.641,0,0,0,2.734e4,9622,25.385,0.097,NaN,235.9,NaN,0.069,5.952e6,2675.316,3.992,0.585,0.617,0.416,0.118,0.051,NaN,NaN,NaN,NaN,NaN,NaN,NaN,NaN,0.003,15.6,190,90.012,0,1.9,14.979,1013,340.376,0.01,0.012
0.31,3.489,24.39,88.22,24.39,88.22,0,0,0,0,0,0,28.591,-80.615,9.792,4.469,0,0,0,2.733e4,9611,25.377,0.097,NaN,235.9,NaN,0.072,6.173e6,2682.684,4.281,0.585,0.615,0.416,0.118,0.051,NaN,NaN,NaN,NaN,NaN,NaN,NaN,NaN,0.003,15.6,190,90.012,0,1.899,14.977,1013,340.375,0.01,0.012
0.32,3.738,25.275,88.519,25.275,88.519,0,0,0,0,0,0,28.591,-80.615,9.792,4.297,0,0,0,2.732e4,9600,25.368,0.096,NaN,235.9,NaN,0.074,6.396e6,2690.053,4.582,0.585,0.613,0.416,0.118,0.051,NaN,NaN,NaN,NaN,NaN,NaN,NaN,NaN,0.003,15.6,190,90.012,0,1.899,14.976,1013,340.374,0.01,0.013
0.33,3.995,26.163,88.817,26.163,88.817,0,0,0,0,0,0,28.591,-80.615,9.792,4.125,0,0,0,2.731e4,9589,25.36,0.096,NaN,235.8,NaN,0.077,6.619e6,2697.421,4.895,0.585,0.611,0.416,0.118,0.052,NaN,NaN,NaN,NaN,NaN,NaN,NaN,NaN,0.003,15.6,190,90.012,0,1.898,14.974,1013,340.373,0.01,0.013
0.34,4.261,27.054,89.115,27.054,89.115,0,0,0,0,0,0,28.591,-80.615,9.792,4.011,0,0,0,2.729e4,9578,25.351,0.096,NaN,235.8,NaN,0.08,6.843e6,2704.789,5.219,0.585,0.61,0.416,0.118,0.052,NaN,NaN,NaN,NaN,NaN,NaN,NaN,NaN,0.003,15.6,190,90.012,0,1.898,14.972,1013,340.372,0.01,0.014
0.35,4.536,27.948,89.413,27.948,89.413,0,0,0,0,0,0,28.591,-80.615,9.792,3.896,0,0,0,2.728e4,9567,25.343,0.096,NaN,235.8,NaN,0.082,7.068e6,2712.158,5.555,0.585,0.608,0.416,0.118,0.052,NaN,NaN,NaN,NaN,NaN,NaN,NaN,NaN,0.004,15.6,190,90.012,0,1.898,14.971,1013,340.371,0.01,0.014
0.36,4.82,28.845,89.711,28.845,89.711,0,0,0,0,0,0,28.591,-80.615,9.792,3.724,0,0,0,2.727e4,9556,25.334,0.096,NaN,235.7,NaN,0.085,7.294e6,2719.526,5.902,0.585,0.607,0.416,0.118,0.052,NaN,NaN,NaN,NaN,NaN,NaN,NaN,NaN,0.004,15.6,190,90.012,0,1.891,14.969,1013,340.37,0.01,0.014
0.37,5.113,29.745,90.031,29.745,90.031,0,0,0,0,0,0,28.591,-80.615,9.792,3.61,0,0,0,2.726e4,9544,25.325,0.096,NaN,235.7,NaN,0.088,7.52e6,2727.42,6.261,0.585,0.606,0.416,0.118,0.052,NaN,NaN,NaN,NaN,NaN,NaN,NaN,NaN,0.004,15.6,190,90.012,0,1.885,14.967,1013,340.369,0.01,0.015
0.38,5.415,30.649,90.369,30.649,90.369,0,0,0,0,0,0,28.591,-80.615,9.792,3.495,0,0,0,2.725e4,9532,25.316,0.096,NaN,235.6,NaN,0.09,7.748e6,2735.841,6.632,0.585,0.604,0.416,0.118,0.052,NaN,NaN,NaN,NaN,NaN,NaN,NaN,NaN,0.004,15.6,190,90.012,0,1.879,14.965,1013,340.368,0.01,0.015
0.39,5.726,31.556,90.708,31.556,90.708,0,0,0,0,0,0,28.591,-80.615,9.792,3.38,0,0,0,2.724e4,9521,25.307,0.096,NaN,235.6,NaN,0.093,7.976e6,2744.261,7.016,0.585,0.603,0.416,0.118,0.052,NaN,NaN,NaN,NaN,NaN,NaN,NaN,NaN,0.004,15.6,190,90.012,0,1.873,14.963,1013,340.366,0.01,0.015
0.4,6.046,32.466,91.046,32.466,91.046,0,0,0,0,0,0,28.591,-80.615,9.792,3.266,0,0,0,2.723e4,9509,25.298,0.096,NaN,235.6,NaN,0.096,8.205e6,2752.681,7.413,0.585,0.602,0.416,0.118,0.052,NaN,NaN,NaN,NaN,NaN,NaN,NaN,NaN,0.004,15.6,190,90.012,0,1.867,14.961,1013,340.365,0.01,0.016
0.41,6.375,33.38,91.384,33.38,91.384,0,0,0,0,0,0,28.591,-80.615,9.792,3.209,0,0,0,2.721e4,9497,25.289,0.096,NaN,235.5,NaN,0.098,8.435e6,2761.102,7.822,0.585,0.601,0.416,0.118,0.052,NaN,NaN,NaN,NaN,NaN,NaN,NaN,NaN,0.004,15.6,190,90.012,0,1.861,14.959,1013,340.364,0.01,0.016
0.42,6.713,34.297,91.722,34.297,91.722,0,0,0,0,0,0,28.591,-80.615,9.792,3.094,0,0,0,2.72e4,9485,25.28,0.096,NaN,235.5,NaN,0.101,8.665e6,2769.522,8.245,0.585,0.601,0.416,0.118,0.052,NaN,NaN,NaN,NaN,NaN,NaN,NaN,NaN,0.004,15.6,190,90.012,0,1.854,14.956,1012,340.362,0.01,0.017
0.43,7.061,35.217,92.059,35.217,92.059,0,0,0,0,0,0,28.591,-80.615,9.792,2.979,0,0,0,2.719e4,9473,25.271,0.096,NaN,235.5,NaN,0.104,8.897e6,2777.942,8.68,0.585,0.6,0.415,0.118,0.052,NaN,NaN,NaN,NaN,NaN,NaN,NaN,NaN,0.005,15.6,190,90.012,0,1.848,14.954,1012,340.361,0.01,0.017
0.44,7.418,36.141,92.397,36.141,92.397,0,0,0,0,0,0,28.591,-80.615,9.792,2.922,0,0,0,2.718e4,9462,25.262,0.096,NaN,235.4,NaN,0.106,9.129e6,2786.363,9.129,0.585,0.599,0.415,0.118,0.052,NaN,NaN,NaN,NaN,NaN,NaN,NaN,NaN,0.005,15.6,190,90.012,0,1.841,14.952,1012,340.36,0.01,0.017
0.45,7.784,37.068,92.734,37.068,92.734,0,0,0,0,0,0,28.591,-80.615,9.792,2.807,0,0,0,2.717e4,9450,25.253,0.096,NaN,235.4,NaN,0.109,9.363e6,2794.783,9.591,0.585,0.598,0.415,0.118,0.052,NaN,NaN,NaN,NaN,NaN,NaN,NaN,NaN,0.005,15.6,190,90.012,0,1.835,14.949,1012,340.358,0.01,0.018
0.46,8.159,37.999,93.071,37.999,93.071,0,0,0,0,0,0,28.591,-80.615,9.792,2.807,0,0,0,2.715e4,9438,25.243,0.096,NaN,235.4,NaN,0.112,9.597e6,2803.203,10.072,0.585,0.598,0.415,0.118,0.052,NaN,NaN,NaN,NaN,NaN,NaN,NaN,NaN,0.005,15.6,190,90.012,0,1.851,14.947,1012,340.357,0.01,0.018
0.47,8.544,38.933,93.407,38.933,93.407,0,0,0,0,0,0,28.591,-80.615,9.792,2.75,0,0,0,2.714e4,9426,25.234,0.096,NaN,235.3,NaN,0.115,9.832e6,2811.624,10.566,0.586,0.598,0.415,0.118,0.052,NaN,NaN,NaN,NaN,NaN,NaN,NaN,NaN,0.005,15.6,190,90.012,0,1.867,14.944,1012,340.355,0.01,0.018
0.48,8.938,39.87,93.744,39.87,93.744,0,0,0,0,0,0,28.591,-80.615,9.792,2.693,0,0,0,2.713e4,9415,25.225,0.096,NaN,235.3,NaN,0.117,1.007e7,2820.044,11.075,0.586,0.598,0.415,0.118,0.052,NaN,NaN,NaN,NaN,NaN,NaN,NaN,NaN,0.005,15.6,190,90.012,0,1.883,14.942,1012,340.354,0.01,0.019
0.49,9.341,40.811,94.08,40.811,94.08,0,0,0,0,0,0,28.591,-80.615,9.792,2.693,0,0,0,2.712e4,9403,25.216,0.096,NaN,235.2,NaN,0.12,1.031e7,2828.464,11.597,0.586,0.597,0.415,0.118,0.052,NaN,NaN,NaN,NaN,NaN,NaN,NaN,NaN,0.005,15.6,190,90.012,0,1.899,14.939,1012,340.352,0.01,0.019
0.5,9.754,41.755,94.416,41.755,94.416,0,0,0,0,0,0,28.591,-80.615,9.792,2.636,0,0,0,2.711e4,9391,25.207,0.096,NaN,235.2,NaN,0.123,1.054e7,2836.885,12.134,0.586,0.597,0.415,0.118,0.052,NaN,NaN,NaN,NaN,NaN,NaN,NaN,NaN,0.005,15.6,190,90.012,0,1.916,14.937,1012,340.35,0.01,0.02
0.51,10.176,42.702,94.752,42.702,94.752,0,0,0,0,0,0,28.591,-80.615,9.792,2.578,0,0,0,2.71e4,9379,25.198,0.096,NaN,235.2,NaN,0.126,1.078e7,2845.305,12.683,0.586,0.597,0.415,0.118,0.052,NaN,NaN,NaN,NaN,NaN,NaN,NaN,NaN,0.005,15.6,190,90.012,0,1.927,14.934,1012,340.349,0.01,0.02
0.52,10.608,43.653,95.087,43.653,95.087,0,0,0,0,0,0,28.591,-80.615,9.792,2.521,0,0,0,2.708e4,9368,25.189,0.096,NaN,235.1,NaN,0.128,1.102e7,2853.726,13.247,0.586,0.596,0.415,0.119,0.052,NaN,NaN,NaN,NaN,NaN,NaN,NaN,NaN,0.006,15.6,190,90.012,0,1.938,14.931,1012,340.347,0.01,0.02
0.535,11.274,45.085,95.506,45.085,95.507,-4.962e-5,0,4.962e-5,-180.023,0.007,0.45,28.591,-80.615,9.792,2.464,0,3.183e-4,7.633e-8,2.707e4,9349,25.174,0.096,261.5,235.1,1.696,0.133,1.138e7,2864.02,14.118,0.586,0.596,0.415,0.119,0.052,0.509,0.864,4.759e-4,0,0,0,0,2.241e-5,0.006,15.6,190,90.012,-0.006,1.954,14.927,1012,340.344,0.015,0.021
0.558,12.312,47.246,96.079,47.246,96.081,-3.145e-4,0,3.145e-4,-180.023,0.017,0.463,28.591,-80.615,9.792,2.349,0,7.958e-4,9.471e-8,2.704e4,9321,25.153,0.096,261.8,235,1.722,0.139,1.192e7,2877.957,15.483,0.586,0.595,0.415,0.119,0.052,0.485,0.835,2.292e-4,0,0,0,0,1.364e-4,0.006,15.6,190,90.012,5.219e-4,1.974,14.92,1012,340.34,0.023,0.021
0.591,13.962,50.515,96.927,50.515,96.928,-0.001,0,0.001,-180.023,0.033,0.463,28.591,-80.615,9.792,2.177,0,0.002,4.56e-7,2.7e4,9280,25.12,0.096,262.3,234.9,1.764,0.149,1.275e7,2898.598,17.665,0.586,0.594,0.415,0.119,0.052,0.447,0.788,-4.787e-5,0,0,0,0,4.689e-4,0.006,15.6,190,89.954,-0.004,1.987,14.909,1012,340.334,0.034,0.021
0.641,16.61,55.419,98.184,55.419,98.185,-0.003,-1.914e-8,0.003,-180.023,0.054,0.379,28.591,-80.615,9.792,1.833,0,0.003,2.193e-7,2.693e4,9218,25.071,0.096,263.5,234.7,1.856,0.163,1.398e7,2929.33,21.172,0.587,0.592,0.415,0.119,0.053,0.36,0.667,-2.189e-4,0,0,0,0,0.001,0.007,15.6,190,89.954,-0.009,1.855,14.892,1011,340.323,0.05,0.022
0.691,19.506,60.399,99.653,60.399,99.653,-0.006,-9.515e-8,0.006,-180.023,0.071,0.282,28.591,-80.615,9.792,1.604,0,0.004,1.245e-6,2.687e4,9156,25.022,0.096,264.2,234.5,1.914,0.178,1.523e7,2966.025,25.103,0.587,0.592,0.415,0.12,0.053,0.314,0.598,-2.761e-4,0,0,0,0,0.002,0.008,15.6,190,89.897,-0.012,1.866,14.873,1011,340.312,0.05,0.022
0.741,22.652,65.453,101.113,65.453,101.113,-0.01,-3.165e-7,0.01,-180.023,0.08,0.103,28.591,-80.615,9.792,1.318,0,0.005,2.284e-7,2.681e4,9093,24.973,0.096,265.2,234.3,1.986,0.192,1.65e7,3002.667,29.425,0.588,0.591,0.414,0.12,0.053,0.256,0.506,-2.6e-4,0,0,0,0,0.003,0.008,15.6,190,89.782,-0.012,1.808,14.853,1011,340.3,0.05,0.023
0.791,26.053,70.571,102.421,70.571,102.421,-0.014,-7.982e-7,0.014,-180.023,0.081,0.09,28.591,-80.615,9.792,1.146,0,0.006,6.809e-7,2.674e4,9029,24.921,0.096,265.7,234.1,2.031,0.207,1.778e7,3035.225,34.193,0.588,0.591,0.414,0.121,0.054,0.227,0.457,2.375e-4,0,0,0,0,0.004,0.009,15.6,190,89.725,-0.011,1.896,14.831,1010,340.286,0.05,0.023
0.841,29.711,75.751,103.623,75.751,103.624,-0.018,-1.635e-6,0.018,-180.023,0.07,0.355,28.591,-80.615,9.792,1.031,0,0.008,1.862e-6,2.668e4,8964,24.869,0.096,266.2,233.9,2.081,0.223,1.908e7,3065.218,39.381,0.589,0.591,0.414,0.121,0.054,0.194,0.399,3.517e-4,0,0,0,0,0.006,0.01,15.6,190,89.553,-0.01,1.972,14.807,1010,340.272,0.05,0.023
0.891,33.629,80.99,104.814,80.99,104.817,-0.021,-2.913e-6,0.021,-179.966,0.042,0.779,28.591,-80.615,9.792,0.688,0,0.009,1.054e-6,2.661e4,8899,24.817,0.096,267.4,233.6,2.169,0.238,2.04e7,3095.211,44.97,0.59,0.59,0.414,0.122,0.054,0.13,0.275,-3.833e-4,0,0,0,0,0.006,0.01,15.6,190,89.439,-0.008,1.83,14.781,1009,340.256,0.05,0.024
0.941,37.811,86.288,105.991,86.288,105.998,-0.022,-4.729e-6,0.022,-179.966,0.009,1.234,28.591,-80.615,9.792,0.458,0,0.01,1.336e-6,2.655e4,8834,24.765,0.096,268.3,233.4,2.24,0.254,2.172e7,3125.204,51.043,0.59,0.591,0.413,0.122,0.055,0.083,0.179,-1.057e-4,0,0,0,0,0.007,0.011,15.6,190,89.267,-0.008,1.789,14.754,1009,340.24,0.05,0.024
0.991,42.259,91.64,107.06,91.64,107.074,-0.02,-7.166e-6,0.02,-179.966,0.083,1.713,28.591,-80.615,9.792,0.286,0,0.011,1.981e-6,2.648e4,8767,24.711,0.095,269,233.2,2.298,0.269,2.306e7,3152.477,57.6,0.591,0.591,0.413,0.123,0.055,0.049,0.106,-3.261e-4,0,0,0,0,0.007,0.012,15.6,190,89.038,-0.006,1.833,14.725,1008,340.222,0.05,0.024
1.041,46.976,97.039,107.996,97.039,108.021,-0.013,-1.024e-5,0.013,-179.966,0.183,2.29,28.591,-80.615,9.792,0.018,0,0.011,2.739e-5,2.642e4,8699,24.656,0.095,269.9,233,2.374,0.285,2.441e7,3176.632,64.631,0.592,0.592,0.413,0.124,0.056,0.003,0.002,1.052e-4,0,0,0,0,0.007,0.012,15.6,190,88.866,-0.005,1.756,14.695,1008,340.204,0.05,0.025
1.091,51.964,102.485,108.915,102.486,108.953,-9.618e-4,-1.384e-5,9.619e-4,-179.164,0.313,2.896,28.591,-80.615,9.792,0.229,-7.063e-9,-0.011,5.811e-6,2.635e4,8632,24.601,0.095,269.3,232.8,2.345,0.301,2.577e7,3200.783,72.168,0.593,0.593,0.412,0.124,0.056,0.038,0.095,3.787e-4,0,0,0,0,-0.006,0.013,15.6,190,88.694,-0.003,1.678,14.662,1007,340.184,0.05,0.025
1.141,57.226,107.976,109.817,107.977,109.871,0.019,-1.776e-5,0.019,-0.055,0.473,3.464,28.591,-80.615,9.792,0.344,-7.894e-9,-0.01,4.523e-6,2.628e4,8565,24.546,0.095,268.7,232.5,2.326,0.317,2.714e7,3224.935,80.217,0.594,0.594,0.412,0.125,0.057,0.067,0.159,3.156e-4,0,0,0,0,-0.004,0.014,15.6,190,88.522,-0.001,1.684,14.628,1007,340.163,0.05,0.025
1.191,62.763,113.511,110.688,113.513,110.763,0.047,-2.181e-5,0.047,-0.027,0.662,4.067,28.591,-80.615,9.792,0.516,6.194e-9,-0.008,-1.066e-6,2.621e4,8496,24.489,0.095,268.1,232.3,2.3,0.334,2.852e7,3248.57,88.796,0.595,0.595,0.411,0.126,0.057,0.102,0.238,2.825e-4,0,0,0,0,-0.003,0.015,15.6,190,88.35,-5.343e-4,1.559,14.592,1006,340.142,0.05,0.026
1.241,68.578,119.088,111.511,119.091,111.601,0.085,-2.574e-5,0.085,-0.017,0.877,4.471,28.591,-80.615,9.792,0.573,0,-0.006,-1.33e-6,2.614e4,8427,24.431,0.095,268,232.1,2.309,0.35,2.991e7,3271.158,97.87,0.596,0.596,0.411,0.127,0.058,0.109,0.253,-2.086e-4,0,0,0,0,-0.001,0.015,15.6,190,88.178,-3.355e-4,1.654,14.554,1005,340.119,0.05,0.026
1.291,74.673,124.705,112.321,124.71,112.422,0.135,-2.947e-5,0.135,-0.013,1.109,4.749,28.591,-80.615,9.792,0.573,0,-0.004,3.463e-8,2.607e4,8357,24.374,0.095,268.1,231.9,2.33,0.367,3.131e7,3293.715,107.462,0.597,0.597,0.41,0.128,0.059,0.107,0.25,4.011e-4,0,0,0,0,-5.581e-4,0.016,15.6,190,88.121,3.936e-4,1.768,14.515,1004,340.095,0.05,0.027
1.341,81.05,130.363,113.12,130.37,113.226,0.196,-3.28e-5,0.196,-0.01,1.351,4.896,28.591,-80.615,9.792,0.516,0,-0.002,3.22e-6,2.6e4,8288,24.315,0.095,268.3,231.6,2.358,0.383,3.271e7,3316.273,117.583,0.598,0.598,0.41,0.129,0.059,0.099,0.234,-2.185e-4,0,0,0,0,-9.339e-5,0.017,15.6,190,88.064,4.727e-4,1.871,14.473,1004,340.07,0.05,0.027
1.391,87.711,136.069,114.088,136.079,114.196,0.27,-3.569e-5,0.27,-0.008,1.599,4.968,28.591,-80.615,9.792,0.516,0,6.366e-4,3.579e-6,2.593e4,8217,24.256,0.095,268.5,231.4,2.384,0.4,3.413e7,3343.357,128.275,0.599,0.6,0.409,0.13,0.06,0.093,0.221,5.418e-5,0,0,0,0,1.099e-5,0.017,15.6,190,88.064,7.85e-4,1.862,14.43,1003,340.043,0.05,0.027
1.441,94.659,141.854,115.659,141.866,115.764,0.356,-3.799e-5,0.356,-0.006,1.849,4.927,28.591,-80.615,9.792,0.458,0,0.003,4.324e-6,2.586e4,8145,24.194,0.095,268.7,231.1,2.415,0.417,3.556e7,3386.303,139.605,0.6,0.601,0.409,0.131,0.061,0.083,0.2,-2.265e-4,0,0,0,0,2.418e-4,0.018,15.6,190,88.064,0.002,1.804,14.385,1002,340.016,0.05,0.028
1.491,101.898,147.721,117.274,147.735,117.368,0.455,-3.935e-5,0.455,-0.005,2.091,4.678,28.591,-80.615,9.792,0.344,0,0.005,7.986e-6,2.579e4,8072,24.133,0.095,269.1,230.9,2.46,0.435,3.701e7,3430.621,151.597,0.602,0.602,0.408,0.132,0.062,0.063,0.153,1.609e-4,0,0,0,0,6.662e-4,0.019,15.6,190,88.178,0.004,1.795,14.338,1001,339.988,0.05,0.028
1.541,109.433,153.667,118.879,153.685,118.952,0.565,-3.903e-5,0.565,-0.004,2.315,4.175,28.591,-80.615,9.792,0.172,-5.12e-9,0.007,4.924e-6,2.572e4,8000,24.071,0.095,269.9,230.6,2.522,0.452,3.848e7,3474.938,164.29,0.603,0.603,0.407,0.133,0.063,0.029,0.071,4.554e-4,0,0,0,0,0.001,0.02,15.6,190,88.293,0.006,1.918,14.289,1000,339.958,0.05,0.028
1.591,117.266,159.679,120.158,159.699,120.214,0.686,-3.64e-5,0.686,-0.003,2.511,3.643,28.591,-80.615,9.792,0.012,-5.973e-9,0.007,9.498e-5,2.564e4,7928,24.009,0.094,270.5,230.4,2.578,0.47,3.996e7,3511.384,177.699,0.605,0.605,0.407,0.135,0.063,0.002,0.004,4.94e-4,0,0,0,0,0.001,0.02,15.6,190,88.407,0.006,1.927,14.238,999.5,339.927,0.05,0.029
1.641,125.4,165.656,119.464,165.678,119.504,0.816,-3.166e-5,0.816,-0.002,2.678,3.084,28.591,-80.615,9.792,0.115,0,-0.007,1.14e-5,2.557e4,7854,23.945,0.094,270.2,230.1,2.577,0.488,4.143e7,3497.653,191.6,0.606,0.606,0.406,0.136,0.064,0.018,0.046,-1.147e-4,0,0,0,0,-9.259e-4,0.021,15.6,190,88.522,0.003,1.861,14.185,998.5,339.895,0.05,0.029
1.691,133.831,171.581,118.398,171.604,118.426,0.953,-2.585e-5,0.953,-0.002,2.818,2.573,28.591,-80.615,9.792,0.172,8.386e-9,-0.006,-1.474e-6,2.55e4,7781,23.882,0.094,270,229.9,2.578,0.505,4.289e7,3475.048,205.939,0.608,0.608,0.405,0.137,0.065,0.033,0.087,3.894e-4,0,0,0,0,-6.011e-4,0.022,15.6,190,88.637,-0.003,1.784,14.13,997.6,339.862,0.05,0.029
1.741,142.557,177.451,117.306,177.476,117.326,1.097,-2.054e-5,1.097,-0.001,2.935,2.126,28.591,-80.615,9.792,0.229,0,-0.004,2.569e-6,2.542e4,7708,23.818,0.094,269.8,229.6,2.583,0.522,4.432e7,3452.442,220.705,0.61,0.61,0.405,0.139,0.066,0.047,0.122,3.676e-4,0,0,0,0,-2.533e-4,0.023,15.6,190,88.751,-0.007,1.773,14.073,996.5,339.827,0.05,0.03
1.791,151.575,183.269,116.231,183.294,116.246,1.246,-1.655e-5,1.246,-7.603e-4,3.031,1.809,28.591,-80.615,9.792,0.286,0,-0.001,-1.577e-6,2.535e4,7635,23.754,0.094,269.7,229.4,2.594,0.54,4.574e7,3430.962,235.885,0.611,0.611,0.404,0.14,0.067,0.056,0.146,4.144e-4,0,0,0,0,-2.513e-5,0.023,15.6,190,88.751,-0.007,1.838,14.015,995.5,339.792,0.05,0.03
1.841,160.883,189.062,115.729,189.088,115.744,1.4,-1.371e-5,1.4,-5.612e-4,3.122,1.885,28.591,-80.615,9.792,0.229,0,0.002,-1.042e-5,2.528e4,7563,23.69,0.094,270,229.1,2.627,0.557,4.716e7,3424.825,251.497,0.613,0.613,0.403,0.142,0.068,0.048,0.126,-4.634e-4,0,0,0,0,3.948e-5,0.024,15.6,190,88.751,-1.86e-4,1.765,13.954,994.4,339.755,0.05,0.031
1.891,170.481,194.839,115.393,194.865,115.413,1.559,-1.057e-5,1.559,-3.886e-4,3.222,2.134,28.591,-80.615,9.792,0.172,0,0.004,-1.833e-5,2.521e4,7491,23.626,0.094,270.3,228.8,2.666,0.574,4.856e7,3423.546,267.614,0.615,0.615,0.402,0.143,0.069,0.037,0.097,4.914e-4,0,0,0,0,2.297e-4,0.025,15.6,190,88.694,0.008,1.791,13.892,993.3,339.717,0.05,0.031
1.941,180.367,200.598,115.032,200.626,115.06,1.723,-4.772e-6,1.723,-1.587e-4,3.338,2.546,28.591,-80.615,9.792,0.115,-7.48e-9,0.006,-3.571e-5,2.513e4,7419,23.562,0.094,270.7,228.6,2.708,0.591,4.996e7,3422.267,284.236,0.617,0.617,0.401,0.145,0.071,0.023,0.06,1.47e-4,0,0,0,0,4.626e-4,0.026,15.6,190,88.637,0.016,1.882,13.828,992.1,339.678,0.05,0.031
1.991,190.54,206.338,114.631,206.368,114.678,1.893,6.571e-6,1.893,1.989e-4,3.483,3.262,28.591,-80.615,9.792,0.017,9e-9,-0.007,-1.592e-4,2.506e4,7347,23.497,0.094,271.3,228.3,2.763,0.608,5.135e7,3420.795,301.346,0.619,0.619,0.401,0.146,0.072,0.003,0.01,-2.022e-5,0,0,0,0,-5.474e-4,0.026,15.6,190,88.522,0.023,1.805,13.761,990.9,339.638,0.05,0.032
2.041,201,212.04,113.845,212.072,113.91,2.072,2.648e-5,2.072,7.322e-4,3.662,3.865,28.591,-80.615,9.792,0.115,5.976e-9,-0.006,-3.576e-5,2.499e4,7275,23.433,0.094,271,228.1,2.762,0.625,5.272e7,3410.252,318.923,0.62,0.62,0.4,0.148,0.073,0.022,0.06,7.077e-5,0,0,0,0,-3.716e-4,0.027,15.6,190,88.407,0.024,1.826,13.694,989.7,339.597,0.05,0.032
2.091,211.743,217.692,112.841,217.726,112.924,2.26,5.571e-5,2.26,0.001,3.868,4.339,28.591,-80.615,9.792,0.172,7.37e-9,-0.003,-2.642e-5,2.492e4,7204,23.368,0.094,270.9,227.8,2.772,0.641,5.408e7,3394.752,336.899,0.622,0.623,0.399,0.15,0.074,0.035,0.098,2.142e-4,0,0,0,0,-1.286e-4,0.028,15.6,190,88.293,0.018,1.806,13.624,988.4,339.555,0.05,0.032
2.141,222.768,223.293,111.826,223.33,111.917,2.459,9.201e-5,2.459,0.002,4.091,4.514,28.591,-80.615,9.792,0.229,0,-3.183e-4,-1.13e-5,2.485e4,7133,23.303,0.094,271,227.5,2.794,0.658,5.543e7,3379.252,355.24,0.624,0.625,0.398,0.151,0.075,0.039,0.111,2.454e-6,0,0,0,0,-7.438e-7,0.029,15.6,190,88.293,0.01,1.777,13.552,987.1,339.511,0.05,0.033
2.191,234.071,228.843,110.807,228.884,110.885,2.669,1.319e-4,2.669,0.003,4.311,4.176,28.591,-80.615,9.791,0.115,0,0.003,-1.824e-6,2.478e4,7061,23.238,0.093,271.4,227.3,2.838,0.674,5.676e7,3363.752,373.923,0.626,0.627,0.397,0.153,0.076,0.027,0.076,9.922e-8,0,0,0,0,7.523e-5,0.029,15.6,190,88.293,0.005,1.88,13.479,985.8,339.467,0.05,0.033
2.241,245.651,234.337,109.666,234.38,109.722,2.889,1.73e-4,2.889,0.003,4.502,3.498,28.591,-80.615,9.791,0.029,7.06e-9,0.004,-3.03e-5,2.471e4,6991,23.174,0.093,272,227,2.893,0.691,5.807e7,3345.689,392.948,0.629,0.629,0.396,0.155,0.078,0.005,0.015,3.702e-4,0,0,0,0,1.699e-4,0.03,15.6,190,88.35,0.002,2.037,13.403,984.4,339.421,0.05,0.034
2.291,257.503,239.768,108.401,239.813,108.439,3.118,2.135e-4,3.118,0.004,4.66,2.888,28.591,-80.615,9.791,0.057,1.195e-8,-0.004,-2.585e-5,2.464e4,6921,23.109,0.093,272.1,226.7,2.916,0.707,5.936e7,3325.112,412.285,0.631,0.631,0.395,0.157,0.079,0.011,0.031,-4.336e-4,0,0,0,0,-1.363e-4,0.031,15.6,190,88.465,-0.002,2.072,13.326,983,339.375,0.05,0.034
2.341,269.626,245.135,107.111,245.182,107.14,3.355,2.515e-4,3.355,0.004,4.791,2.467,28.591,-80.615,9.791,0.115,0,-0.002,1.708e-6,2.457e4,6852,23.044,0.093,272.1,226.5,2.933,0.723,6.063e7,3304.535,431.903,0.633,0.633,0.394,0.158,0.08,0.02,0.058,-4.566e-5,0,0,0,0,-4.275e-5,0.031,15.6,190,88.522,-0.003,2.057,13.247,981.6,339.327,0.05,0.034
2.391,282.016,250.437,105.795,250.485,105.822,3.597,2.867e-4,3.597,0.005,4.91,2.415,28.591,-80.615,9.791,0.115,0,-7.587e-6,1.114e-5,2.45e4,6782,22.979,0.093,272.3,226.2,2.965,0.738,6.188e7,3283.958,451.762,0.635,0.635,0.393,0.16,0.081,0.018,0.054,4.749e-4,0,0,0,0,0,0.032,15.6,190,88.522,-0.002,1.958,13.167,980.2,339.278,0.05,0.035
2.441,294.668,255.671,104.439,255.721,104.472,3.846,3.205e-4,3.846,0.005,5.035,2.626,28.591,-80.615,9.791,0.055,0,0.002,-1.413e-5,2.443e4,6714,22.914,0.093,272.7,225.9,3.004,0.754,6.311e7,3263.185,471.855,0.637,0.637,0.392,0.162,0.083,0.01,0.031,-2.867e-4,0,0,0,0,2.243e-5,0.033,15.6,190,88.522,0.005,1.863,13.085,978.7,339.228,0.05,0.035
2.491,307.581,260.837,103.05,260.888,103.09,4.101,3.553e-4,4.101,0.005,5.172,2.85,28.591,-80.615,9.791,0.022,-6.229e-9,0.003,-2.052e-5,2.436e4,6646,22.85,0.093,273,225.7,3.042,0.769,6.432e7,3242.067,492.185,0.639,0.639,0.391,0.164,0.084,0.004,0.013,-1.301e-5,0,0,0,0,4.884e-5,0.033,15.6,190,88.465,0.01,1.899,13.001,977.2,339.177,0.05,0.035
2.541,320.751,265.933,101.647,265.986,101.691,4.363,3.937e-4,4.363,0.005,5.318,2.993,28.591,-80.615,9.791,0.008,6.248e-9,0.003,-6.681e-5,2.429e4,6578,22.785,0.093,273.2,225.4,3.073,0.784,6.551e7,3220.942,512.731,0.642,0.642,0.39,0.166,0.085,0.002,0.005,3.158e-4,0,0,0,0,6.122e-5,0.034,15.6,190,88.407,0.011,2.059,12.915,975.6,339.125,0.05,0.036
2.591,334.173,270.958,100.22,271.013,100.279,4.633,4.368e-4,4.633,0.005,5.478,3.442,28.591,-80.615,9.791,0.054,8.967e-9,-0.002,-2.531e-5,2.423e4,6510,22.72,0.093,273.3,225.2,3.094,0.799,6.667e7,3199.817,533.433,0.644,0.644,0.389,0.168,0.087,0.01,0.031,3.873e-4,0,0,0,0,-4.024e-5,0.035,15.6,190,88.35,0.01,1.976,12.828,974.1,339.073,0.05,0.036
2.641,347.845,275.912,98.791,275.97,98.853,4.911,4.837e-4,4.911,0.006,5.654,3.514,28.591,-80.615,9.791,0.057,5.535e-9,-6.366e-4,-1.767e-5,2.416e4,6443,22.656,0.093,273.5,224.9,3.122,0.814,6.782e7,3178.894,554.307,0.646,0.646,0.388,0.17,0.088,0.012,0.036,-1.191e-4,0,0,0,0,-2.504e-6,0.035,15.6,190,88.35,0.007,2.03,12.739,972.5,339.019,0.05,0.036
2.691,361.763,280.795,97.377,280.855,97.437,5.198,5.33e-4,5.198,0.006,5.828,3.427,28.591,-80.615,9.791,0.053,0,9.549e-4,-8.27e-6,2.409e4,6377,22.592,0.093,273.7,224.6,3.154,0.829,6.894e7,3158.59,575.313,0.648,0.648,0.387,0.172,0.089,0.01,0.032,-2.358e-4,0,0,0,0,6.288e-6,0.036,15.6,190,88.35,0.004,2.014,12.649,970.8,338.964,0.05,0.037
2.741,375.923,285.607,95.955,285.67,96.009,5.494,5.83e-4,5.494,0.006,5.995,3.238,28.591,-80.615,9.791,0.039,8.532e-9,0.002,7.14e-6,2.403e4,6310,22.528,0.093,274,224.4,3.188,0.843,7.004e7,3138.327,596.428,0.65,0.65,0.386,0.174,0.091,0.007,0.024,4.243e-4,0,0,0,0,3.656e-5,0.037,15.6,190,88.407,0.005,1.889,12.557,969.2,338.908,0.05,0.037
2.791,390.322,290.348,94.526,290.413,94.569,5.798,6.333e-4,5.798,0.006,6.147,2.848,28.591,-80.615,9.791,0.004,8.941e-9,0.003,-1.404e-4,2.396e4,6244,22.464,0.092,274.2,224.1,3.223,0.857,7.112e7,3118.065,617.648,0.653,0.653,0.385,0.175,0.092,7.155e-4,0.002,-2.522e-4,0,0,0,0,6.004e-5,0.037,15.6,190,88.407,0.005,1.786,12.463,967.5,338.851,0.05,0.038
2.841,404.956,295.017,93.07,295.083,93.098,6.108,6.842e-4,6.108,0.006,6.273,2.253,28.591,-80.615,9.791,0.056,0,-0.002,1.281e-6,2.39e4,6179,22.4,0.092,274.3,223.8,3.245,0.871,7.218e7,3097.437,638.977,0.655,0.655,0.384,0.177,0.093,0.011,0.034,-4.875e-4,0,0,0,0,-3.123e-5,0.038,15.6,190,88.465,0.003,1.842,12.368,965.8,338.794,0.05,0.038
2.891,419.822,299.608,91.51,299.675,91.53,6.424,7.344e-4,6.424,0.007,6.372,1.897,28.591,-80.615,9.791,0.115,0,3.183e-4,1.355e-6,2.383e4,6115,22.336,0.092,274.4,223.6,3.266,0.885,7.322e7,3074.814,660.352,0.657,0.657,0.383,0.179,0.095,0.017,0.056,-2.956e-4,0,0,0,0,9.101e-7,0.038,15.6,190,88.522,0.002,1.954,12.271,964,338.735,0.05,0.038
2.941,434.915,304.119,89.912,304.188,89.94,6.745,7.826e-4,6.745,0.007,6.471,2.236,28.591,-80.615,9.791,0.048,0,0.003,1.513e-5,2.377e4,6051,22.273,0.092,274.8,223.3,3.307,0.898,7.423e7,3051.891,681.699,0.66,0.66,0.382,0.181,0.096,0.009,0.03,-3.769e-4,0,0,0,0,5.31e-5,0.039,15.6,190,88.465,-8.766e-4,1.93,12.173,962.2,338.676,0.05,0.039
2.991,450.232,308.552,88.363,308.623,88.411,7.072,8.281e-4,7.072,0.007,6.599,2.902,28.591,-80.615,9.791,0.024,0,-0.004,4.681e-5,2.37e4,5986,22.209,0.092,275,223.1,3.341,0.912,7.522e7,3028.968,701.47,0.66,0.66,0.38,0.183,0.097,0.005,0.015,-1.115e-4,0,0,0,0,-6.575e-5,0.04,15.6,190,88.407,-0.004,1.868,12.073,960.4,338.615,0.05,0.039
3.041,465.769,312.907,86.808,312.98,86.869,7.406,8.69e-4,7.406,0.007,6.757,3.278,28.591,-80.615,9.791,0.057,1.403e-8,-0.002,-1.744e-5,2.364e4,5923,22.145,0.092,275.1,222.8,3.363,0.925,7.618e7,3005.743,720.97,0.661,0.661,0.377,0.185,0.099,0.012,0.04,-2.871e-4,0,0,0,0,-1.418e-5,0.04,15.6,190,88.35,-0.003,1.887,11.973,958.6,338.554,0.05,0.039
3.091,481.521,317.177,85.116,317.252,85.176,7.748,9.064e-4,7.748,0.007,6.922,3.217,28.591,-80.615,9.791,0.057,0,9.549e-4,2.453e-6,2.358e4,5861,22.083,0.092,275.4,222.6,3.394,0.937,7.712e7,2979.2,740.342,0.662,0.662,0.375,0.187,0.1,0.011,0.038,5.125e-5,0,0,0,0,4.229e-6,0.041,15.6,190,88.35,-3.411e-5,1.903,11.87,956.8,338.492,0.05,0.04
3.141,497.484,321.36,83.396,321.438,83.439,8.098,9.425e-4,8.098,0.007,7.071,2.698,28.591,-80.615,9.791,0.011,0,0.002,-1.649e-5,2.351e4,5799,22.02,0.092,275.8,222.3,3.437,0.95,7.804e7,2951.743,759.563,0.662,0.662,0.372,0.189,0.101,0.002,0.007,4.926e-4,0,0,0,0,2.889e-5,0.041,15.6,190,88.407,0.004,1.945,11.766,954.9,338.429,0.05,0.04
3.191,513.655,325.458,81.672,325.537,81.699,8.454,9.791e-4,8.454,0.007,7.188,2.097,28.591,-80.615,9.791,0.039,0,-0.002,1.537e-5,2.345e4,5737,21.957,0.092,275.9,222,3.462,0.962,7.894e7,2924.286,778.694,0.663,0.663,0.37,0.191,0.103,0.008,0.027,6.711e-6,0,0,0,0,-1.435e-5,0.042,15.6,190,88.407,9.007e-4,2.005,11.661,953.1,338.366,0.05,0.04
3.241,530.028,329.464,79.821,329.544,79.843,8.816,0.001,8.816,0.007,7.283,1.896,28.591,-80.615,9.791,0.051,0,4.775e-4,-3.35e-6,2.339e4,5676,21.895,0.092,276.1,221.8,3.492,0.974,7.981e7,2894.264,797.623,0.664,0.664,0.367,0.193,0.104,0.01,0.035,-9.141e-5,0,0,0,0,1.296e-6,0.042,15.6,190,88.465,-6.589e-4,2.023,11.555,951.3,338.301,0.05,0.041
3.291,546.595,333.203,74.503,333.285,74.534,9.182,0.001,9.182,0.007,7.378,2.158,28.591,-80.615,9.791,0.014,7.643e-9,0.002,-6.339e-5,2.334e4,5622,21.84,0.092,276.5,221.6,3.531,0.986,8.061e7,2783.299,815.418,0.664,0.664,0.365,0.195,0.105,0.003,0.01,-3.456e-4,0,0,0,0,2.191e-5,0.043,15.6,190,88.407,0.008,1.966,11.447,949.4,338.236,0.05,0.041
3.341,563.34,336.595,67.57,336.678,67.613,9.554,0.001,9.554,0.007,7.489,2.392,28.591,-80.615,9.79,0.022,0,-0.002,-1.533e-5,2.328e4,5567,21.784,0.092,276.8,221.3,3.563,0.996,8.133e7,2633.751,831.638,0.665,0.665,0.363,0.196,0.106,0.004,0.015,3.319e-4,0,0,0,0,-1.618e-5,0.043,15.6,190,88.35,0.021,1.963,11.338,947.5,338.17,0.05,0.042
3.391,580.246,339.637,60.402,339.722,60.442,9.931,0.001,9.931,0.007,7.603,2.213,28.591,-80.615,9.79,0.021,-7.03e-9,-6.366e-4,1.35e-5,2.323e4,5513,21.728,0.092,277,221.1,3.592,1.005,8.196e7,2484.202,852.862,0.671,0.671,0.361,0.204,0.106,0.004,0.015,-4.08e-5,0,0,0,0,-1.741e-6,0.043,15.6,190,88.35,0.019,2.086,11.228,945.6,338.103,0.05,0.042
3.441,597.295,342.314,53.113,342.401,53.152,10.314,0.001,10.314,0.007,7.706,2.036,28.591,-80.615,9.79,0.024,0,4.775e-4,2.833e-6,2.318e4,5459,21.672,0.092,277.1,220.9,3.618,1.013,8.249e7,2334.619,876.02,0.68,0.68,0.359,0.215,0.105,0.005,0.017,-4.589e-5,0,0,0,0,9.017e-7,0.044,15.6,190,88.35,0.005,2.047,11.118,943.7,338.036,0.05,0.042
3.491,614.467,344.587,45.081,344.675,45.114,10.702,0.001,10.702,0.007,7.796,1.725,28.591,-80.615,9.79,0.018,7.832e-9,0.002,-7.052e-5,2.314e4,5420,21.631,0.091,277.3,220.7,3.64,1.02,8.293e7,2165.949,895.809,0.687,0.687,0.358,0.225,0.105,0.004,0.013,3.885e-4,0,0,0,0,1.381e-5,0.044,15.6,190,88.35,-0.01,1.919,11.006,941.8,337.969,0.05,0.043
3.541,631.743,346.43,36.626,346.519,36.643,11.093,0.001,11.093,0.007,7.861,1.097,28.591,-80.615,9.79,0.013,-1.439e-8,-0.002,-3.503e-5,2.31e4,5380,21.589,0.091,277.6,220.5,3.668,1.026,8.326e7,1981.249,908.874,0.691,0.691,0.357,0.23,0.104,0.003,0.009,-1.098e-4,0,0,0,0,-1.58e-5,0.044,15.6,190,88.407,-0.013,1.885,10.894,939.9,337.9,0.05,0.043
3.591,649.1,347.853,28.28,347.943,28.285,11.487,0.001,11.487,0.007,7.893,0.51,28.591,-80.615,9.79,0.043,0,-1.592e-4,-4.693e-5,2.306e4,5340,21.547,0.091,277.6,220.4,3.678,1.03,8.349e7,1796.55,918.753,0.694,0.694,0.356,0.234,0.104,0.009,0.032,3.059e-4,0,0,0,0,-1.671e-7,0.045,15.6,190,88.407,0.002,1.957,10.781,938,337.832,0.05,0.043
3.641,666.518,348.861,20.028,348.95,20.038,11.882,0.001,11.882,0.007,7.912,0.637,28.591,-80.615,9.79,0.013,-1.527e-8,0.002,-7.043e-5,2.302e4,5301,21.506,0.091,277.8,220.2,3.702,1.033,8.362e7,1611.85,925.347,0.696,0.696,0.355,0.237,0.103,0.003,0.009,4.886e-4,0,0,0,0,1.159e-5,0.045,15.6,190,88.407,0.021,1.871,10.668,936,337.763,0.05,0.044
3.691,683.976,349.468,12.077,349.558,12.099,12.278,0.001,12.278,0.007,7.942,0.73,28.591,-80.615,9.79,0.013,0,-0.001,-5.278e-5,2.299e4,5275,21.478,0.091,278,220.1,3.72,1.035,8.365e7,1431.87,928.804,0.697,0.697,0.355,0.239,0.103,0.003,0.01,-1.776e-4,0,0,0,0,-8.309e-6,0.045,15.6,190,88.35,0.033,1.876,10.554,934.1,337.695,0.05,0.044
3.741,701.455,349.696,4.56,349.787,4.602,12.676,0.002,12.676,0.007,7.973,0.621,28.591,-80.615,9.79,0.022,0,-3.183e-4,2.026e-6,2.297e4,5251,21.453,0.091,277.9,220,3.723,1.036,8.359e7,1259.141,929.249,0.698,0.698,0.355,0.24,0.103,0.004,0.016,3.482e-4,0,0,0,0,-5.302e-7,0.045,15.6,190,88.35,0.034,1.91,10.441,932.1,337.626,0.05,0.045
3.791,718.937,349.551,-2.83,349.643,2.833,13.075,0.002,13.075,0.007,7.988,0.126,28.591,-80.615,9.79,0.002,0,-3.183e-4,4.717e-5,2.294e4,5227,21.428,0.091,278,219.9,3.735,1.036,8.344e7,1086.492,926.745,0.698,0.698,0.355,0.24,0.103,4.973e-4,0.002,-3.96e-4,0,0,0,0,-2.995e-7,0.045,15.6,190,88.35,0.013,2.038,10.327,930.1,337.557,0.05,0.045
3.841,736.401,349.04,-10.114,349.131,10.115,13.475,0.002,13.475,0.007,7.981,0.135,28.591,-80.615,9.79,0.007,0,1.523e-4,4.407e-5,2.292e4,5203,21.402,0.091,278,219.8,3.745,1.035,8.32e7,913.843,921.312,0.697,0.697,0.355,0.239,0.103,0.001,0.005,-4.578e-4,0,0,0,0,9.972e-8,0.045,15.6,190,88.35,-0.016,2.047,10.213,928.2,337.488,0.05,0.045
3.891,753.832,348.19,-16.821,348.281,16.828,13.873,0.002,13.873,0.007,7.96,0.481,28.591,-80.615,9.79,0.02,8.337e-9,9.549e-4,4.611e-5,2.29e4,5189,21.387,0.091,277.8,219.7,3.734,1.032,8.289e7,752.043,913.274,0.695,0.695,0.355,0.237,0.103,0.004,0.016,1.376e-4,0,0,0,0,3.363e-6,0.045,15.6,190,88.35,-0.027,2.175,10.1,926.2,337.42,0.05,0.046
3.941,771.213,347.07,-22.191,347.16,22.196,14.27,0.002,14.27,0.007,7.93,0.473,28.591,-80.615,9.79,0.006,0,0.002,8.317e-5,2.289e4,5178,21.375,0.091,277.8,219.7,3.738,1.029,8.251e7,619.113,903.17,0.693,0.693,0.356,0.234,0.104,0.001,0.005,-4.504e-4,0,0,0,0,1.334e-5,0.044,15.6,190,88.35,-0.012,2.238,9.987,924.3,337.351,0.05,0.046
3.991,788.532,345.686,-27.415,345.777,27.418,14.666,0.002,14.666,0.007,7.903,0.46,28.591,-80.615,9.79,0.01,0,-0.002,-1.353e-5,2.288e4,5167,21.364,0.091,277.6,219.6,3.729,1.025,8.206e7,487.744,891.132,0.69,0.69,0.357,0.23,0.104,0.002,0.007,-4.807e-5,0,0,0,0,-1.126e-5,0.044,15.6,190,88.293,0.014,2.315,9.875,922.4,337.283,0.05,0.046
4.041,805.775,344.043,-32.562,344.134,32.565,15.061,0.002,15.061,0.007,7.879,0.417,28.591,-80.615,9.79,0.028,0,-4.775e-4,-1.585e-5,2.287e4,5157,21.353,0.091,277.4,219.6,3.718,1.021,8.156e7,356.375,877.23,0.687,0.687,0.358,0.225,0.104,0.006,0.021,3.926e-4,0,0,0,0,-1.015e-6,0.044,15.6,190,88.293,0.025,2.299,9.762,920.4,337.215,0.05,0.047
4.091,822.93,342.151,-37.448,342.241,37.452,15.454,0.002,15.454,0.007,7.853,0.52,28.591,-80.615,9.79,0.032,-7.398e-9,0.001,-3.786e-5,2.287e4,5150,21.346,0.091,277.2,219.5,3.708,1.015,8.1e7,226.759,859.226,0.682,0.682,0.359,0.218,0.105,0.006,0.024,2.977e-4,0,0,0,0,7.42e-6,0.044,15.6,190,88.293,0.014,2.193,9.651,918.5,337.147,0.05,0.047
4.141,839.984,340.036,-41.873,340.125,41.886,15.846,0.002,15.846,0.007,7.812,1.036,28.591,-80.615,9.79,0.005,0,-0.002,-6.7e-5,2.286e4,5148,21.344,0.091,277.2,219.5,3.706,1.009,8.039e7,105.336,839.204,0.675,0.675,0.36,0.21,0.106,9.416e-4,0.004,4.825e-4,0,0,0,0,-2.016e-5,0.044,15.6,190,88.293,-0.002,2.196,9.54,916.6,337.08,0.05,0.047
4.16,846.352,339.186,-45.141,339.275,45.16,15.992,0.002,15.992,0.007,7.789,1.314,28.591,-80.615,9.79,0.023,0,-0.002,-2.911e-5,2.286e4,5147,21.343,0.091,277,219.5,3.696,1.007,8.015e7,22.572,831.295,0.673,0.673,0.361,0.206,0.106,0.004,0.017,-2.17e-4,0,0,0,0,-1.83e-5,0.043,15.6,190,88.35,-0.003,2.207,9.499,915.9,337.055,0.019,0.048
4.188,855.874,337.896,-45.603,337.985,45.628,16.21,0.002,16.21,0.007,7.748,1.505,28.591,-80.615,9.79,0.041,0,-0.001,7.076e-6,2.286e4,5147,21.343,0.091,276.8,219.5,3.685,1.003,7.978e7,0,819.4,0.669,0.669,0.361,0.201,0.106,0.008,0.03,-3.288e-4,0,0,0,0,-4.948e-6,0.043,15.6,190,88.35,-0.003,2.225,9.437,914.8,337.018,0.028,0.048
4.23,870.088,335.987,-44.952,336.075,44.978,16.536,0.002,16.536,0.007,7.683,1.539,28.591,-80.615,9.79,0.046,0,9.549e-4,1.679e-5,2.286e4,5147,21.343,0.091,276.7,219.5,3.674,0.998,7.924e7,0,804.534,0.665,0.665,0.362,0.196,0.106,0.009,0.034,4.67e-4,0,0,0,0,3.782e-6,0.043,15.6,190,88.35,-0.002,2.27,9.344,913.3,336.962,0.042,0.049
4.28,886.832,333.753,-44.417,333.84,44.43,16.918,0.002,16.918,0.007,7.614,1.065,28.591,-80.615,9.79,4.937e-4,0,0.002,-0.002,2.286e4,5147,21.343,0.091,275.9,219.5,3.627,0.991,7.86e7,0,792.009,0.665,0.665,0.364,0.195,0.106,9.744e-5,6.978e-4,1.087e-5,0,0,0,0,1.72e-5,0.043,15.6,190,88.293,0.016,2.202,9.236,911.4,336.896,0.05,0.049
4.33,903.464,331.546,-43.89,331.632,43.897,17.298,0.002,17.298,0.007,7.573,0.787,28.591,-80.615,9.789,0.028,-7.862e-9,-0.001,9.541e-6,2.286e4,5147,21.343,0.091,276.5,219.5,3.661,0.985,7.798e7,0,779.783,0.664,0.664,0.365,0.194,0.105,0.005,0.02,-9.025e-5,0,0,0,0,-6.34e-6,0.042,15.6,190,88.293,0.031,2.204,9.127,909.5,336.83,0.05,0.049
4.38,919.987,329.364,-43.368,329.45,43.375,17.675,0.002,17.675,0.008,7.535,0.774,28.591,-80.615,9.789,0.029,0,-1.057e-6,-1.393e-5,2.286e4,5147,21.343,0.091,276.3,219.5,3.651,0.978,7.736e7,0,767.83,0.664,0.664,0.366,0.193,0.104,0.006,0.021,-2.801e-4,0,0,0,0,0,0.042,15.6,190,88.293,0.033,2.257,9.02,907.7,336.765,0.05,0.05
4.43,936.401,327.209,-42.85,327.295,42.861,18.051,0.002,18.051,0.008,7.493,0.966,28.591,-80.615,9.789,0.007,0,9.549e-4,-5.457e-7,2.286e4,5147,21.343,0.091,276.3,219.5,3.648,0.972,7.675e7,0,756.132,0.664,0.664,0.368,0.192,0.104,0.001,0.005,-3.203e-4,0,0,0,0,5.022e-6,0.042,15.6,190,88.293,0.022,2.293,8.913,905.9,336.7,0.05,0.05
4.48,952.708,325.079,-42.346,325.164,42.359,18.425,0.003,18.425,0.008,7.44,1.051,28.591,-80.615,9.789,0.004,0,-7.958e-4,-2.811e-5,2.286e4,5147,21.343,0.091,276.3,219.5,3.648,0.966,7.615e7,0,744.676,0.663,0.663,0.369,0.191,0.103,8.504e-4,0.003,-1.439e-4,0,0,0,0,-3.143e-6,0.042,15.6,190,88.293,0.001,2.25,8.807,904,336.636,0.05,0.051
4.53,968.909,322.974,-41.853,323.058,41.868,18.795,0.003,18.795,0.008,7.385,1.142,28.591,-80.615,9.789,0.017,0,-6.366e-4,-3.641e-5,2.286e4,5147,21.343,0.091,276,219.5,3.63,0.96,7.556e7,0,733.467,0.663,0.663,0.37,0.191,0.102,0.003,0.012,-1.823e-4,0,0,0,0,-1.682e-6,0.041,15.6,190,88.293,-0.012,2.225,8.702,902.2,336.572,0.05,0.051
4.58,985.006,320.893,-41.373,320.977,41.389,19.163,0.003,19.163,0.008,7.328,1.119,28.591,-80.615,9.789,0.016,0,3.183e-4,-3.28e-5,2.286e4,5147,21.343,0.091,275.9,219.5,3.623,0.954,7.497e7,0,722.496,0.662,0.662,0.371,0.19,0.102,0.003,0.012,1.973e-4,0,0,0,0,5.464e-7,0.041,15.6,190,88.293,-0.003,2.215,8.597,900.4,336.509,0.05,0.051
4.63,1000.999,318.836,-40.91,318.919,40.919,19.528,0.003,19.528,0.008,7.276,0.897,28.591,-80.615,9.789,0.007,0,-6.366e-4,1.281e-5,2.286e4,5147,21.343,0.091,275.8,219.5,3.62,0.948,7.439e7,0,711.749,0.662,0.662,0.372,0.189,0.101,0.001,0.005,-2.415e-4,0,0,0,0,-2.413e-6,0.041,15.6,190,88.293,0.02,2.128,8.494,898.6,336.446,0.05,0.052
4.68,1016.89,316.802,-40.455,316.885,40.463,19.891,0.003,19.891,0.008,7.236,0.813,28.591,-80.615,9.789,0.016,0,1.169e-4,2.87e-5,2.286e4,5147,21.343,0.091,275.7,219.5,3.612,0.942,7.383e7,0,701.294,0.662,0.662,0.374,0.188,0.1,0.003,0.011,-1.717e-4,0,0,0,0,7.134e-8,0.041,15.6,190,88.293,0.043,2.09,8.39,896.9,336.383,0.05,0.052
4.73,1032.679,314.791,-40.009,314.873,40.015,20.252,0.003,20.252,0.008,7.197,0.693,28.591,-80.615,9.789,0.028,0,6.366e-4,1.824e-5,2.286e4,5147,21.343,0.091,275.5,219.5,3.6,0.936,7.327e7,0,691.043,0.662,0.662,0.375,0.187,0.1,0.005,0.019,2.092e-4,0,0,0,0,2.145e-6,0.04,15.6,190,88.293,0.049,1.973,8.288,895.3,336.321,0.05,0.052
4.78,1048.369,312.801,-39.564,312.883,39.574,20.611,0.003,20.611,0.009,7.161,0.906,28.591,-80.615,9.789,3.84e-4,1.067e-8,0.002,0.001,2.286e4,5147,21.343,0.091,276.2,219.5,3.644,0.931,7.272e7,0,681.01,0.661,0.661,0.376,0.186,0.099,7.299e-5,2.589e-4,-6.466e-5,0,0,0,0,1.241e-5,0.04,15.6,190,88.35,0.031,1.957,8.186,893.6,336.259,0.05,0.053
4.83,1063.96,310.834,-39.128,310.915,39.144,20.967,0.003,20.967,0.009,7.108,1.115,28.591,-80.615,9.789,0.027,8.574e-9,-9.549e-4,3.277e-6,2.286e4,5147,21.343,0.091,275.3,219.5,3.585,0.925,7.217e7,0,671.187,0.661,0.661,0.377,0.185,0.099,0.005,0.019,4.841e-4,0,0,0,0,-4.322e-6,0.04,15.6,190,88.35,0.001,1.98,8.084,891.9,336.198,0.05,0.053
4.88,1079.453,308.888,-38.707,308.969,38.722,21.321,0.003,21.321,0.009,7.051,1.095,28.591,-80.615,9.789,0.027,0,1.592e-4,-1.016e-5,2.286e4,5147,21.343,0.091,275.2,219.5,3.579,0.919,7.163e7,0,661.549,0.661,0.661,0.378,0.184,0.098,0.005,0.019,3.076e-4,0,0,0,0,2.225e-7,0.04,15.6,190,88.35,-0.007,1.935,7.984,890.3,336.137,0.05,0.053
4.93,1094.849,306.963,-38.296,307.043,38.31,21.673,0.003,21.673,0.009,6.998,1.036,28.591,-80.615,9.789,0.021,0,9.549e-4,-1.794e-5,2.286e4,5147,21.343,0.091,275.1,219.5,3.575,0.914,7.11e7,0,652.111,0.66,0.66,0.379,0.184,0.097,0.004,0.015,-2.024e-4,0,0,0,0,5.691e-6,0.039,15.6,190,88.35,0.009,1.962,7.883,888.7,336.076,0.05,0.054
4.98,1110.15,305.059,-37.893,305.138,37.905,22.021,0.004,22.021,0.009,6.948,0.966,28.591,-80.615,9.789,0.013,1.537e-8,0.002,-7.595e-5,2.286e4,5147,21.343,0.091,275,219.5,3.565,0.908,7.057e7,0,642.866,0.66,0.66,0.381,0.183,0.097,0.002,0.008,4.556e-5,0,0,0,0,1.743e-5,0.039,15.6,190,88.35,0.028,2.058,7.784,887,336.016,0.05,0.054
5.03,1125.355,303.174,-37.504,303.252,37.51,22.367,0.004,22.367,0.01,6.905,0.702,28.591,-80.615,9.789,0.021,5.548e-9,-0.002,-6.54e-5,2.286e4,5147,21.343,0.091,275,219.5,3.565,0.903,7.006e7,0,633.789,0.66,0.66,0.382,0.182,0.096,0.004,0.014,1.34e-5,0,0,0,0,-1.964e-5,0.039,15.6,190,88.293,0.034,2.05,7.685,885.4,335.956,0.05,0.055
5.08,1140.467,301.308,-37.107,301.387,37.11,22.712,0.004,22.712,0.01,6.877,0.451,28.591,-80.615,9.789,0.052,0,-3.183e-4,-2.61e-5,2.286e4,5147,21.343,0.091,274.7,219.5,3.549,0.897,6.954e7,0,624.564,0.659,0.659,0.382,0.181,0.096,0.01,0.035,-2.384e-5,0,0,0,0,-6.153e-7,0.039,15.6,190,88.293,0.026,1.953,7.587,883.8,335.897,0.05,0.055
5.13,1155.487,299.463,-36.694,299.542,36.698,23.055,0.004,23.055,0.01,6.855,0.566,28.591,-80.615,9.789,0.036,-1.063e-8,0.002,-3.621e-5,2.286e4,5147,21.343,0.091,274.7,219.5,3.548,0.892,6.903e7,0,615.196,0.658,0.658,0.383,0.18,0.095,0.007,0.024,3.51e-4,0,0,0,0,1.555e-5,0.038,15.6,190,88.293,0.011,1.943,7.489,882.2,335.837,0.05,0.055
5.18,1170.414,297.639,-36.285,297.717,36.294,23.397,0.004,23.397,0.01,6.82,0.821,28.591,-80.615,9.789,8.692e-4,1.671e-8,-0.001,-0.002,2.286e4,5147,21.343,0.091,275.5,219.5,3.596,0.887,6.853e7,0,606.022,0.658,0.658,0.383,0.18,0.095,1.644e-4,6.64e-4,2.756e-4,0,0,0,0,-7.374e-6,0.038,15.6,190,88.293,-6.658e-4,1.939,7.392,880.6,335.779,0.05,0.056
5.23,1185.251,295.835,-35.884,295.912,35.901,23.737,0.004,23.737,0.01,6.772,1.086,28.591,-80.615,9.789,0.039,1.11e-8,-0.002,-5.362e-5,2.286e4,5147,21.343,0.091,274.6,219.5,3.538,0.882,6.804e7,0,597.044,0.657,0.657,0.384,0.179,0.094,0.007,0.026,-4.508e-4,0,0,0,0,-1.415e-5,0.038,15.6,190,88.35,-4.187e-4,1.95,7.296,879,335.72,0.05,0.056
5.28,1199.998,294.05,-35.496,294.127,35.517,24.074,0.004,24.074,0.01,6.712,1.232,28.591,-80.615,9.789,0.057,0,3.183e-4,-3.723e-6,2.286e4,5147,21.343,0.091,274.4,219.5,3.527,0.876,6.755e7,0,588.256,0.656,0.656,0.384,0.178,0.094,0.012,0.041,-2.011e-4,0,0,0,0,7.661e-7,0.038,15.6,190,88.35,0.007,2.017,7.2,877.5,335.662,0.05,0.056
5.33,1214.656,292.285,-35.123,292.361,35.139,24.408,0.004,24.408,0.01,6.653,1.053,28.591,-80.615,9.788,0.038,0,0.002,-1.463e-5,2.286e4,5147,21.343,0.091,274.4,219.5,3.527,0.871,6.706e7,0,579.63,0.655,0.655,0.384,0.177,0.093,0.007,0.025,-1.364e-5,0,0,0,0,3.308e-5,0.037,15.6,190,88.35,0.014,2.035,7.105,875.9,335.604,0.05,0.057
5.38,1229.227,290.538,-34.764,290.613,34.771,24.74,0.005,24.74,0.011,6.61,0.67,28.591,-80.615,9.788,0.016,0,-0.003,1.112e-5,2.286e4,5147,21.343,0.091,274.4,219.5,3.527,0.866,6.658e7,0,571.172,0.654,0.654,0.385,0.177,0.093,0.003,0.011,-3.841e-4,0,0,0,0,-4.61e-5,0.037,15.6,190,88.293,0.016,1.99,7.01,874.4,335.547,0.05,0.057
5.43,1243.71,288.808,-34.407,288.883,34.411,25.07,0.005,25.07,0.011,6.584,0.494,28.591,-80.615,9.788,0.041,8.862e-9,-0.001,-1.254e-5,2.286e4,5147,21.343,0.091,274.2,219.5,3.517,0.861,6.611e7,0,562.897,0.653,0.653,0.385,0.176,0.092,0.008,0.028,2.585e-4,0,0,0,0,-1.311e-5,0.037,15.6,190,88.236,0.017,2.035,6.916,872.8,335.49,0.05,0.057
5.48,1258.108,287.097,-34.049,287.172,34.055,25.398,0.005,25.398,0.011,6.558,0.615,28.591,-80.615,9.788,0.024,8.267e-9,-3.183e-4,-1.2e-5,2.286e4,5147,21.343,0.091,274.2,219.5,3.516,0.856,6.564e7,0,554.793,0.653,0.653,0.385,0.175,0.092,0.005,0.016,2.554e-4,0,0,0,0,-6.805e-7,0.037,15.6,190,88.236,0.018,2.183,6.822,871.3,335.433,0.05,0.058
5.53,1272.42,285.403,-33.7,285.478,33.706,25.725,0.005,25.725,0.011,6.524,0.638,28.591,-80.615,9.788,0.02,0,6.123e-5,5.683e-6,2.286e4,5147,21.343,0.091,274.2,219.5,3.513,0.851,6.518e7,0,546.833,0.652,0.652,0.386,0.175,0.091,0.004,0.013,-2.867e-4,0,0,0,0,2.41e-8,0.037,15.6,190,88.236,0.017,2.197,6.729,869.8,335.377,0.05,0.058
5.58,1286.648,283.727,-33.358,283.801,33.364,26.051,0.005,26.051,0.011,6.493,0.619,28.591,-80.615,9.788,0.02,0,9.549e-4,-2.494e-6,2.286e4,5147,21.343,0.091,274.1,219.5,3.509,0.847,6.472e7,0,539.015,0.651,0.651,0.386,0.174,0.091,0.004,0.014,1.555e-4,0,0,0,0,5.138e-6,0.036,15.6,190,88.236,0.021,2.115,6.637,868.3,335.321,0.05,0.058
5.63,1300.793,282.067,-33.019,282.141,33.028,26.374,0.005,26.374,0.011,6.46,0.758,28.591,-80.615,9.788,0.003,8.862e-9,-0.001,1.846e-5,2.286e4,5147,21.343,0.091,274.1,219.5,3.506,0.842,6.427e7,0,531.356,0.65,0.65,0.386,0.173,0.09,4.774e-4,0.002,4.42e-4,0,0,0,0,-1.121e-5,0.036,15.6,190,88.236,0.021,2.111,6.545,866.7,335.265,0.05,0.059
5.68,1314.855,280.425,-32.685,280.498,32.699,26.696,0.005,26.696,0.011,6.417,0.954,28.591,-80.615,9.788,0.034,0,-6.366e-4,2.394e-5,2.286e4,5147,21.343,0.091,273.9,219.5,3.495,0.837,6.383e7,0,523.855,0.65,0.65,0.387,0.173,0.09,0.007,0.023,-1.787e-4,0,0,0,0,-2.967e-6,0.036,15.6,190,88.293,0.018,2.174,6.453,865.3,335.21,0.05,0.059
5.73,1328.836,278.799,-32.365,278.871,32.376,27.016,0.005,27.016,0.011,6.368,0.849,28.591,-80.615,9.788,0.021,7.237e-9,4.775e-4,-1.534e-6,2.286e4,5147,21.343,0.091,273.9,219.5,3.494,0.832,6.338e7,0,516.476,0.649,0.649,0.387,0.172,0.09,0.004,0.014,2.28e-4,0,0,0,0,2.012e-6,0.036,15.6,190,88.293,0.015,2.099,6.363,863.8,335.155,0.05,0.06
5.78,1342.735,277.188,-32.052,277.261,32.06,27.333,0.006,27.333,0.012,6.33,0.736,28.591,-80.615,9.788,0.004,6.595e-9,6.366e-4,-4.205e-5,2.286e4,5147,21.343,0.091,273.8,219.5,3.491,0.828,6.294e7,0,509.239,0.648,0.648,0.387,0.171,0.089,8.486e-4,0.003,1.893e-4,0,0,0,0,2.297e-6,0.036,15.6,190,88.293,0.02,2.051,6.272,862.3,335.1,0.05,0.06
5.83,1356.555,275.593,-31.742,275.665,31.75,27.649,0.006,27.649,0.012,6.295,0.708,28.591,-80.615,9.788,8.256e-4,7.038e-9,6.366e-4,-1.592e-4,2.286e4,5147,21.343,0.091,273.4,219.5,3.463,0.823,6.251e7,0,502.149,0.647,0.647,0.388,0.171,0.089,1.573e-4,1.481e-4,-4.737e-5,0,0,0,0,3.339e-6,0.035,15.6,190,88.236,0.028,2.09,6.182,860.8,335.045,0.05,0.06
5.88,1370.295,274.014,-31.438,274.085,31.446,27.963,0.006,27.963,0.012,6.26,0.699,28.591,-80.615,9.788,2.508e-4,5.351e-9,1.592e-4,-6.366e-4,2.286e4,5147,21.343,0.091,273.3,219.5,3.457,0.818,6.208e7,0,495.191,0.647,0.647,0.388,0.17,0.088,4.78e-5,-3.284e-4,-3.005e-4,0,0,0,0,3.947e-7,0.035,15.6,190,88.236,0.025,2.138,6.093,859.4,334.991,0.05,0.061
5.93,1383.957,272.45,-31.141,272.521,31.147,28.275,0.006,28.275,0.012,6.226,0.622,28.591,-80.615,9.788,0.011,5.344e-9,-6.366e-4,-1.728e-5,2.286e4,5147,21.343,0.091,273.6,219.5,3.479,0.814,6.166e7,0,488.355,0.646,0.646,0.388,0.17,0.088,0.002,0.008,-4.247e-5,0,0,0,0,-3.098e-6,0.035,15.6,190,88.236,0.016,2.13,6.004,857.9,334.937,0.05,0.061
5.98,1397.54,270.9,-30.848,270.971,30.854,28.586,0.006,28.586,0.012,6.196,0.613,28.591,-80.615,9.788,0.012,0,-1.592e-4,5.298e-6,2.286e4,5147,21.343,0.091,273.5,219.5,3.472,0.809,6.124e7,0,481.646,0.645,0.645,0.389,0.169,0.087,0.002,0.008,-4.261e-4,0,0,0,0,-2.065e-7,0.035,15.6,190,88.236,0.005,2.142,5.916,856.5,334.884,0.05,0.061
6.03,1411.047,269.365,-30.557,269.435,30.565,28.895,0.006,28.895,0.012,6.164,0.679,28.591,-80.615,9.788,3.282e-4,0,2.268e-5,8.017e-6,2.286e4,5147,21.343,0.091,273.7,219.5,3.483,0.805,6.083e7,0,475.063,0.645,0.645,0.389,0.168,0.087,6.196e-5,6.737e-4,-1.353e-4,0,0,0,0,0,0.034,15.6,190,88.236,0.005,2.195,5.828,855,334.831,0.05,0.062
6.08,1424.477,267.844,-30.273,267.914,30.282,29.202,0.006,29.202,0.012,6.128,0.713,28.591,-80.615,9.788,0.007,5.195e-9,1.592e-4,-4.399e-5,2.286e4,5147,21.343,0.091,273.5,219.5,3.468,0.8,6.042e7,0,468.596,0.644,0.644,0.389,0.168,0.087,0.001,0.005,-1.979e-4,0,0,0,0,2.325e-7,0.034,15.6,190,88.236,0.018,2.223,5.741,853.6,334.778,0.05,0.062
6.13,1437.831,266.337,-29.996,266.407,30.004,29.507,0.006,29.507,0.013,6.093,0.702,28.591,-80.615,9.788,0.007,5.346e-9,3.183e-4,-5.095e-5,2.286e4,5147,21.343,0.091,273.3,219.5,3.458,0.796,6.001e7,0,462.243,0.643,0.643,0.39,0.167,0.086,0.001,0.004,3.532e-4,0,0,0,0,9.707e-7,0.034,15.6,190,88.236,0.033,2.23,5.654,852.2,334.725,0.05,0.062
6.18,1451.111,264.844,-29.723,264.914,29.731,29.811,0.007,29.811,0.013,6.058,0.694,28.591,-80.615,9.788,0.006,7.428e-9,4.775e-4,-5.612e-5,2.286e4,5147,21.343,0.091,273.2,219.5,3.449,0.792,5.961e7,0,456.004,0.643,0.643,0.39,0.167,0.086,0.001,0.004,3.343e-4,0,0,0,0,1.933e-6,0.034,15.6,190,88.236,0.044,2.254,5.568,850.8,334.673,0.05,0.063
6.23,1464.316,263.365,-29.457,263.434,29.463,30.113,0.007,30.113,0.013,6.025,0.608,28.591,-80.615,9.788,0.008,0,-6.366e-4,-4.846e-5,2.286e4,5147,21.343,0.091,273.4,219.5,3.465,0.787,5.921e7,0,449.87,0.642,0.642,0.39,0.166,0.086,0.001,0.005,3.929e-4,0,0,0,0,-3.059e-6,0.034,15.6,190,88.178,0.044,2.227,5.482,849.4,334.621,0.05,0.063
6.28,1477.448,261.899,-29.195,261.967,29.2,30.414,0.007,30.414,0.013,5.997,0.548,28.591,-80.615,9.788,0.017,6.035e-9,-1.592e-4,-4.569e-5,2.286e4,5147,21.343,0.091,273.2,219.5,3.453,0.783,5.882e7,0,443.843,0.641,0.641,0.39,0.166,0.085,0.003,0.012,-1.88e-5,0,0,0,0,-2.254e-7,0.034,15.6,190,88.178,0.033,2.195,5.397,848,334.569,0.05,0.064
6.33,1490.506,260.445,-28.935,260.514,28.941,30.713,0.007,30.713,0.013,5.969,0.582,28.591,-80.615,9.788,0.01,0,1.592e-4,-4.159e-5,2.286e4,5147,21.343,0.091,273.2,219.5,3.448,0.779,5.843e7,0,437.926,0.641,0.641,0.391,0.165,0.085,0.002,0.007,4.351e-4,0,0,0,0,3.864e-7,0.033,15.6,190,88.178,0.016,2.212,5.312,846.6,334.518,0.05,0.064
6.38,1503.492,259.005,-28.677,259.073,28.686,31.011,0.007,31.011,0.013,5.937,0.728,28.591,-80.615,9.788,0.018,0,-1.592e-4,2.621e-5,2.286e4,5147,21.343,0.091,273.1,219.5,3.447,0.775,5.804e7,0,432.13,0.64,0.64,0.391,0.165,0.084,0.003,0.012,-4.796e-4,0,0,0,0,-2.986e-7,0.033,15.6,190,88.178,0.001,2.307,5.227,845.2,334.467,0.05,0.064
6.43,1516.407,257.578,-28.427,257.645,28.437,31.306,0.007,31.306,0.013,5.898,0.769,28.591,-80.615,9.788,0.027,5.846e-9,6.366e-4,1.755e-5,2.286e4,5147,21.343,0.091,273.1,219.5,3.441,0.771,5.766e7,0,426.453,0.64,0.64,0.391,0.164,0.084,0.005,0.017,6.087e-5,0,0,0,0,2.525e-6,0.033,15.6,190,88.178,-0.008,2.357,5.143,843.9,334.416,0.05,0.065
6.48,1529.25,256.162,-28.182,256.229,28.193,31.6,0.008,31.6,0.014,5.86,0.783,28.591,-80.615,9.788,0.03,5.87e-9,0.001,1.705e-5,2.286e4,5147,21.343,0.091,273,219.5,3.436,0.767,5.729e7,0,420.875,0.639,0.639,0.392,0.164,0.084,0.006,0.019,-4.892e-4,0,0,0,0,9.936e-6,0.033,15.6,190,88.178,-0.006,2.429,5.06,842.6,334.365,0.05,0.065
6.53,1542.023,254.759,-27.95,254.826,27.955,31.892,0.008,31.892,0.014,5.824,0.527,28.591,-80.615,9.787,0.017,7.891e-9,-0.002,6.355e-5,2.286e4,5147,21.343,0.091,272.9,219.5,3.431,0.762,5.692e7,0,415.37,0.638,0.638,0.392,0.163,0.083,0.003,0.011,-4.145e-4,0,0,0,0,-2.417e-5,0.033,15.6,190,88.178,0.001,2.329,4.977,841.3,334.315,0.05,0.065
6.58,1554.726,253.367,-27.723,253.434,27.724,32.183,0.008,32.183,0.014,5.807,0.209,28.591,-80.615,9.787,0.057,7.891e-9,-3.183e-4,3.309e-5,2.286e4,5147,21.343,0.091,272.6,219.5,3.415,0.758,5.655e7,0,409.953,0.638,0.638,0.392,0.163,0.083,0.015,0.05,3.131e-4,0,0,0,0,-8.956e-7,0.032,15.6,190,88.121,0.016,2.114,4.894,840,334.265,0.05,0.066
6.63,1567.36,251.987,-27.488,252.054,27.489,32.473,0.008,32.473,0.014,5.798,0.291,28.591,-80.615,9.787,0.057,0,0.002,4.241e-5,2.286e4,5147,21.343,0.091,272.7,219.5,3.417,0.754,5.619e7,0,404.639,0.637,0.637,0.392,0.162,0.083,0.011,0.039,1.207e-4,0,0,0,0,2.282e-5,0.032,15.6,190,88.121,0.031,2.107,4.812,838.7,334.215,0.05,0.066
6.68,1579.925,250.618,-27.25,250.685,27.256,32.763,0.008,32.763,0.014,5.776,0.572,28.591,-80.615,9.787,0.003,9.465e-9,0.002,4.775e-4,2.286e4,5147,21.343,0.091,273.1,219.5,3.447,0.75,5.583e7,0,399.421,0.637,0.637,0.393,0.162,0.082,5.944e-4,0.002,-1.819e-4,0,0,0,0,3.942e-5,0.032,15.6,190,88.178,0.042,2.186,4.73,837.5,334.166,0.05,0.066
6.73,1592.422,249.262,-27.02,249.328,27.03,33.051,0.008,33.051,0.014,5.741,0.754,28.591,-80.615,9.787,0.036,1.132e-8,-0.002,2.27e-5,2.286e4,5147,21.343,0.091,272.6,219.5,3.414,0.746,5.547e7,0,394.286,0.636,0.636,0.393,0.161,0.082,0.007,0.023,-4.067e-4,0,0,0,0,-2.547e-5,0.032,15.6,190,88.236,0.046,2.182,4.649,836.2,334.116,0.05,0.067
6.78,1604.852,247.916,-26.795,247.982,26.809,33.337,0.008,33.337,0.014,5.701,0.877,28.591,-80.615,9.787,0.057,0,-6.366e-4,3.902e-5,2.286e4,5147,21.343,0.091,272.5,219.5,3.405,0.742,5.511e7,0,389.238,0.636,0.636,0.393,0.161,0.082,0.012,0.041,3.813e-4,0,0,0,0,-4.197e-6,0.032,15.6,190,88.236,0.039,2.197,4.568,834.9,334.067,0.05,0.067
6.83,1617.214,246.582,-26.577,246.647,26.592,33.621,0.008,33.621,0.014,5.656,0.878,28.591,-80.615,9.787,0.057,7.286e-9,9.549e-4,2.155e-5,2.286e4,5147,21.343,0.091,272.4,219.5,3.402,0.739,5.476e7,0,384.27,0.635,0.635,0.393,0.16,0.081,0.012,0.042,2.215e-4,0,0,0,0,6.985e-6,0.032,15.6,190,88.236,0.023,2.221,4.488,833.7,334.019,0.05,0.068
6.88,1629.51,245.259,-26.368,245.323,26.378,33.902,0.009,33.902,0.015,5.615,0.713,28.591,-80.615,9.787,0.033,1.025e-8,0.002,4.165e-5,2.286e4,5147,21.343,0.091,272.5,219.5,3.408,0.735,5.442e7,0,379.373,0.634,0.634,0.393,0.16,0.081,0.006,0.021,4.651e-4,0,0,0,0,3.741e-5,0.031,15.6,190,88.236,0.008,2.195,4.408,832.5,333.97,0.05,0.068
6.93,1641.74,243.945,-26.161,244.009,26.168,34.182,0.009,34.182,0.015,5.583,0.61,28.591,-80.615,9.787,0.011,0,0.002,1.342e-4,2.286e4,5147,21.343,0.091,272.6,219.5,3.415,0.731,5.407e7,0,374.568,0.634,0.634,0.394,0.159,0.081,0.002,0.007,-5.244e-5,0,0,0,0,4.972e-5,0.031,15.6,190,88.178,6.623e-4,2.267,4.329,831.2,333.922,0.05,0.068
6.98,1653.905,242.642,-25.958,242.706,25.963,34.461,0.009,34.461,0.015,5.555,0.49,28.591,-80.615,9.787,0.015,8.719e-9,-0.003,9.608e-5,2.286e4,5147,21.343,0.091,272.4,219.5,3.402,0.727,5.373e7,0,369.84,0.633,0.633,0.394,0.159,0.08,0.003,0.009,4.878e-4,0,0,0,0,-5.625e-5,0.031,15.6,190,88.121,0.004,2.34,4.25,830,333.874,0.05,0.069
