# Time (s),Altitude (m),Vertical velocity (m/s),Vertical acceleration (m/s²),Total velocity (m/s),Total acceleration (m/s²),Position East of launch (m),Position North of launch (m),Lateral distance (m),Lateral direction (°),Lateral velocity (m/s),Lateral acceleration (m/s²),Latitude (°),Longitude (°),Gravitational acceleration (m/s²),Angle of attack (°),Roll rate (r/s),Pitch rate (r/s),Yaw rate (r/s),Mass (g),Motor mass (g),Longitudinal moment of inertia (kg·m²),Rotational moment of inertia (kg·m²),CP location (cm),CG location (cm),Stability margin calibers (​),Mach number (​),Reynolds number (​),Thrust (N),Drag force (N),Drag coefficient (​),Axial drag coefficient (​),Friction drag coefficient (​),Pressure drag coefficient (​),Base drag coefficient (​),Normal force coefficient (​),Pitch moment coefficient (​),Yaw moment coefficient (​),Side force coefficient (​),Roll moment coefficient (​),Roll forcing coefficient (​),Roll damping coefficient (​),Pitch damping coefficient (​),Coriolis acceleration (m/s²),Reference length (cm),Reference area (cm²),Vertical orientation (zenith) (°),Lateral orientation (azimuth) (°),Wind velocity (m/s),Air temperature (°C),Air pressure (mbar),Speed of sound (m/s),Simulation time step (s),Computation time (s)
0.01,1.171e-4,0.023,2.343,0.023,2.343,0,0,0,0,0,0,37.93,-113.045,9.795,89.782,0,0,0,2.8e4,4908,34.089,0.109,NaN,237.6,NaN,0.02,1.434e6,339.816,2.928e-8,0.577,6.166e-8,0.443,0.013,0.12,NaN,NaN,NaN,NaN,NaN,NaN,NaN,NaN,2.694e-6,16.1,200,90.012,0,6.706,3.697,821.4,333.539,0.01,0.002
0.02,0.002,0.29,26.625,0.29,26.625,0,0,0,0,0,0,37.93,-113.045,9.795,87.548,0,0,0,2.799e4,4903,34.084,0.109,NaN,237.5,NaN,0.02,1.435e6,1019.428,5.406e-5,0.577,1.136e-4,0.443,0.013,0.12,NaN,NaN,NaN,NaN,NaN,NaN,NaN,NaN,3.331e-5,16.1,200,90.012,0,6.706,3.697,821.4,333.539,0.01,0.002
0.03,0.007,0.799,50.915,0.799,50.915,0,0,0,0,0,0,37.93,-113.045,9.795,83.193,0,0,0,2.799e4,4897,34.079,0.109,NaN,237.5,NaN,0.02,1.444e6,1699.04,0.001,0.576,0.002,0.443,0.013,0.12,NaN,NaN,NaN,NaN,NaN,NaN,NaN,NaN,9.186e-5,16.1,200,90.012,0,6.706,3.697,821.4,333.539,0.01,0.003
0.04,0.018,1.431,63.198,1.431,63.198,0,0,0,0,0,0,37.93,-113.045,9.795,77.98,0,0,0,2.798e4,4887,34.07,0.109,NaN,237.5,NaN,0.021,1.466e6,2042.049,0.006,0.575,0.012,0.441,0.013,0.12,NaN,NaN,NaN,NaN,NaN,NaN,NaN,NaN,1.645e-4,16.1,200,90.012,0,6.706,3.697,821.4,333.539,0.01,0.003
0.05,0.036,2.065,63.454,2.065,63.454,0,0,0,0,0,0,37.93,-113.045,9.795,72.88,0,0,0,2.797e4,4877,34.061,0.109,NaN,237.5,NaN,0.021,1.5e6,2048.454,0.016,0.573,0.032,0.439,0.013,0.12,NaN,NaN,NaN,NaN,NaN,NaN,NaN,NaN,2.375e-4,16.1,200,90.012,0,6.706,3.697,821.4,333.539,0.01,0.004
0.06,0.06,2.702,63.709,2.702,63.709,0,0,0,0,0,0,37.93,-113.045,9.795,68.067,0,0,0,2.795e4,4867,34.052,0.109,NaN,237.4,NaN,0.022,1.546e6,2054.86,0.034,0.57,0.062,0.437,0.013,0.12,NaN,NaN,NaN,NaN,NaN,NaN,NaN,NaN,3.108e-4,16.1,200,90.012,0,6.706,3.697,821.4,333.539,0.01,0.004
0.07,0.09,3.341,63.964,3.341,63.964,0,0,0,0,0,0,37.93,-113.045,9.795,63.541,0,0,0,2.795e4,4856,34.042,0.109,NaN,237.4,NaN,0.022,1.602e6,2061.249,0.061,0.567,0.103,0.434,0.013,0.12,NaN,NaN,NaN,NaN,NaN,NaN,NaN,NaN,3.843e-4,16.1,200,90.012,0,6.706,3.697,821.4,333.539,0.01,0.005
0.08,0.126,3.984,64.218,3.984,64.218,0,0,0,0,0,0,37.93,-113.045,9.795,59.301,0,0,0,2.793e4,4846,34.033,0.109,NaN,237.4,NaN,0.023,1.668e6,2067.623,0.096,0.564,0.15,0.431,0.013,0.12,NaN,NaN,NaN,NaN,NaN,NaN,NaN,NaN,4.581e-4,16.1,200,90.012,0,6.706,3.696,821.4,333.539,0.01,0.005
0.09,0.169,4.628,64.472,4.628,64.472,0,0,0,0,0,0,37.93,-113.045,9.795,55.405,0,0,0,2.792e4,4836,34.023,0.109,NaN,237.3,NaN,0.024,1.742e6,2073.997,0.14,0.561,0.2,0.427,0.013,0.12,NaN,NaN,NaN,NaN,NaN,NaN,NaN,NaN,5.323e-4,16.1,200,90.012,0,6.706,3.696,821.4,333.539,0.01,0.006
0.1,0.219,5.275,64.726,5.275,64.726,0,0,0,0,0,0,37.93,-113.045,9.795,51.795,0,0,0,2.791e4,4825,34.014,0.109,NaN,237.3,NaN,0.026,1.824e6,2080.355,0.194,0.557,0.252,0.423,0.013,0.12,NaN,NaN,NaN,NaN,NaN,NaN,NaN,NaN,6.067e-4,16.1,200,90.012,0,6.706,3.696,821.4,333.539,0.01,0.006
0.11,0.275,5.925,64.979,5.925,64.979,0,0,0,0,0,0,37.93,-113.045,9.795,48.53,0,0,0,2.79e4,4815,34.004,0.109,NaN,237.3,NaN,0.027,1.913e6,2086.696,0.256,0.553,0.303,0.42,0.013,0.12,NaN,NaN,NaN,NaN,NaN,NaN,NaN,NaN,6.814e-4,16.1,200,90.012,0,6.706,3.695,821.4,333.538,0.01,0.006
0.12,0.338,6.577,65.232,6.577,65.232,0,0,0,0,0,0,37.93,-113.045,9.795,45.55,0,0,0,2.789e4,4804,33.995,0.109,NaN,237.2,NaN,0.028,2.008e6,2093.037,0.326,0.549,0.35,0.416,0.013,0.12,NaN,NaN,NaN,NaN,NaN,NaN,NaN,NaN,7.564e-4,16.1,200,90.012,0,6.706,3.695,821.3,333.538,0.01,0.006
0.13,0.407,7.232,65.484,7.232,65.484,0,0,0,0,0,0,37.93,-113.045,9.795,42.857,0,0,0,2.788e4,4794,33.985,0.109,NaN,237.2,NaN,0.03,2.109e6,2099.361,0.405,0.546,0.394,0.412,0.013,0.12,NaN,NaN,NaN,NaN,NaN,NaN,NaN,NaN,8.317e-4,16.1,200,90.012,0,6.706,3.695,821.3,333.538,0.01,0.007
0.14,0.482,7.889,65.736,7.889,65.736,0,0,0,0,0,0,37.93,-113.045,9.795,40.336,0,0,0,2.787e4,4783,33.976,0.109,NaN,237.1,NaN,0.031,2.214e6,2105.667,0.492,0.542,0.434,0.409,0.013,0.12,NaN,NaN,NaN,NaN,NaN,NaN,NaN,NaN,9.073e-4,16.1,200,90.012,0,6.706,3.694,821.3,333.538,0.01,0.007
0.15,0.564,8.549,65.987,8.549,65.987,0,0,0,0,0,0,37.93,-113.045,9.795,38.102,0,0,0,2.786e4,4773,33.966,0.109,NaN,237.1,NaN,0.033,2.323e6,2111.974,0.585,0.539,0.47,0.405,0.013,0.12,NaN,NaN,NaN,NaN,NaN,NaN,NaN,NaN,9.832e-4,16.1,200,90.012,0,6.706,3.694,821.3,333.537,0.01,0.008
0.16,0.653,9.211,66.239,9.211,66.239,0,0,0,0,0,0,37.93,-113.045,9.795,36.039,0,0,0,2.785e4,4762,33.956,0.109,NaN,237.1,NaN,0.034,2.436e6,2118.263,0.686,0.535,0.5,0.401,0.013,0.12,NaN,NaN,NaN,NaN,NaN,NaN,NaN,NaN,0.001,16.1,200,90.012,0,6.706,3.693,821.3,333.537,0.01,0.008
0.17,0.749,9.876,66.489,9.876,66.489,0,0,0,0,0,0,37.93,-113.045,9.795,34.148,0,0,0,2.784e4,4751,33.946,0.109,NaN,237,NaN,0.036,2.552e6,2124.534,0.793,0.532,0.527,0.398,0.013,0.12,NaN,NaN,NaN,NaN,NaN,NaN,NaN,NaN,0.001,16.1,200,90.012,0,6.706,3.692,821.3,333.536,0.01,0.009
0.18,0.851,10.543,66.739,10.543,66.739,0,0,0,0,0,0,37.93,-113.045,9.795,32.429,0,0,0,2.783e4,4741,33.937,0.109,NaN,237,NaN,0.037,2.672e6,2130.804,0.907,0.528,0.55,0.395,0.013,0.12,NaN,NaN,NaN,NaN,NaN,NaN,NaN,NaN,0.001,16.1,200,90.012,0,6.706,3.692,821.3,333.536,0.01,0.009
0.19,0.959,11.213,66.989,11.213,66.989,0,0,0,0,0,0,37.93,-113.045,9.795,30.882,0,0,0,2.782e4,4730,33.927,0.109,NaN,237,NaN,0.039,2.794e6,2137.056,1.027,0.525,0.57,0.392,0.014,0.12,NaN,NaN,NaN,NaN,NaN,NaN,NaN,NaN,0.001,16.1,200,90.012,0,6.706,3.691,821.3,333.536,0.01,0.009
0.2,1.075,11.885,67.239,11.885,67.239,0,0,0,0,0,0,37.93,-113.045,9.795,29.45,0,0,0,2.781e4,4719,33.917,0.109,NaN,236.9,NaN,0.041,2.918e6,2143.29,1.152,0.522,0.586,0.389,0.014,0.12,NaN,NaN,NaN,NaN,NaN,NaN,NaN,NaN,0.001,16.1,200,90.012,0,6.706,3.69,821.3,333.535,0.01,0.01
0.21,1.197,12.56,67.488,12.56,67.488,0,0,0,0,0,0,37.93,-113.045,9.795,28.075,0,0,0,2.78e4,4709,33.907,0.109,NaN,236.9,NaN,0.043,3.044e6,2149.523,1.283,0.519,0.599,0.386,0.014,0.12,NaN,NaN,NaN,NaN,NaN,NaN,NaN,NaN,0.001,16.1,200,90.012,0,6.706,3.689,821.3,333.535,0.01,0.01
0.22,1.326,13.237,67.737,13.237,67.737,0,0,0,0,0,0,37.93,-113.045,9.795,26.872,0,0,0,2.779e4,4698,33.897,0.109,NaN,236.9,NaN,0.044,3.173e6,2155.737,1.425,0.518,0.613,0.385,0.014,0.12,NaN,NaN,NaN,NaN,NaN,NaN,NaN,NaN,0.002,16.1,200,90.012,0,6.706,3.689,821.2,333.534,0.01,0.01
0.23,1.462,13.917,67.984,13.917,67.984,0,0,0,0,0,0,37.93,-113.045,9.795,25.726,0,0,0,2.778e4,4687,33.887,0.109,NaN,236.8,NaN,0.046,3.303e6,2161.931,1.575,0.519,0.625,0.385,0.014,0.12,NaN,NaN,NaN,NaN,NaN,NaN,NaN,NaN,0.002,16.1,200,90.012,0,6.706,3.688,821.2,333.534,0.01,0.011
0.24,1.604,14.599,68.232,14.599,68.232,0,0,0,0,0,0,37.93,-113.045,9.795,24.694,0,0,0,2.777e4,4676,33.877,0.109,NaN,236.8,NaN,0.048,3.435e6,2168.126,1.732,0.519,0.635,0.385,0.014,0.12,NaN,NaN,NaN,NaN,NaN,NaN,NaN,NaN,0.002,16.1,200,90.012,0,6.706,3.687,821.2,333.533,0.01,0.011
0.25,1.754,15.284,68.479,15.284,68.479,0,0,0,0,0,0,37.93,-113.045,9.795,23.663,0,0,0,2.775e4,4665,33.867,0.109,NaN,236.7,NaN,0.05,3.568e6,2174.3,1.894,0.519,0.644,0.385,0.014,0.12,NaN,NaN,NaN,NaN,NaN,NaN,NaN,NaN,0.002,16.1,200,90.012,0,6.706,3.686,821.2,333.533,0.01,0.012
0.26,1.91,15.971,68.726,15.971,68.726,0,0,0,0,0,0,37.93,-113.045,9.795,22.804,0,0,0,2.774e4,4654,33.857,0.109,NaN,236.7,NaN,0.052,3.703e6,2180.454,2.063,0.519,0.651,0.385,0.014,0.12,NaN,NaN,NaN,NaN,NaN,NaN,NaN,NaN,0.002,16.1,200,90.012,0,6.706,3.685,821.2,333.532,0.01,0.012
0.27,2.073,16.66,68.972,16.66,68.972,0,0,0,0,0,0,37.93,-113.045,9.795,21.944,0,0,0,2.773e4,4643,33.847,0.109,NaN,236.7,NaN,0.054,3.84e6,2186.608,2.239,0.519,0.657,0.385,0.014,0.12,NaN,NaN,NaN,NaN,NaN,NaN,NaN,NaN,0.002,16.1,200,90.012,0,6.706,3.684,821.2,333.531,0.01,0.013
0.28,2.243,17.352,69.218,17.352,69.218,0,0,0,0,0,0,37.93,-113.045,9.795,21.142,0,0,0,2.772e4,4632,33.837,0.109,NaN,236.6,NaN,0.056,3.977e6,2192.741,2.42,0.519,0.662,0.385,0.014,0.12,NaN,NaN,NaN,NaN,NaN,NaN,NaN,NaN,0.002,16.1,200,90.012,0,6.706,3.683,821.2,333.531,0.01,0.013
0.29,2.42,18.047,69.464,18.047,69.464,0,0,0,0,0,0,37.93,-113.045,9.795,20.397,0,0,0,2.771e4,4621,33.827,0.109,NaN,236.6,NaN,0.058,4.116e6,2198.853,2.607,0.519,0.666,0.385,0.014,0.12,NaN,NaN,NaN,NaN,NaN,NaN,NaN,NaN,0.002,16.1,200,90.012,0,6.706,3.682,821.1,333.53,0.01,0.014
0.3,2.604,18.744,69.709,18.744,69.709,0,0,0,0,0,0,37.93,-113.045,9.795,19.71,0,0,0,2.77e4,4610,33.817,0.109,NaN,236.6,NaN,0.06,4.256e6,2204.965,2.799,0.519,0.669,0.385,0.014,0.12,NaN,NaN,NaN,NaN,NaN,NaN,NaN,NaN,0.002,16.1,200,90.012,0,6.706,3.68,821.1,333.529,0.01,0.014
0.31,2.795,19.443,69.954,19.443,69.954,0,0,0,0,0,0,37.93,-113.045,9.795,19.022,0,0,0,2.769e4,4599,33.806,0.109,NaN,236.5,NaN,0.062,4.397e6,2211.055,2.998,0.519,0.671,0.385,0.014,0.12,NaN,NaN,NaN,NaN,NaN,NaN,NaN,NaN,0.002,16.1,200,90.012,0,6.706,3.679,821.1,333.528,0.01,0.015
0.32,2.993,20.145,70.197,20.145,70.197,0,0,0,0,0,0,37.93,-113.045,9.795,18.392,0,0,0,2.768e4,4588,33.796,0.109,NaN,236.5,NaN,0.064,4.539e6,2217.124,3.203,0.519,0.673,0.385,0.014,0.121,NaN,NaN,NaN,NaN,NaN,NaN,NaN,NaN,0.002,16.1,200,90.012,0,6.706,3.678,821.1,333.528,0.01,0.015
0.33,3.198,20.85,70.441,20.85,70.441,0,0,0,0,0,0,37.93,-113.045,9.795,17.819,0,0,0,2.767e4,4577,33.786,0.109,NaN,236.4,NaN,0.066,4.682e6,2223.193,3.413,0.519,0.674,0.385,0.014,0.121,NaN,NaN,NaN,NaN,NaN,NaN,NaN,NaN,0.002,16.1,200,90.012,0,6.706,3.676,821.1,333.527,0.01,0.016
0.34,3.41,21.556,70.685,21.556,70.685,0,0,0,0,0,0,37.93,-113.045,9.795,17.303,0,0,0,2.766e4,4566,33.776,0.109,NaN,236.4,NaN,0.068,4.826e6,2229.239,3.629,0.519,0.675,0.385,0.014,0.121,NaN,NaN,NaN,NaN,NaN,NaN,NaN,NaN,0.002,16.1,200,90.012,0,6.706,3.675,821,333.526,0.01,0.016
0.35,3.629,22.265,70.927,22.265,70.927,0,0,0,0,0,0,37.93,-113.045,9.795,16.788,0,0,0,2.764e4,4555,33.765,0.109,NaN,236.4,NaN,0.07,4.971e6,2235.262,3.85,0.519,0.675,0.385,0.014,0.121,NaN,NaN,NaN,NaN,NaN,NaN,NaN,NaN,0.003,16.1,200,90.012,0,6.706,3.674,821,333.525,0.01,0.016
0.36,3.856,22.977,71.17,22.977,71.17,0,0,0,0,0,0,37.93,-113.045,9.795,16.272,0,0,0,2.763e4,4543,33.755,0.109,NaN,236.3,NaN,0.072,5.117e6,2241.286,4.075,0.519,0.674,0.385,0.014,0.121,NaN,NaN,NaN,NaN,NaN,NaN,NaN,NaN,0.003,16.1,200,90.012,0,6.706,3.672,821,333.524,0.01,0.017
0.37,4.089,23.691,71.412,23.691,71.412,0,0,0,0,0,0,37.93,-113.045,9.795,15.814,0,0,0,2.762e4,4532,33.744,0.109,NaN,236.3,NaN,0.074,5.263e6,2247.287,4.304,0.519,0.673,0.385,0.014,0.121,NaN,NaN,NaN,NaN,NaN,NaN,NaN,NaN,0.003,16.1,200,90.012,0,6.706,3.671,821,333.523,0.01,0.017
0.38,4.329,24.407,71.653,24.407,71.653,0,0,0,0,0,0,37.93,-113.045,9.795,15.355,0,0,0,2.761e4,4521,33.734,0.109,NaN,236.3,NaN,0.076,5.411e6,2253.264,4.536,0.519,0.671,0.385,0.014,0.121,NaN,NaN,NaN,NaN,NaN,NaN,NaN,NaN,0.003,16.1,200,90.012,0,6.706,3.669,820.9,333.522,0.01,0.018
0.39,4.577,25.126,71.894,25.126,71.894,0,0,0,0,0,0,37.93,-113.045,9.795,14.954,0,0,0,2.76e4,4510,33.723,0.109,NaN,236.2,NaN,0.078,5.559e6,2259.241,4.773,0.519,0.669,0.385,0.014,0.121,NaN,NaN,NaN,NaN,NaN,NaN,NaN,NaN,0.003,16.1,200,90.012,0,6.706,3.668,820.9,333.521,0.01,0.018
0.4,4.832,25.847,72.135,25.847,72.135,0,0,0,0,0,0,37.93,-113.045,9.795,14.553,0,0,0,2.759e4,4498,33.713,0.109,NaN,236.2,NaN,0.08,5.708e6,2265.194,5.013,0.519,0.666,0.385,0.014,0.121,NaN,NaN,NaN,NaN,NaN,NaN,NaN,NaN,0.003,16.1,200,90.012,0,6.706,3.666,820.9,333.52,0.01,0.019
0.41,5.094,26.571,72.375,26.571,72.375,0,0,0,0,0,0,37.93,-113.045,9.795,14.152,0,0,0,2.758e4,4487,33.702,0.109,NaN,236.1,NaN,0.082,5.858e6,2271.124,5.259,0.519,0.664,0.385,0.014,0.121,NaN,NaN,NaN,NaN,NaN,NaN,NaN,NaN,0.003,16.1,200,90.012,0,6.706,3.664,820.9,333.519,0.01,0.019
0.42,5.363,27.297,72.615,27.297,72.615,0,0,0,0,0,0,37.93,-113.045,9.795,13.808,0,0,0,2.756e4,4475,33.692,0.109,NaN,236.1,NaN,0.084,6.008e6,2277.053,5.509,0.519,0.661,0.384,0.014,0.121,NaN,NaN,NaN,NaN,NaN,NaN,NaN,NaN,0.003,16.1,200,90.012,0,6.706,3.662,820.8,333.518,0.01,0.02
0.43,5.64,28.025,72.854,28.025,72.854,0,0,0,0,0,0,37.93,-113.045,9.795,13.465,0,0,0,2.755e4,4464,33.681,0.109,NaN,236.1,NaN,0.086,6.159e6,2282.957,5.764,0.519,0.658,0.384,0.014,0.121,NaN,NaN,NaN,NaN,NaN,NaN,NaN,NaN,0.003,16.1,200,90.012,0,6.706,3.661,820.8,333.517,0.01,0.02
0.44,5.924,28.756,73.093,28.756,73.093,0,0,0,0,0,0,37.93,-113.045,9.795,13.121,0,0,0,2.754e4,4453,33.67,0.109,NaN,236,NaN,0.089,6.311e6,2288.837,6.024,0.519,0.655,0.384,0.014,0.121,NaN,NaN,NaN,NaN,NaN,NaN,NaN,NaN,0.003,16.1,200,90.012,0,6.706,3.659,820.8,333.516,0.01,0.02
0.45,6.215,29.489,73.331,29.489,73.331,0,0,0,0,0,0,37.93,-113.045,9.795,12.834,0,0,0,2.753e4,4441,33.659,0.109,NaN,236,NaN,0.091,6.464e6,2294.717,6.29,0.52,0.652,0.384,0.014,0.121,NaN,NaN,NaN,NaN,NaN,NaN,NaN,NaN,0.003,16.1,200,90.012,0,6.706,3.657,820.8,333.515,0.01,0.021
0.46,6.514,30.225,73.569,30.225,73.569,0,0,0,0,0,0,37.93,-113.045,9.795,12.49,0,0,0,2.752e4,4429,33.649,0.109,NaN,235.9,NaN,0.093,6.617e6,2300.572,6.56,0.52,0.649,0.384,0.014,0.121,NaN,NaN,NaN,NaN,NaN,NaN,NaN,NaN,0.003,16.1,200,90.012,0,6.706,3.655,820.7,333.514,0.01,0.021
0.47,6.82,30.963,73.806,30.963,73.806,0,0,0,0,0,0,37.93,-113.045,9.795,12.204,0,0,0,2.751e4,4418,33.638,0.109,NaN,235.9,NaN,0.095,6.771e6,2306.401,6.837,0.52,0.646,0.384,0.014,0.121,NaN,NaN,NaN,NaN,NaN,NaN,NaN,NaN,0.004,16.1,200,90.012,0,6.706,3.653,820.7,333.513,0.01,0.021
0.48,7.133,31.703,74.043,31.703,74.043,0,0,0,0,0,0,37.93,-113.045,9.795,11.918,0,0,0,2.75e4,4406,33.627,0.109,NaN,235.9,NaN,0.097,6.925e6,2312.23,7.119,0.52,0.642,0.384,0.014,0.121,NaN,NaN,NaN,NaN,NaN,NaN,NaN,NaN,0.004,16.1,200,90.012,0,6.706,3.651,820.7,333.511,0.01,0.022
0.49,7.454,32.446,74.279,32.446,74.279,0,0,0,0,0,0,37.93,-113.045,9.795,11.688,0,0,0,2.748e4,4395,33.616,0.109,NaN,235.8,NaN,0.099,7.081e6,2318.033,7.406,0.52,0.639,0.384,0.014,0.121,NaN,NaN,NaN,NaN,NaN,NaN,NaN,NaN,0.004,16.1,200,90.012,0,6.706,3.649,820.6,333.51,0.01,0.022
0.5,7.782,33.191,74.514,33.191,74.514,0,0,0,0,0,0,37.93,-113.045,9.795,11.402,0,0,0,2.747e4,4383,33.605,0.109,NaN,235.8,NaN,0.102,7.236e6,2323.809,7.7,0.52,0.637,0.384,0.014,0.121,NaN,NaN,NaN,NaN,NaN,NaN,NaN,NaN,0.004,16.1,200,90.012,0,6.706,3.647,820.6,333.509,0.01,0.026
0.51,8.118,33.938,74.749,33.938,74.749,0,0,0,0,0,0,37.93,-113.045,9.795,11.173,0,0,0,2.746e4,4371,33.594,0.109,NaN,235.7,NaN,0.104,7.393e6,2329.586,8,0.52,0.634,0.384,0.014,0.121,NaN,NaN,NaN,NaN,NaN,NaN,NaN,NaN,0.004,16.1,200,90.012,0,6.706,3.644,820.6,333.507,0.01,0.027
0.52,8.461,34.688,74.983,34.688,74.983,0,0,0,0,0,0,37.93,-113.045,9.795,10.943,0,0,0,2.745e4,4360,33.583,0.109,NaN,235.7,NaN,0.106,7.55e6,2335.336,8.306,0.52,0.631,0.384,0.014,0.121,NaN,NaN,NaN,NaN,NaN,NaN,NaN,NaN,0.004,16.1,200,90.012,0,6.706,3.642,820.5,333.506,0.01,0.027
0.53,8.811,35.44,75.217,35.44,75.217,0,0,0,0,0,0,37.93,-113.045,9.795,10.714,0,0,0,2.744e4,4348,33.572,0.109,NaN,235.7,NaN,0.108,7.707e6,2341.058,8.618,0.52,0.628,0.384,0.014,0.122,NaN,NaN,NaN,NaN,NaN,NaN,NaN,NaN,0.004,16.1,200,90.012,0,6.706,3.64,820.5,333.505,0.01,0.028
0.54,9.169,36.194,75.45,36.194,75.45,0,0,0,0,0,0,37.93,-113.045,9.795,10.485,0,0,0,2.743e4,4336,33.561,0.109,NaN,235.6,NaN,0.11,7.866e6,2346.781,8.937,0.52,0.625,0.384,0.014,0.122,NaN,NaN,NaN,NaN,NaN,NaN,NaN,NaN,0.004,16.1,200,90.012,0,6.706,3.638,820.5,333.503,0.01,0.029
0.55,9.535,36.951,75.683,36.951,75.683,0,0,0,0,0,0,37.93,-113.045,9.795,10.313,0,0,0,2.741e4,4325,33.55,0.109,NaN,235.6,NaN,0.113,8.024e6,2352.476,9.262,0.52,0.623,0.384,0.014,0.122,NaN,NaN,NaN,NaN,NaN,NaN,NaN,NaN,0.004,16.1,200,90.012,0,6.706,3.635,820.4,333.502,0.01,0.029
0.56,9.908,37.71,75.914,37.71,75.914,0,0,0,0,0,0,37.93,-113.045,9.795,10.084,0,0,0,2.74e4,4313,33.539,0.109,NaN,235.5,NaN,0.115,8.184e6,2358.144,9.594,0.52,0.62,0.384,0.014,0.122,NaN,NaN,NaN,NaN,NaN,NaN,NaN,NaN,0.004,16.1,200,90.012,0,6.706,3.633,820.4,333.5,0.01,0.03
0.57,10.289,38.471,76.146,38.471,76.146,0,0,0,0,0,0,37.93,-113.045,9.795,9.912,0,0,0,2.739e4,4301,33.528,0.109,NaN,235.5,NaN,0.117,8.344e6,2363.811,9.933,0.52,0.617,0.384,0.014,0.122,NaN,NaN,NaN,NaN,NaN,NaN,NaN,NaN,0.004,16.1,200,90.012,0,6.706,3.63,820.3,333.499,0.01,0.031
0.58,10.678,39.235,76.377,39.235,76.377,0,0,0,0,0,0,37.93,-113.045,9.795,9.683,0,0,0,2.738e4,4289,33.516,0.109,NaN,235.5,NaN,0.119,8.504e6,2369.45,10.278,0.521,0.615,0.384,0.014,0.122,NaN,NaN,NaN,NaN,NaN,NaN,NaN,NaN,0.005,16.1,200,90.012,0,6.706,3.628,820.3,333.497,0.01,0.031
0.595,11.275,40.385,76.67,40.385,76.691,-1.989e-4,0,1.989e-4,-180.023,0.027,1.783,37.93,-113.045,9.795,9.397,0,7.958e-4,3.525e-8,2.736e4,4271,33.5,0.109,260.3,235.4,1.542,0.123,8.745e6,2376.464,10.798,0.521,0.611,0.384,0.015,0.122,2.758,4.253,2.387e-4,0,0,0,0,1.911e-4,0.005,16.1,200,90.012,8.296e-4,6.706,3.624,820.2,333.495,0.015,0.031
0.618,12.203,42.119,77.11,42.119,77.131,-0.001,0,0.001,-180.023,0.067,1.802,37.93,-113.045,9.794,8.938,0,0.002,0,2.733e4,4244,33.474,0.109,261.2,235.3,1.604,0.128,9.109e6,2386.944,11.603,0.521,0.605,0.384,0.015,0.122,2.593,4.156,1.066e-4,0,0,0,0,0.001,0.005,16.1,200,90.012,0.002,6.706,3.618,820.1,333.491,0.023,0.032
0.651,13.669,44.741,77.765,44.741,77.785,-0.005,-8.338e-9,0.005,-180.023,0.128,1.79,37.93,-113.045,9.794,8.308,0,0.004,-1.024e-7,2.729e4,4204,33.436,0.109,262.5,235.2,1.694,0.136,9.66e6,2402.524,12.87,0.521,0.597,0.384,0.015,0.122,2.363,4.001,-2.13e-5,0,0,0,0,0.004,0.005,16.1,200,89.954,0.002,6.706,3.608,820,333.486,0.034,0.032
0.701,16.004,48.673,78.731,48.674,78.748,-0.013,-3.565e-8,0.013,-180.023,0.215,1.674,37.93,-113.045,9.794,7.448,0,0.008,-5.056e-7,2.723e4,4143,33.378,0.108,264.4,234.9,1.828,0.147,1.049e7,2425.428,14.881,0.522,0.585,0.384,0.015,0.123,2.057,3.748,3.747e-4,0,0,0,0,0.011,0.006,16.1,200,89.84,0.002,6.706,3.593,819.8,333.476,0.05,0.032
0.751,18.538,52.662,79.845,52.663,79.857,-0.026,-8.025e-8,0.026,-180.023,0.293,1.421,37.93,-113.045,9.794,6.589,0,0.012,0,2.717e4,4082,33.319,0.108,266.4,234.7,1.961,0.159,1.133e7,2452.31,17.055,0.522,0.575,0.384,0.015,0.123,1.78,3.47,-4.371e-4,0,0,0,0,0.022,0.006,16.1,200,89.668,0.002,6.706,3.577,819.5,333.466,0.05,0.033
0.801,21.272,56.706,80.94,56.707,80.947,-0.042,-1.29e-7,0.042,-180.023,0.354,1.011,37.93,-113.045,9.794,5.787,0,0.016,-8.796e-7,2.711e4,4020,33.259,0.108,268.3,234.5,2.097,0.171,1.218e7,2478.659,19.399,0.523,0.565,0.384,0.016,0.124,1.524,3.164,6.245e-5,0,0,0,0,0.034,0.007,16.1,200,89.439,0.002,6.706,3.559,819.2,333.456,0.05,0.033
0.851,24.21,60.804,82.015,60.805,82.016,-0.061,-1.62e-7,0.061,-180.023,0.391,0.426,37.93,-113.045,9.794,5.042,0,0.02,-3.86e-7,2.705e4,3957,33.199,0.108,270.4,234.3,2.239,0.183,1.305e7,2504.457,21.918,0.524,0.557,0.383,0.016,0.124,1.284,2.828,-1.576e-4,0,0,0,0,0.048,0.007,16.1,200,89.095,0.002,6.706,3.54,818.9,333.444,0.05,0.033
0.901,27.354,64.954,83.062,64.955,83.063,-0.081,-1.569e-7,0.081,-180.023,0.393,0.348,37.93,-113.045,9.794,4.24,0,0.024,5.36e-7,2.698e4,3894,33.137,0.108,272.6,234.1,2.387,0.196,1.392e7,2529.677,24.625,0.525,0.549,0.383,0.016,0.125,1.057,2.46,3.147e-4,0,0,0,0,0.062,0.007,16.1,200,88.694,0.001,6.706,3.519,818.6,333.432,0.05,0.034
0.951,30.706,69.156,84.078,69.157,84.088,-0.099,-1.044e-7,0.099,-180.023,0.351,1.321,37.93,-113.045,9.794,3.495,0,0.028,-3.361e-7,2.692e4,3830,33.075,0.108,274.8,233.8,2.543,0.208,1.481e7,2554.306,27.537,0.525,0.542,0.383,0.017,0.126,0.84,2.061,4.684e-4,0,0,0,0,0.075,0.008,16.1,200,88.236,7.981e-4,6.706,3.498,818.3,333.418,0.05,0.034
1.001,34.27,73.406,85.053,73.407,85.09,-0.115,-5.042e-9,0.115,-180.023,0.256,2.494,37.93,-113.045,9.794,2.693,0,0.032,-6.923e-7,2.685e4,3765,33.012,0.108,277.3,233.6,2.708,0.221,1.571e7,2578.33,30.68,0.526,0.537,0.383,0.017,0.126,0.634,1.629,-2.562e-4,0,0,0,0,0.086,0.008,16.1,200,87.663,6.434e-4,6.706,3.474,817.9,333.404,0.05,0.034
1.051,38.048,77.704,85.981,77.704,86.068,-0.124,1.797e-7,0.124,180.023,0.097,3.857,37.93,-113.045,9.794,1.948,0,0.036,-1.679e-6,2.679e4,3700,32.948,0.108,279.9,233.4,2.883,0.234,1.662e7,2601.719,34.089,0.527,0.533,0.383,0.017,0.127,0.439,1.172,4.931e-4,0,0,0,0,0.093,0.009,16.1,200,87.09,6.578e-4,6.706,3.45,817.5,333.39,0.05,0.035
1.101,42.042,82.046,86.853,82.046,87.02,-0.123,5.262e-7,0.123,180.023,0.135,5.386,37.93,-113.045,9.794,1.146,0,0.038,-9.925e-7,2.672e4,3634,32.883,0.108,282.5,233.1,3.064,0.247,1.755e7,2624.464,37.805,0.528,0.53,0.382,0.018,0.128,0.258,0.694,1.258e-4,0,0,0,0,0.096,0.009,16.1,200,86.402,6.308e-4,6.706,3.424,817.1,333.374,0.05,0.035
1.151,46.254,86.43,87.663,86.431,87.946,-0.109,1.115e-6,0.109,180.023,0.447,7.044,37.93,-113.045,9.794,0.458,0,0.039,-2.645e-6,2.666e4,3568,32.817,0.108,285.3,232.9,3.251,0.26,1.848e7,2646.55,41.875,0.529,0.53,0.382,0.018,0.129,0.092,0.208,2.866e-4,0,0,0,0,0.092,0.01,16.1,200,85.714,4.88e-4,6.706,3.397,816.7,333.357,0.05,0.035
1.201,50.686,90.852,88.407,90.856,88.842,-0.077,2.017e-6,0.077,180.023,0.844,8.781,37.93,-113.045,9.794,0.286,0,-0.039,-3.649e-6,2.659e4,3501,32.751,0.108,286,232.6,3.309,0.273,1.941e7,2667.951,46.339,0.531,0.531,0.382,0.019,0.13,0.055,0.267,-3.367e-4,0,0,0,0,-0.083,0.01,16.1,200,84.97,3.771e-4,6.706,3.368,816.3,333.34,0.05,0.035
1.251,55.34,95.309,89.085,95.318,89.71,-0.023,3.292e-6,0.023,179.966,1.33,10.569,37.93,-113.045,9.794,0.859,0,-0.038,-1.095e-7,2.652e4,3434,32.683,0.108,283.6,232.4,3.179,0.287,2.036e7,2688.656,51.216,0.532,0.533,0.382,0.02,0.131,0.194,0.685,2.714e-4,0,0,0,0,-0.069,0.011,16.1,200,84.282,3.675e-4,6.706,3.338,815.8,333.321,0.05,0.036
1.301,60.217,99.797,89.703,99.815,90.547,0.057,5.054e-6,0.057,0.005,1.905,12.334,37.93,-113.045,9.794,1.432,0,-0.034,-1.082e-7,2.645e4,3366,32.615,0.108,281.7,232.1,3.076,0.301,2.131e7,2708.653,56.487,0.533,0.536,0.381,0.02,0.132,0.318,1.029,3.154e-4,0,0,0,0,-0.052,0.011,16.1,200,83.652,3.932e-4,6.706,3.306,815.3,333.302,0.05,0.036
1.351,65.32,104.315,90.278,104.346,91.354,0.169,7.478e-6,0.169,0.003,2.566,13.976,37.93,-113.045,9.794,1.833,1.144e-8,-0.029,-1.1e-6,2.639e4,3298,32.546,0.108,280.3,231.9,3.002,0.314,2.228e7,2727.918,62.118,0.535,0.54,0.381,0.021,0.133,0.42,1.294,-2.833e-5,0,0,0,0,-0.034,0.012,16.1,200,83.079,3.967e-4,6.706,3.273,814.8,333.282,0.05,0.036
1.401,70.65,108.86,90.832,108.91,92.126,0.315,1.075e-5,0.315,0.002,3.303,15.389,37.93,-113.045,9.794,2.12,0,-0.022,5.582e-7,2.632e4,3229,32.476,0.108,279.3,231.6,2.959,0.328,2.324e7,2746.44,68.054,0.536,0.543,0.381,0.022,0.134,0.492,1.474,-3.071e-4,0,0,0,0,-0.019,0.013,16.1,200,82.621,4.314e-4,6.706,3.238,814.2,333.261,0.05,0.037
1.451,76.207,113.432,91.39,113.506,92.861,0.5,1.507e-5,0.5,0.002,4.104,16.461,37.93,-113.045,9.794,2.292,1.066e-8,-0.014,-7.9e-7,2.625e4,3160,32.405,0.108,278.9,231.4,2.947,0.342,2.421e7,2764.21,74.242,0.538,0.546,0.38,0.022,0.135,0.528,1.564,-1.2e-4,0,0,0,0,-0.007,0.013,16.1,200,82.277,5.798e-4,6.706,3.202,813.7,333.239,0.05,0.037
1.501,81.994,118.032,91.978,118.135,93.553,0.726,2.077e-5,0.726,0.002,4.947,17.094,37.93,-113.045,9.794,2.292,5.983e-9,-0.006,-8.986e-7,2.618e4,3090,32.333,0.108,279,231.1,2.969,0.356,2.519e7,2781.202,80.632,0.539,0.547,0.38,0.023,0.136,0.525,1.56,2.064e-5,0,0,0,0,-0.001,0.014,16.1,200,82.105,7.546e-4,6.706,3.164,813.1,333.216,0.05,0.037
1.551,88.011,122.662,92.613,122.799,94.198,0.995,2.818e-5,0.995,0.002,5.809,17.208,37.93,-113.045,9.794,2.12,0,0.004,-4.399e-7,2.611e4,3020,32.261,0.108,279.6,230.8,3.022,0.37,2.618e7,2797.412,87.203,0.541,0.548,0.379,0.024,0.138,0.484,1.461,-3.595e-4,0,0,0,0,3.658e-4,0.014,16.1,200,82.105,7.935e-4,6.706,3.125,812.5,333.193,0.05,0.038
1.601,94.261,127.324,93.3,127.498,94.794,1.307,3.75e-5,1.307,0.002,6.663,16.762,37.93,-113.045,9.794,1.776,0,0.013,1.927e-6,2.604e4,2950,32.188,0.107,280.7,230.5,3.107,0.384,2.717e7,2812.829,93.969,0.543,0.548,0.379,0.025,0.139,0.406,1.259,-3.336e-4,0,0,0,0,0.004,0.015,16.1,200,82.219,8.125e-4,6.706,3.085,811.8,333.168,0.05,0.038
1.651,100.744,132.021,94.028,132.232,95.34,1.661,4.888e-5,1.661,0.002,7.48,15.768,37.93,-113.045,9.794,1.318,0,0.02,-1.228e-7,2.597e4,2879,32.114,0.107,282.2,230.3,3.222,0.399,2.816e7,2827.43,100.995,0.545,0.548,0.379,0.026,0.141,0.302,0.961,4.78e-5,0,0,0,0,0.011,0.015,16.1,200,82.506,9.036e-4,6.706,3.042,811.2,333.143,0.05,0.038
1.701,107.463,136.754,94.767,137.001,95.84,2.054,6.251e-5,2.054,0.002,8.235,14.302,37.93,-113.045,9.794,0.802,2.185e-8,0.026,3.014e-6,2.59e4,2808,32.039,0.107,284.2,230,3.361,0.413,2.916e7,2841.212,108.389,0.547,0.548,0.378,0.027,0.142,0.18,0.588,-2.646e-4,0,0,0,0,0.016,0.016,16.1,200,82.964,0.001,6.706,2.999,810.5,333.116,0.05,0.038
1.751,114.42,141.522,95.48,141.802,96.296,2.483,7.853e-5,2.483,0.002,8.907,12.509,37.93,-113.045,9.794,0.229,8.672e-9,0.029,6.233e-7,2.583e4,2736,31.964,0.107,286.4,229.7,3.515,0.427,3.016e7,2854.167,116.275,0.549,0.549,0.378,0.028,0.144,0.054,0.17,3.63e-4,0,0,0,0,0.019,0.016,16.1,200,83.48,0.001,6.706,2.954,809.8,333.089,0.05,0.039
1.801,121.616,146.325,96.131,146.632,96.711,2.943,9.712e-5,2.943,0.002,9.485,10.575,37.93,-113.045,9.794,0.286,0,-0.029,-3.672e-6,2.575e4,2665,31.888,0.107,286.3,229.4,3.523,0.442,3.117e7,2866.272,124.746,0.552,0.552,0.377,0.029,0.145,0.064,0.244,2.321e-4,0,0,0,0,-0.017,0.017,16.1,200,83.996,0.001,6.706,2.907,809.1,333.06,0.05,0.039
1.851,129.053,151.157,96.7,151.485,97.089,3.43,1.186e-4,3.43,0.002,9.965,8.682,37.93,-113.045,9.794,0.745,1.746e-8,-0.025,-6.026e-6,2.568e4,2592,31.811,0.107,284.5,229.2,3.432,0.457,3.218e7,2877.527,133.791,0.554,0.555,0.377,0.03,0.147,0.169,0.594,4.455e-4,0,0,0,0,-0.012,0.017,16.1,200,84.511,0.002,6.706,2.858,808.3,333.031,0.05,0.039
1.901,136.733,156.014,97.171,156.357,97.43,3.938,1.436e-4,3.938,0.002,10.358,7.108,37.93,-113.045,9.794,1.089,1.024e-8,-0.018,-5.696e-6,2.561e4,2520,31.734,0.107,283.3,228.9,3.376,0.471,3.319e7,2887.926,143.299,0.557,0.559,0.376,0.031,0.149,0.247,0.84,2.88e-4,0,0,0,0,-0.006,0.018,16.1,200,84.855,0.004,6.706,2.808,807.5,333.001,0.05,0.04
1.951,144.655,160.891,97.539,161.246,97.731,4.465,1.732e-4,4.465,0.002,10.686,6.131,37.93,-113.045,9.794,1.261,0,-0.008,-2.739e-6,2.554e4,2448,31.655,0.107,282.8,228.6,3.361,0.486,3.42e7,2897.449,153.121,0.559,0.562,0.376,0.033,0.151,0.285,0.96,2.02e-4,0,0,0,0,-0.001,0.019,16.1,200,85.084,0.005,6.706,2.757,806.7,332.97,0.05,0.04
2.001,152.822,165.783,97.805,166.147,97.986,5.006,2.083e-4,5.006,0.002,10.984,5.961,37.93,-113.045,9.794,1.261,0,0.003,-3.554e-6,2.546e4,2375,31.577,0.107,283,228.3,3.39,0.501,3.521e7,2906.095,163.15,0.562,0.565,0.375,0.034,0.153,0.278,0.941,-4.448e-5,0,0,0,0,1.431e-4,0.019,16.1,200,85.142,0.006,6.706,2.704,805.9,332.937,0.05,0.04
2.051,161.234,170.686,97.963,171.059,98.191,5.563,2.494e-4,5.563,0.003,11.297,6.683,37.93,-113.045,9.794,1.031,0,0.014,3.463e-6,2.539e4,2302,31.497,0.107,283.8,228,3.461,0.516,3.622e7,2913.863,173.381,0.565,0.567,0.375,0.036,0.155,0.226,0.78,-1.494e-4,0,0,0,0,0.003,0.02,16.1,200,84.97,0.006,6.706,2.649,805.1,332.904,0.05,0.041
2.101,169.891,175.592,98.004,175.979,98.348,6.137,2.967e-4,6.137,0.003,11.668,8.214,37.93,-113.045,9.794,0.63,9.613e-9,0.022,-1.279e-6,2.532e4,2229,31.417,0.107,285.2,227.7,3.567,0.53,3.723e7,2920.733,183.938,0.568,0.569,0.374,0.037,0.157,0.142,0.5,6.894e-5,0,0,0,0,0.007,0.02,16.1,200,84.683,0.005,6.706,2.593,804.2,332.87,0.05,0.041
2.151,178.793,180.496,97.923,180.903,98.463,6.732,3.495e-4,6.732,0.003,12.13,10.295,37.93,-113.045,9.794,0.172,-1.693e-8,0.026,-3.307e-6,2.524e4,2156,31.336,0.107,287,227.4,3.695,0.545,3.824e7,2926.708,195.015,0.571,0.571,0.373,0.039,0.159,0.041,0.144,-4.968e-4,0,0,0,0,0.009,0.021,16.1,200,84.225,0.004,6.706,2.535,803.3,332.835,0.05,0.041
2.201,187.94,185.393,97.736,185.828,98.539,7.352,4.071e-4,7.352,0.003,12.704,12.552,37.93,-113.045,9.794,0.286,1.474e-8,-0.026,-2.591e-6,2.517e4,2082,31.255,0.107,286.7,227.1,3.698,0.56,3.925e7,2931.788,206.761,0.574,0.574,0.373,0.041,0.161,0.057,0.219,-3.286e-4,0,0,0,0,-0.008,0.021,16.1,200,83.766,0.003,6.706,2.476,802.4,332.799,0.05,0.042
2.251,197.332,190.277,97.485,190.747,98.571,8.004,4.693e-4,8.004,0.003,13.387,14.592,37.93,-113.045,9.794,0.63,0,-0.02,1.313e-6,2.51e4,2009,31.173,0.107,285.4,226.8,3.632,0.575,4.025e7,2935.955,219.141,0.578,0.578,0.372,0.043,0.163,0.138,0.506,-4.378e-4,0,0,0,0,-0.005,0.022,16.1,200,83.365,0.003,6.706,2.415,801.4,332.762,0.05,0.042
2.301,206.968,195.148,97.247,195.661,98.545,8.692,5.359e-4,8.692,0.004,14.156,15.942,37.93,-113.045,9.794,0.802,0,-0.01,6.162e-6,2.502e4,1935,31.09,0.107,284.6,226.5,3.605,0.59,4.126e7,2939.215,231.966,0.581,0.582,0.371,0.045,0.165,0.184,0.666,-4.919e-4,0,0,0,0,-0.001,0.023,16.1,200,83.079,0.003,6.706,2.352,800.4,332.724,0.05,0.042
2.351,216.847,200.008,97.094,200.567,98.443,9.42,6.079e-4,9.42,0.004,14.968,16.241,37.93,-113.045,9.794,0.802,9.489e-9,0.001,7.491e-6,2.495e4,1861,31.007,0.107,284.6,226.2,3.625,0.605,4.225e7,2941.569,245.054,0.585,0.586,0.371,0.047,0.168,0.185,0.669,4.354e-4,0,0,0,0,1.455e-5,0.023,16.1,200,82.964,0.004,6.706,2.288,799.4,332.685,0.05,0.042
2.399,226.513,204.646,97.047,205.25,98.268,10.154,6.828e-4,10.154,0.004,15.729,15.443,37.93,-113.045,9.794,0.63,-1.156e-8,0.011,6.785e-6,2.488e4,1791,30.927,0.106,285.3,225.9,3.686,0.619,4.32e7,2942.982,257.788,0.589,0.589,0.37,0.049,0.17,0.143,0.526,8.664e-5,0,0,0,0,0.001,0.024,16.1,200,83.079,0.005,6.706,2.225,798.5,332.647,0.048,0.043
2.449,236.867,209.499,97.054,210.145,98.011,10.959,7.686e-4,10.959,0.004,16.459,13.658,37.93,-113.045,9.794,0.286,-1.34e-8,0.019,1.076e-6,2.481e4,1717,30.843,0.106,286.6,225.6,3.783,0.634,4.419e7,2943.519,271.527,0.593,0.593,0.369,0.051,0.172,0.069,0.256,6.608e-5,0,0,0,0,0.004,0.024,16.1,200,83.365,0.005,6.706,2.158,797.4,332.606,0.05,0.043
2.499,247.463,214.352,97.037,215.031,97.703,11.798,8.623e-4,11.798,0.004,17.084,11.389,37.93,-113.045,9.794,0.057,-1.133e-8,-0.021,3.758e-5,2.473e4,1644,30.759,0.106,287.5,225.3,3.861,0.648,4.518e7,2943.169,285.917,0.597,0.597,0.369,0.054,0.175,0.016,0.064,-1.974e-4,0,0,0,0,-0.004,0.025,16.1,200,83.766,0.006,6.706,2.089,796.3,332.565,0.05,0.043
2.549,258.302,219.2,96.916,219.905,97.354,12.665,9.635e-4,12.665,0.004,17.594,9.223,37.93,-113.045,9.794,0.401,3.174e-8,-0.016,-7.079e-6,2.466e4,1570,30.674,0.106,286.2,224.9,3.801,0.663,4.616e7,2941.896,301.023,0.601,0.602,0.368,0.056,0.177,0.089,0.341,-2.197e-4,0,0,0,0,-0.002,0.025,16.1,200,84.11,0.006,6.706,2.018,795.2,332.522,0.05,0.044
2.599,269.383,224.037,96.644,224.76,96.959,13.556,0.001,13.556,0.005,18.012,7.815,37.93,-113.045,9.794,0.573,0,-0.007,-1.488e-6,2.459e4,1496,30.589,0.106,285.5,224.6,3.777,0.678,4.713e7,2939.714,316.68,0.606,0.607,0.367,0.059,0.18,0.131,0.495,-3.671e-4,0,0,0,0,-4.393e-4,0.026,16.1,200,84.282,0.006,6.706,1.946,794.2,332.478,0.05,0.044
2.649,280.705,228.856,96.197,229.594,96.502,14.466,0.001,14.466,0.005,18.391,7.657,37.93,-113.045,9.794,0.573,-1.031e-8,0.004,-1.246e-6,2.451e4,1423,30.503,0.106,285.6,224.3,3.8,0.693,4.81e7,2936.622,332.673,0.611,0.612,0.366,0.062,0.182,0.128,0.487,-4.992e-5,0,0,0,0,1.532e-4,0.026,16.1,200,84.339,0.006,6.706,1.873,793.1,332.434,0.05,0.044
2.698,292.139,233.594,95.578,234.349,95.982,15.385,0.001,15.385,0.005,18.792,8.799,37.93,-113.045,9.794,0.401,2.16e-8,0.014,-5.095e-6,2.444e4,1350,30.418,0.106,286.3,224,3.866,0.707,4.905e7,2932.637,348.831,0.616,0.616,0.366,0.065,0.185,0.084,0.325,-1.059e-4,0,0,0,0,0.002,0.027,16.1,200,84.168,0.006,6.706,1.798,792,332.389,0.049,0.044
2.748,303.938,238.349,94.79,239.128,95.408,16.336,0.001,16.336,0.005,19.282,10.844,37.93,-113.045,9.794,0.057,-1.078e-8,0.019,-9.315e-6,2.437e4,1277,30.331,0.106,287.5,223.7,3.959,0.721,5e7,2927.76,365.748,0.621,0.621,0.365,0.069,0.188,0.016,0.062,-2.7e-5,0,0,0,0,0.003,0.028,16.1,200,83.824,0.006,6.706,1.722,790.8,332.342,0.05,0.045
2.798,315.973,243.06,93.89,243.872,94.79,17.315,0.002,17.315,0.005,19.882,13.032,37.93,-113.045,9.794,0.229,-8.879e-9,-0.017,4.927e-6,2.429e4,1204,30.244,0.106,286.9,223.3,3.942,0.736,5.094e7,2921.957,383.439,0.627,0.627,0.364,0.073,0.19,0.051,0.203,-4.312e-4,0,0,0,0,-0.002,0.028,16.1,200,83.537,0.007,6.706,1.643,789.7,332.295,0.05,0.045
2.848,328.243,247.724,92.982,248.577,94.113,18.326,0.002,18.326,0.005,20.58,14.547,37.93,-113.045,9.794,0.401,2.25e-8,-0.009,-4.52e-6,2.422e4,1131,30.157,0.106,286.2,223,3.917,0.75,5.187e7,2915.248,401.813,0.633,0.633,0.363,0.077,0.193,0.094,0.369,6.871e-5,0,0,0,0,-5.555e-4,0.029,16.1,200,83.251,0.008,6.706,1.564,788.5,332.246,0.05,0.045
2.898,340.745,252.344,92.17,253.243,93.339,19.374,0.002,19.374,0.006,21.32,14.728,37.93,-113.045,9.794,0.458,1.87e-8,0.002,-1.038e-5,2.415e4,1058,30.07,0.106,286.2,222.7,3.936,0.764,5.279e7,2907.653,420.661,0.639,0.64,0.362,0.081,0.196,0.097,0.381,-3.035e-4,0,0,0,0,2.601e-5,0.029,16.1,200,83.193,0.008,6.706,1.482,787.3,332.197,0.05,0.046
2.948,353.477,256.925,91.473,257.868,92.458,20.458,0.002,20.458,0.006,22.03,13.462,37.93,-113.045,9.793,0.286,3.56e-8,0.011,-7.285e-7,2.407e4,986,29.982,0.106,286.8,222.4,3.996,0.778,5.37e7,2899.17,439.987,0.646,0.646,0.361,0.086,0.199,0.059,0.236,3.913e-4,0,0,0,0,8.154e-4,0.03,16.1,200,83.365,0.007,6.706,1.4,786.1,332.147,0.05,0.046
2.998,366.437,261.473,90.8,262.452,91.5,21.575,0.002,21.575,0.006,22.648,11.295,37.93,-113.045,9.793,0.004,-2.675e-8,0.015,-1.592e-4,2.4e4,913,29.894,0.106,287.9,222,4.08,0.792,5.46e7,2889.8,460.05,0.653,0.653,0.361,0.091,0.202,9.085e-4,0.002,3.327e-4,0,0,0,0,0.001,0.03,16.1,200,83.595,0.006,6.706,1.315,784.8,332.096,0.05,0.046
3.048,379.623,265.984,90.027,266.99,90.491,22.72,0.002,22.72,0.006,23.152,9.158,37.93,-113.045,9.793,0.229,-3.902e-8,-0.011,1.001e-5,2.393e4,841,29.806,0.106,287,221.7,4.047,0.806,5.548e7,2879.564,481.024,0.661,0.661,0.36,0.096,0.204,0.052,0.212,-4.156e-5,0,0,0,0,-7.74e-4,0.031,16.1,200,83.824,0.005,6.706,1.23,783.5,332.044,0.05,0.047
3.098,393.034,270.451,89.063,271.476,89.422,23.889,0.003,23.889,0.006,23.569,8.002,37.93,-113.045,9.793,0.344,-7.514e-9,-0.002,-9.065e-6,2.386e4,769,29.717,0.106,286.6,221.4,4.043,0.82,5.635e7,2868.462,502.806,0.669,0.669,0.359,0.102,0.207,0.077,0.311,-4.267e-4,0,0,0,0,-3.396e-5,0.031,16.1,200,83.996,0.006,6.706,1.143,782.3,331.991,0.05,0.047
3.148,406.667,274.863,87.87,275.906,88.267,25.077,0.003,25.077,0.006,23.967,8.363,37.93,-113.045,9.793,0.286,-1.117e-8,0.007,-1.003e-5,2.379e4,698,29.629,0.105,286.9,221.1,4.081,0.833,5.72e7,2856.498,525.296,0.677,0.678,0.358,0.109,0.21,0.062,0.252,-1.035e-4,0,0,0,0,3.13e-4,0.032,16.1,200,83.938,0.007,6.706,1.054,780.9,331.938,0.05,0.047
3.198,420.511,278.878,79.865,279.942,80.397,26.285,0.003,26.285,0.007,24.385,9.238,37.93,-113.045,9.793,0.057,-3.852e-8,0.013,-1.811e-5,2.372e4,633,29.549,0.105,287.7,220.8,4.148,0.845,5.797e7,2685.013,546.813,0.686,0.686,0.357,0.116,0.213,0.018,0.072,1.454e-4,0,0,0,0,9.659e-4,0.032,16.1,200,83.709,0.008,6.706,0.964,779.6,331.883,0.05,0.048
3.248,434.492,280.375,29.709,281.454,30.22,27.51,0.003,27.51,0.007,24.622,5.537,37.93,-113.045,9.793,0.115,-9.263e-9,-0.012,1.515e-6,2.368e4,593,29.499,0.105,287.5,220.6,4.147,0.85,5.822e7,1499.291,554.829,0.69,0.69,0.357,0.119,0.214,0.031,0.129,-4.974e-4,0,0,0,0,-7.914e-4,0.032,16.1,200,83.48,0.009,6.706,0.873,778.3,331.828,0.05,0.048
3.298,448.544,281.706,26.449,282.806,27.181,28.749,0.003,28.749,0.007,24.918,6.264,37.93,-113.045,9.793,0.286,8.265e-9,-0.005,-1.132e-5,2.365e4,557,29.454,0.105,287,220.4,4.128,0.854,5.843e7,1430.697,562.151,0.693,0.693,0.357,0.121,0.215,0.06,0.246,6.53e-5,0,0,0,0,-1.336e-4,0.033,16.1,200,83.308,0.009,6.706,0.782,776.9,331.773,0.05,0.048
3.348,462.662,283.007,25.93,284.13,26.622,30.002,0.004,30.002,0.007,25.234,6.03,37.93,-113.045,9.793,0.229,2.282e-8,0.004,-1.482e-5,2.361e4,522,29.409,0.105,287.1,220.2,4.145,0.859,5.864e7,1423.762,569.342,0.696,0.696,0.356,0.124,0.216,0.054,0.223,-3.771e-4,0,0,0,0,8.193e-5,0.033,16.1,200,83.308,0.008,6.706,0.69,775.6,331.717,0.05,0.048
3.398,476.845,284.285,25.528,285.427,25.96,31.271,0.004,31.271,0.007,25.505,4.716,37.93,-113.045,9.793,0.115,0,0.01,-3.25e-5,2.358e4,486,29.364,0.105,287.7,220.1,4.192,0.863,5.884e7,1416.535,576.446,0.7,0.7,0.356,0.127,0.217,0.02,0.082,-1.379e-4,0,0,0,0,4.967e-4,0.033,16.1,200,83.423,0.007,6.706,0.598,774.2,331.661,0.05,0.049
3.448,491.09,285.545,25.138,286.698,25.327,32.551,0.004,32.551,0.007,25.696,3.089,37.93,-113.045,9.793,0.115,4.127e-8,-0.009,-5.192e-5,2.354e4,451,29.32,0.105,287.7,219.9,4.201,0.867,5.903e7,1409.016,583.615,0.703,0.703,0.356,0.13,0.218,0.022,0.092,-1.533e-4,0,0,0,0,-4.643e-4,0.033,16.1,200,83.652,0.005,6.706,0.505,772.8,331.605,0.05,0.049
3.498,505.398,286.782,24.664,287.942,24.747,33.839,0.004,33.839,0.007,25.814,2.017,37.93,-113.045,9.793,0.229,-1.103e-8,-0.004,6.556e-6,2.35e4,416,29.275,0.105,287.2,219.7,4.184,0.871,5.922e7,1401.214,590.813,0.707,0.707,0.356,0.132,0.219,0.048,0.201,-1.318e-4,0,0,0,0,-6.839e-5,0.033,16.1,200,83.766,0.005,6.706,0.412,771.4,331.549,0.05,0.049
3.548,519.768,287.993,24.063,289.156,24.15,35.132,0.005,35.132,0.008,25.907,2.047,37.93,-113.045,9.793,0.229,0,0.004,9.161e-6,2.347e4,381,29.231,0.105,287.3,219.6,4.198,0.874,5.939e7,1393.131,597.893,0.71,0.71,0.355,0.135,0.219,0.045,0.19,1.8e-5,0,0,0,0,8.623e-5,0.033,16.1,200,83.766,0.007,6.706,0.319,770.1,331.492,0.05,0.05
3.598,534.197,289.17,23.346,290.339,23.544,36.431,0.005,36.431,0.008,26.03,3.054,37.93,-113.045,9.793,0.057,3.065e-8,0.009,-1.962e-5,2.344e4,346,29.187,0.105,287.8,219.4,4.239,0.878,5.957e7,1384.769,604.874,0.714,0.714,0.355,0.138,0.22,0.017,0.071,7.567e-5,0,0,0,0,4.364e-4,0.033,16.1,200,83.595,0.009,6.706,0.225,768.7,331.435,0.05,0.05
3.648,548.684,290.308,22.575,291.489,22.991,37.736,0.005,37.736,0.008,26.217,4.352,37.93,-113.045,9.793,0.057,-8.332e-9,-0.009,-5.399e-6,2.34e4,312,29.142,0.105,287.8,219.2,4.249,0.882,5.973e7,1376.136,611.87,0.717,0.717,0.355,0.141,0.221,0.018,0.078,-4.372e-4,0,0,0,0,-4.154e-4,0.034,16.1,200,83.423,0.012,6.706,0.131,767.3,331.378,0.05,0.05
3.698,563.227,291.408,21.844,292.607,22.443,39.053,0.005,39.053,0.008,26.461,5.151,37.93,-113.045,9.793,0.172,-1.331e-8,-0.004,8.881e-6,2.337e4,277,29.099,0.105,287.4,219.1,4.237,0.885,5.989e7,1367.234,618.855,0.721,0.721,0.355,0.145,0.222,0.04,0.17,5.985e-5,0,0,0,0,-8.077e-5,0.034,16.1,200,83.308,0.014,6.706,0.036,765.9,331.321,0.05,0.051
3.748,577.824,292.474,21.221,293.692,21.795,40.383,0.006,40.383,0.008,26.72,4.969,37.93,-113.045,9.793,0.172,0,0.003,1.043e-6,2.333e4,243,29.055,0.105,287.5,218.9,4.252,0.889,6.004e7,1358.067,625.714,0.725,0.725,0.354,0.148,0.223,0.037,0.156,1.328e-4,0,0,0,0,3.469e-5,0.034,16.1,200,83.308,0.015,6.706,-0.059,764.5,331.263,0.05,0.051
3.798,592.449,292.501,0.618,293.729,1.738,41.722,0.006,41.722,0.008,26.827,1.625,37.93,-113.045,9.793,0.055,6.401e-9,0.007,6.021e-6,2.331e4,222,29.027,0.105,287.9,218.8,4.284,0.889,5.997e7,870.73,625.156,0.725,0.725,0.354,0.148,0.223,0.012,0.052,4.685e-4,0,0,0,0,2.347e-4,0.034,16.1,200,83.423,0.012,6.706,-0.154,763.1,331.206,0.05,0.051
3.848,607.062,292.028,-9.333,293.256,9.354,43.063,0.006,43.063,0.008,26.819,0.626,37.93,-113.045,9.793,0.057,-2.133e-8,-0.006,1.781e-5,2.33e4,206,29.006,0.105,287.8,218.7,4.283,0.888,5.98e7,630.195,621.038,0.724,0.724,0.354,0.147,0.222,0.017,0.074,6.556e-5,0,0,0,0,-2.008e-4,0.034,16.1,200,83.537,0.009,6.706,-0.249,761.7,331.148,0.05,0.051
3.898,621.651,291.561,-9.227,292.787,9.311,44.403,0.007,44.403,0.008,26.766,1.245,37.93,-113.045,9.793,0.172,6.812e-9,-0.002,-6.304e-6,2.328e4,190,28.986,0.105,287.5,218.7,4.269,0.886,5.963e7,627.014,616.999,0.722,0.722,0.355,0.146,0.222,0.035,0.147,-4.219e-4,0,0,0,0,-1.673e-5,0.034,16.1,200,83.595,0.006,6.706,-0.343,760.2,331.091,0.05,0.052
3.948,636.218,291.097,-9.212,292.319,9.275,45.739,0.007,45.739,0.009,26.702,1.073,37.93,-113.045,9.793,0.115,0,0.004,-6.333e-6,2.326e4,175,28.966,0.105,287.6,218.6,4.278,0.885,5.946e7,623.744,612.961,0.721,0.721,0.355,0.144,0.222,0.03,0.128,1.614e-4,0,0,0,0,7.109e-5,0.034,16.1,200,83.595,0.006,6.706,-0.438,758.8,331.033,0.05,0.052
3.998,650.761,290.632,-9.272,291.852,9.276,47.073,0.007,47.073,0.009,26.666,0.282,37.93,-113.045,9.793,0.038,6.81e-9,0.007,2.391e-5,2.325e4,159,28.946,0.105,288,218.5,4.306,0.884,5.93e7,620.385,608.949,0.72,0.72,0.355,0.143,0.222,0.008,0.036,4.157e-4,0,0,0,0,2.508e-4,0.034,16.1,200,83.48,0.009,6.706,-0.533,757.4,330.976,0.05,0.052
4.048,665.281,290.162,-9.355,291.386,9.375,48.407,0.007,48.407,0.009,26.677,0.616,37.93,-113.045,9.793,0.057,-2.134e-8,-0.006,1.682e-5,2.323e4,144,28.926,0.105,287.8,218.4,4.301,0.883,5.913e7,616.939,605.018,0.718,0.718,0.355,0.142,0.221,0.016,0.071,2.763e-4,0,0,0,0,-2.013e-4,0.034,16.1,200,83.365,0.012,6.706,-0.627,756,330.919,0.05,0.053
4.098,679.777,289.689,-9.397,290.919,9.46,49.742,0.008,49.742,0.009,26.724,1.096,37.93,-113.045,9.792,0.115,0,-0.002,-9.616e-6,2.322e4,128,28.906,0.105,287.6,218.4,4.291,0.881,5.896e7,613.406,601.142,0.717,0.717,0.355,0.141,0.221,0.03,0.128,-5.185e-5,0,0,0,0,-2.729e-5,0.034,16.1,200,83.251,0.013,6.706,-0.721,754.7,330.862,0.05,0.053
4.148,694.25,289.215,-9.364,290.452,9.408,51.079,0.008,51.079,0.009,26.778,0.913,37.93,-113.045,9.792,0.115,0,0.002,-1.551e-5,2.32e4,113,28.886,0.105,287.7,218.3,4.301,0.88,5.88e7,609.788,597.268,0.716,0.716,0.355,0.14,0.221,0.025,0.106,2.314e-4,0,0,0,0,2.737e-5,0.033,16.1,200,83.308,0.012,6.706,-0.815,753.3,330.805,0.05,0.053
4.198,708.699,288.745,-9.277,289.987,9.28,52.419,0.008,52.419,0.009,26.808,0.24,37.93,-113.045,9.792,0.027,-1.012e-8,0.005,-1.994e-5,2.319e4,98,28.866,0.105,288,218.2,4.326,0.879,5.863e7,606.084,593.418,0.715,0.715,0.355,0.139,0.22,0.006,0.025,-1.63e-4,0,0,0,0,1.241e-4,0.033,16.1,200,83.365,0.01,6.706,-0.909,751.9,330.748,0.05,0.053
4.248,723.124,288.28,-9.191,289.523,9.205,53.76,0.009,53.76,0.009,26.799,0.499,37.93,-113.045,9.792,0.057,-1.396e-8,-0.004,-3.01e-6,2.317e4,83,28.846,0.105,287.8,218.1,4.32,0.878,5.846e7,602.298,589.629,0.713,0.713,0.355,0.138,0.22,0.015,0.064,-4.613e-4,0,0,0,0,-8.759e-5,0.033,16.1,200,83.423,0.011,6.706,-1.003,750.5,330.691,0.05,0.053
4.298,737.526,287.817,-9.154,289.059,9.195,55.099,0.009,55.099,0.009,26.759,0.876,37.93,-113.045,9.792,0.115,-5.927e-9,-6.366e-4,8.714e-6,2.316e4,68,28.827,0.105,287.6,218.1,4.313,0.876,5.83e7,598.43,585.879,0.712,0.712,0.355,0.137,0.22,0.026,0.111,2.602e-4,0,0,0,0,-2.222e-6,0.033,16.1,200,83.48,0.011,6.706,-1.097,749.1,330.634,0.05,0.054
4.348,751.906,287.355,-9.182,288.595,9.208,56.435,0.009,56.435,0.01,26.716,0.701,37.93,-113.045,9.792,0.115,-1.023e-8,0.003,-3.057e-6,2.314e4,53,28.807,0.105,287.7,218,4.322,0.875,5.813e7,594.48,582.132,0.711,0.711,0.355,0.136,0.22,0.021,0.089,4.437e-4,0,0,0,0,5.391e-5,0.033,16.1,200,83.48,0.011,6.706,-1.19,747.7,330.578,0.05,0.054
4.398,766.262,286.89,-9.261,288.129,9.262,57.77,0.01,57.77,0.01,26.694,0.128,37.93,-113.045,9.792,0.02,-1.287e-8,0.005,4.53e-7,2.313e4,38,28.788,0.105,288,217.9,4.344,0.874,5.797e7,590.45,578.424,0.71,0.71,0.355,0.135,0.219,0.004,0.019,2.998e-4,0,0,0,0,1.47e-4,0.033,16.1,200,83.365,0.012,6.706,-1.283,746.4,330.521,0.05,0.054
4.448,780.595,286.42,-9.353,287.662,9.365,59.105,0.01,59.105,0.01,26.704,0.482,37.93,-113.045,9.792,0.057,1.064e-8,-0.004,-1.867e-5,2.311e4,23,28.769,0.105,287.8,217.9,4.339,0.873,5.781e7,586.342,574.794,0.709,0.709,0.355,0.134,0.219,0.013,0.057,-2.165e-4,0,0,0,0,-1.087e-4,0.033,16.1,200,83.308,0.013,6.706,-1.377,745,330.465,0.05,0.054
4.498,794.895,285.611,-16.061,286.857,16.061,60.44,0.011,60.44,0.01,26.699,0.008,37.93,-113.045,9.792,0.115,-7.348e-9,-0.002,3.035e-7,2.31e4,13,28.755,0.105,287.7,217.8,4.332,0.87,5.758e7,425.427,569.103,0.706,0.706,0.356,0.132,0.218,0.022,0.095,3.967e-4,0,0,0,0,-1.427e-5,0.033,16.1,200,83.251,0.013,6.706,-1.47,743.7,330.408,0.05,0.055
4.501,795.609,285.527,-33.94,286.772,34.005,60.507,0.011,60.507,0.01,26.694,2.095,37.93,-113.045,9.792,0.115,-5.301e-9,-0.001,-5.944e-6,2.31e4,13,28.755,0.105,287.7,217.8,4.331,0.87,5.756e7,9.037,568.546,0.706,0.706,0.356,0.132,0.218,0.023,0.1,2.316e-4,0,0,0,0,-1.007e-5,0.033,16.1,200,83.251,0.013,6.706,-1.474,743.7,330.406,0.003,0.055
4.505,796.68,285.398,-34.292,286.643,34.359,60.607,0.011,60.607,0.01,26.686,2.136,37.93,-113.045,9.792,0.115,-5.282e-9,-0.001,-6.985e-6,2.31e4,13,28.755,0.105,287.7,217.8,4.331,0.87,5.753e7,0,567.701,0.706,0.706,0.356,0.132,0.218,0.023,0.1,-2.27e-4,0,0,0,0,-6.503e-6,0.033,16.1,200,83.251,0.013,6.706,-1.481,743.6,330.401,0.004,0.055
4.51,798.285,285.205,-34.238,286.45,34.304,60.757,0.011,60.757,0.01,26.674,2.134,37.93,-113.045,9.792,0.115,-5.314e-9,-6.366e-4,-5.628e-6,2.31e4,13,28.755,0.105,287.6,217.8,4.331,0.869,5.749e7,0,566.438,0.705,0.705,0.356,0.131,0.218,0.023,0.099,1.075e-4,0,0,0,0,-2.592e-6,0.033,16.1,200,83.193,0.013,6.706,-1.492,743.4,330.395,0.006,0.056
4.519,800.69,284.917,-34.155,286.161,34.222,60.982,0.011,60.982,0.01,26.656,2.141,37.93,-113.045,9.792,0.115,-5.336e-9,-9.917e-5,-3.169e-6,2.31e4,13,28.755,0.105,287.7,217.8,4.331,0.868,5.742e7,0,564.554,0.705,0.705,0.356,0.131,0.218,0.023,0.097,-4.955e-4,0,0,0,0,-5.345e-8,0.033,16.1,200,83.193,0.013,6.706,-1.507,743.2,330.386,0.008,0.056
4.531,804.293,284.485,-34.028,285.729,34.098,61.319,0.011,61.319,0.01,26.629,2.176,37.93,-113.045,9.792,0.115,-5.255e-9,7.958e-4,-1.106e-7,2.31e4,13,28.755,0.105,287.7,217.8,4.332,0.867,5.731e7,0,561.752,0.703,0.703,0.356,0.13,0.218,0.021,0.092,1.13e-5,0,0,0,0,3.138e-6,0.033,16.1,200,83.193,0.012,6.706,-1.531,742.9,330.371,0.013,0.056
4.55,809.688,283.841,-33.836,285.083,33.912,61.825,0.011,61.825,0.01,26.587,2.275,37.93,-113.045,9.792,0.057,0,0.002,-7.757e-6,2.31e4,13,28.755,0.105,287.7,217.8,4.336,0.865,5.716e7,0,557.602,0.702,0.702,0.356,0.129,0.217,0.018,0.076,-3.061e-4,0,0,0,0,1.972e-5,0.033,16.1,200,83.251,0.012,6.706,-1.566,742.4,330.35,0.019,0.056
4.579,817.757,282.882,-33.542,284.122,33.635,62.581,0.011,62.581,0.01,26.519,2.5,37.93,-113.045,9.792,0.045,0,0.003,-4.593e-6,2.31e4,13,28.755,0.105,287.9,217.8,4.343,0.862,5.693e7,0,551.497,0.699,0.699,0.356,0.127,0.217,0.01,0.043,-2.376e-4,0,0,0,0,5.295e-5,0.033,16.1,200,83.251,0.012,6.706,-1.618,741.6,330.318,0.028,0.057
4.622,829.81,281.458,-33.108,282.694,33.234,63.711,0.011,63.711,0.01,26.403,2.895,37.93,-113.045,9.792,0.017,0,-0.003,-4.509e-5,2.31e4,13,28.755,0.105,287.9,217.8,4.349,0.858,5.659e7,0,542.603,0.696,0.696,0.356,0.124,0.216,0.004,0.016,2.413e-4,0,0,0,0,-6.507e-5,0.033,16.1,200,83.308,0.012,6.706,-1.697,740.5,330.271,0.043,0.057
4.672,843.841,279.815,-32.631,281.043,32.791,65.027,0.012,65.027,0.01,26.248,3.234,37.93,-113.045,9.792,0.057,0,-0.002,-1.749e-5,2.31e4,13,28.755,0.105,287.7,217.8,4.335,0.853,5.62e7,0,532.568,0.692,0.692,0.357,0.121,0.215,0.016,0.07,9.545e-5,0,0,0,0,-1.825e-5,0.032,16.1,200,83.365,0.013,6.706,-1.788,739.3,330.216,0.05,0.057
4.722,857.791,278.195,-32.205,279.415,32.371,66.336,0.012,66.336,0.011,26.082,3.274,37.93,-113.045,9.792,0.115,-8.878e-9,9.549e-4,-2.432e-5,2.31e4,13,28.755,0.105,287.6,217.8,4.331,0.848,5.581e7,0,522.892,0.688,0.688,0.357,0.118,0.214,0.019,0.083,-2.916e-5,0,0,0,0,5.007e-6,0.032,16.1,200,83.365,0.015,6.706,-1.878,738,330.161,0.05,0.057
4.772,871.661,276.594,-31.83,277.806,31.97,67.636,0.013,67.636,0.011,25.924,2.995,37.93,-113.045,9.792,0.053,-5.706e-9,0.003,-1.543e-5,2.31e4,13,28.755,0.105,287.8,217.8,4.338,0.844,5.543e7,0,513.544,0.685,0.685,0.357,0.115,0.213,0.012,0.051,-3.905e-5,0,0,0,0,6.347e-5,0.032,16.1,200,83.308,0.016,6.706,-1.969,736.7,330.106,0.05,0.058
4.822,885.451,275.011,-31.488,276.217,31.591,68.928,0.013,68.928,0.011,25.786,2.554,37.93,-113.045,9.792,0.006,-1.149e-8,-0.004,-1.067e-4,2.31e4,13,28.755,0.105,287.9,217.8,4.348,0.839,5.505e7,0,504.516,0.681,0.681,0.358,0.112,0.212,0.001,0.005,5.882e-5,0,0,0,0,-9.628e-5,0.032,16.1,200,83.251,0.016,6.706,-2.058,735.5,330.052,0.05,0.058
4.872,899.162,273.445,-31.153,274.647,31.229,70.215,0.013,70.215,0.011,25.669,2.174,37.93,-113.045,9.792,0.057,0,-0.003,-1.615e-5,2.31e4,13,28.755,0.105,287.7,217.8,4.335,0.834,5.468e7,0,495.791,0.678,0.678,0.358,0.11,0.211,0.013,0.055,2.047e-4,0,0,0,0,-5.311e-5,0.032,16.1,200,83.193,0.015,6.706,-2.147,734.2,329.998,0.05,0.058
4.922,912.796,271.896,-30.803,273.095,30.869,71.496,0.014,71.496,0.011,25.566,2.021,37.93,-113.045,9.792,0.057,0,-7.958e-4,-1.743e-5,2.31e4,13,28.755,0.105,287.6,217.8,4.33,0.83,5.431e7,0,487.342,0.675,0.675,0.358,0.107,0.21,0.017,0.073,8.991e-5,0,0,0,0,-3.859e-6,0.031,16.1,200,83.136,0.014,6.706,-2.236,732.9,329.944,0.05,0.059
4.972,926.352,270.365,-30.432,271.561,30.507,72.771,0.014,72.771,0.011,25.464,2.132,37.93,-113.045,9.792,0.055,0,0.001,-5.948e-6,2.31e4,13,28.755,0.105,287.7,217.8,4.335,0.825,5.394e7,0,479.144,0.672,0.672,0.359,0.105,0.209,0.012,0.052,1.263e-4,0,0,0,0,9.804e-6,0.031,16.1,200,83.136,0.014,6.706,-2.324,731.7,329.891,0.05,0.059
5.022,939.833,268.853,-30.053,270.045,30.149,74.042,0.015,74.042,0.011,25.351,2.403,37.93,-113.045,9.792,0.007,0,0.002,-4.275e-5,2.31e4,13,28.755,0.105,287.9,217.8,4.346,0.821,5.358e7,0,471.191,0.669,0.669,0.359,0.103,0.208,0.002,0.006,2.425e-4,0,0,0,0,3.135e-5,0.031,16.1,200,83.193,0.014,6.706,-2.412,730.5,329.837,0.05,0.059
5.072,953.238,267.359,-29.685,268.546,29.805,75.306,0.015,75.306,0.011,25.223,2.669,37.93,-113.045,9.792,0.042,0,-0.002,-8.798e-8,2.31e4,13,28.755,0.105,287.7,217.8,4.337,0.816,5.323e7,0,463.476,0.667,0.667,0.359,0.101,0.207,0.009,0.04,4.161e-4,0,0,0,0,-1.765e-5,0.031,16.1,200,83.251,0.014,6.706,-2.499,729.2,329.785,0.05,0.059
5.122,966.569,265.884,-29.345,267.065,29.476,76.564,0.015,76.564,0.012,25.085,2.784,37.93,-113.045,9.792,0.057,0,-3.505e-5,-3.266e-6,2.31e4,13,28.755,0.105,287.6,217.8,4.33,0.812,5.288e7,0,455.981,0.664,0.664,0.359,0.099,0.206,0.015,0.063,1.028e-4,0,0,0,0,-7.66e-9,0.031,16.1,200,83.251,0.014,6.706,-2.585,728,329.732,0.05,0.06
5.172,979.827,264.424,-29.038,265.599,29.162,77.815,0.016,77.815,0.012,24.947,2.689,37.93,-113.045,9.792,0.057,5.414e-9,0.002,5.505e-6,2.31e4,13,28.755,0.105,287.7,217.8,4.332,0.808,5.253e7,0,448.687,0.662,0.662,0.36,0.097,0.205,0.013,0.055,-2.815e-5,0,0,0,0,2.148e-5,0.031,16.1,200,83.251,0.015,6.706,-2.672,726.8,329.68,0.05,0.06
5.222,993.012,262.98,-28.758,264.148,28.861,79.059,0.016,79.059,0.012,24.818,2.437,37.93,-113.045,9.792,0.022,0,0.003,4.307e-6,2.31e4,13,28.755,0.105,287.8,217.8,4.34,0.804,5.219e7,0,441.589,0.659,0.659,0.36,0.095,0.204,0.005,0.021,-3.916e-4,0,0,0,0,5.804e-5,0.03,16.1,200,83.193,0.015,6.706,-2.757,725.6,329.628,0.05,0.06
5.272,1006.125,261.548,-28.492,262.713,28.572,80.297,0.017,80.297,0.012,24.704,2.144,37.93,-113.045,9.791,0.022,0,-0.003,-5.02e-6,2.31e4,13,28.755,0.105,287.8,217.8,4.34,0.799,5.185e7,0,434.681,0.657,0.657,0.36,0.094,0.203,0.005,0.021,9.345e-5,0,0,0,0,-5.914e-5,0.03,16.1,200,83.136,0.016,6.706,-2.843,724.4,329.576,0.05,0.06
5.322,1019.167,260.13,-28.224,261.291,28.29,81.529,0.017,81.529,0.012,24.603,1.935,37.93,-113.045,9.791,0.053,-7.577e-9,-0.002,1.284e-5,2.31e4,13,28.755,0.105,287.7,217.8,4.332,0.795,5.151e7,0,427.955,0.654,0.654,0.36,0.092,0.202,0.012,0.051,-3.801e-4,0,0,0,0,-2.431e-5,0.03,16.1,200,83.079,0.018,6.706,-2.927,723.2,329.525,0.05,0.061
5.372,1032.138,258.726,-27.944,259.884,28.008,82.757,0.018,82.757,0.012,24.509,1.884,37.93,-113.045,9.791,0.057,0,-3.183e-4,-2.104e-6,2.31e4,13,28.755,0.105,287.6,217.8,4.33,0.791,5.118e7,0,421.396,0.652,0.652,0.361,0.09,0.201,0.013,0.054,-4.429e-4,0,0,0,0,-7.655e-7,0.03,16.1,200,83.079,0.019,6.706,-3.012,722,329.474,0.05,0.061
5.422,1045.04,257.336,-27.653,258.492,27.724,83.98,0.018,83.98,0.012,24.413,1.986,37.93,-113.045,9.791,0.035,0,9.549e-4,1.837e-5,2.31e4,13,28.755,0.105,287.7,217.8,4.335,0.787,5.085e7,0,414.997,0.65,0.65,0.361,0.089,0.2,0.008,0.033,-3.78e-4,0,0,0,0,6.221e-6,0.03,16.1,200,83.079,0.019,6.706,-3.096,720.9,329.423,0.05,0.061
5.472,1057.872,255.961,-27.358,257.113,27.444,85.198,0.019,85.198,0.012,24.309,2.167,37.93,-113.045,9.791,0.002,0,-0.001,1.592e-4,2.31e4,13,28.755,0.105,287.8,217.8,4.343,0.783,5.053e7,0,408.754,0.648,0.648,0.361,0.087,0.2,3.792e-4,0.002,6.828e-5,0,0,0,0,-1.348e-5,0.03,16.1,200,83.079,0.019,6.706,-3.179,719.7,329.372,0.05,0.061
5.522,1070.636,254.6,-27.073,255.747,27.173,86.411,0.019,86.411,0.013,24.196,2.327,37.93,-113.045,9.791,0.036,0,-9.549e-4,1.876e-5,2.31e4,13,28.755,0.105,287.7,217.8,4.335,0.779,5.021e7,0,402.664,0.646,0.646,0.361,0.086,0.199,0.008,0.034,5.338e-5,0,0,0,0,-5.59e-6,0.029,16.1,200,83.136,0.017,6.706,-3.262,718.5,329.322,0.05,0.062
5.572,1083.332,253.253,-26.807,254.395,26.913,87.618,0.019,87.618,0.013,24.077,2.386,37.93,-113.045,9.791,0.052,0,3.183e-4,1.849e-5,2.31e4,13,28.755,0.105,287.6,217.8,4.33,0.775,4.989e7,0,396.716,0.644,0.644,0.362,0.084,0.198,0.011,0.049,-4.067e-4,0,0,0,0,5.883e-7,0.029,16.1,200,83.136,0.015,6.706,-3.344,717.3,329.272,0.05,0.062
5.622,1095.961,251.919,-26.562,253.056,26.663,88.819,0.02,88.819,0.013,23.959,2.315,37.93,-113.045,9.791,0.045,0,0.002,2.242e-5,2.31e4,13,28.755,0.105,287.7,217.8,4.332,0.771,4.957e7,0,390.902,0.642,0.642,0.362,0.083,0.197,0.01,0.042,-2.345e-4,0,0,0,0,1.772e-5,0.029,16.1,200,83.079,0.013,6.706,-3.426,716.2,329.222,0.05,0.062
5.672,1108.524,250.597,-26.334,251.729,26.422,90.014,0.02,90.014,0.013,23.847,2.146,37.93,-113.045,9.791,0.018,0,0.002,5.478e-5,2.31e4,13,28.755,0.105,287.8,217.8,4.338,0.767,4.926e7,0,385.22,0.64,0.64,0.362,0.082,0.196,0.004,0.017,7.031e-5,0,0,0,0,4.08e-5,0.029,16.1,200,83.079,0.013,6.706,-3.508,715,329.173,0.05,0.062
5.722,1121.021,249.286,-26.116,250.414,26.189,91.203,0.021,91.203,0.013,23.745,1.949,37.93,-113.045,9.791,0.014,0,-0.002,7.167e-5,2.31e4,13,28.755,0.105,287.8,217.8,4.339,0.763,4.895e7,0,379.665,0.639,0.639,0.362,0.081,0.196,0.003,0.013,1.103e-4,0,0,0,0,-4.306e-5,0.029,16.1,200,83.022,0.016,6.706,-3.589,713.9,329.124,0.05,0.063
5.772,1133.453,247.985,-25.898,249.111,25.96,92.388,0.021,92.388,0.013,23.652,1.797,37.93,-113.045,9.791,0.038,0,-0.002,8.715e-6,2.31e4,13,28.755,0.105,287.7,217.8,4.333,0.759,4.865e7,0,374.234,0.637,0.637,0.363,0.079,0.195,0.008,0.037,-1.172e-6,0,0,0,0,-2.336e-5,0.029,16.1,200,82.964,0.018,6.706,-3.67,712.8,329.075,0.05,0.063
5.822,1145.82,246.696,-25.673,247.819,25.732,93.569,0.022,93.569,0.013,23.564,1.739,37.93,-113.045,9.791,0.045,0,-7.958e-4,1.216e-5,2.31e4,13,28.755,0.105,287.7,217.8,4.331,0.755,4.834e7,0,368.919,0.635,0.635,0.363,0.078,0.194,0.01,0.043,1.567e-4,0,0,0,0,-3.998e-6,0.029,16.1,200,82.964,0.02,6.706,-3.751,711.6,329.026,0.05,0.063
5.872,1158.123,245.418,-25.441,246.538,25.503,94.745,0.022,94.745,0.013,23.477,1.781,37.93,-113.045,9.791,0.033,0,3.183e-4,1.507e-5,2.31e4,13,28.755,0.105,287.7,217.8,4.334,0.752,4.805e7,0,363.716,0.634,0.634,0.363,0.077,0.193,0.007,0.031,4.082e-4,0,0,0,0,5.297e-7,0.028,16.1,200,82.964,0.021,6.706,-3.831,710.5,328.978,0.05,0.064
5.922,1170.362,244.152,-25.206,245.269,25.276,95.916,0.023,95.916,0.014,23.385,1.886,37.93,-113.045,9.791,0.008,0,7.958e-4,3.662e-5,2.31e4,13,28.755,0.105,287.8,217.8,4.34,0.748,4.775e7,0,358.622,0.632,0.632,0.363,0.076,0.193,0.002,0.008,-4.639e-4,0,0,0,0,4.389e-6,0.028,16.1,200,82.964,0.022,6.706,-3.91,709.4,328.929,0.05,0.064
5.972,1182.538,242.897,-24.975,244.011,25.054,97.083,0.023,97.083,0.014,23.288,1.998,37.93,-113.045,9.791,0.019,0,-6.366e-4,2.659e-5,2.31e4,13,28.755,0.105,287.8,217.8,4.337,0.744,4.746e7,0,353.635,0.63,0.63,0.363,0.075,0.192,0.004,0.018,-2.948e-4,0,0,0,0,-3.032e-6,0.028,16.1,200,82.964,0.02,6.706,-3.989,708.3,328.881,0.05,0.065
6.022,1194.652,241.654,-24.753,242.764,24.839,98.245,0.024,98.245,0.014,23.186,2.063,37.93,-113.045,9.791,0.037,0,5.325e-5,9.559e-6,2.31e4,13,28.755,0.105,287.7,217.8,4.333,0.74,4.716e7,0,348.75,0.629,0.629,0.364,0.074,0.191,0.008,0.035,4.167e-4,0,0,0,0,2.139e-8,0.028,16.1,200,82.964,0.018,6.706,-4.068,707.2,328.834,0.05,0.065
6.072,1206.704,240.422,-24.546,241.527,24.632,99.402,0.024,99.402,0.014,23.082,2.05,37.93,-113.045,9.791,0.039,0,9.549e-4,1.781e-5,2.31e4,13,28.755,0.105,287.7,217.8,4.332,0.737,4.688e7,0,343.963,0.627,0.627,0.364,0.073,0.191,0.009,0.037,-9.972e-5,0,0,0,0,7.064e-6,0.028,16.1,200,82.964,0.017,6.706,-4.146,706.1,328.786,0.05,0.066
6.122,1218.694,239.199,-24.352,240.301,24.431,100.553,0.025,100.553,0.014,22.982,1.964,37.93,-113.045,9.791,0.027,0,0.002,1.666e-5,2.31e4,13,28.755,0.105,287.7,217.8,4.335,0.733,4.659e7,0,339.27,0.626,0.626,0.364,0.072,0.19,0.006,0.025,1.072e-4,0,0,0,0,2.349e-5,0.028,16.1,200,82.964,0.016,6.706,-4.224,705,328.739,0.05,0.066
6.172,1230.624,237.986,-24.167,239.084,24.237,101.7,0.025,101.7,0.014,22.887,1.835,37.93,-113.045,9.791,0.004,0,0.002,1.511e-4,2.31e4,13,28.755,0.105,287.8,217.8,4.34,0.73,4.631e7,0,334.669,0.625,0.625,0.364,0.071,0.189,9.238e-4,0.004,-2.873e-4,0,0,0,0,3.454e-5,0.028,16.1,200,82.907,0.017,6.706,-4.302,703.9,328.692,0.05,0.066
6.222,1242.493,236.783,-23.986,237.878,24.047,102.842,0.026,102.842,0.014,22.798,1.708,37.93,-113.045,9.791,0.018,0,-0.002,2.32e-5,2.31e4,13,28.755,0.105,287.7,217.8,4.337,0.726,4.603e7,0,330.158,0.623,0.623,0.364,0.07,0.189,0.004,0.017,-2.116e-4,0,0,0,0,-2.979e-5,0.027,16.1,200,82.85,0.018,6.706,-4.379,702.8,328.645,0.05,0.067
6.272,1254.302,235.588,-23.804,236.68,23.859,103.98,0.026,103.98,0.014,22.716,1.622,37.93,-113.045,9.791,0.033,0,-0.001,1.749e-5,2.31e4,13,28.755,0.105,287.7,217.8,4.333,0.723,4.575e7,0,325.734,0.622,0.622,0.365,0.069,0.188,0.007,0.031,5.496e-5,0,0,0,0,-1.461e-5,0.027,16.1,200,82.85,0.021,6.706,-4.456,701.7,328.599,0.05,0.067
6.322,1266.052,234.402,-23.618,235.493,23.672,105.114,0.027,105.114,0.015,22.635,1.598,37.93,-113.045,9.791,0.034,0,-6.366e-4,-6.487e-6,2.31e4,13,28.755,0.105,287.7,217.8,4.333,0.719,4.548e7,0,321.404,0.62,0.62,0.365,0.068,0.187,0.007,0.032,-1.252e-4,0,0,0,0,-2.945e-6,0.027,16.1,200,82.85,0.023,6.706,-4.532,700.7,328.552,0.05,0.068
6.372,1277.743,233.226,-23.429,234.314,23.486,106.243,0.027,106.243,0.015,22.555,1.632,37.93,-113.045,9.791,0.023,0,3.869e-5,5.726e-6,2.31e4,13,28.755,0.105,287.7,217.8,4.336,0.716,4.521e7,0,317.168,0.619,0.619,0.365,0.068,0.187,0.005,0.022,3.957e-4,0,0,0,0,1.212e-8,0.027,16.1,200,82.85,0.024,6.706,-4.608,699.6,328.506,0.05,0.068
6.422,1289.375,232.059,-23.239,233.145,23.301,107.369,0.028,107.369,0.015,22.472,1.701,37.93,-113.045,9.791,0.004,0,3.183e-4,2.314e-5,2.31e4,13,28.755,0.105,287.8,217.8,4.34,0.712,4.494e7,0,313.01,0.618,0.618,0.365,0.067,0.186,7.782e-4,0.003,-4.956e-4,0,0,0,0,8.218e-7,0.027,16.1,200,82.85,0.024,6.706,-4.684,698.6,328.461,0.05,0.069
6.472,1300.949,230.902,-23.052,231.985,23.12,108.491,0.028,108.491,0.015,22.385,1.769,37.93,-113.045,9.791,0.016,0,-1.592e-4,7.078e-6,2.31e4,13,28.755,0.105,287.8,217.8,4.337,0.709,4.467e7,0,308.929,0.617,0.617,0.365,0.066,0.185,0.003,0.015,-4.983e-4,0,0,0,0,-2.616e-7,0.027,16.1,200,82.85,0.023,6.706,-4.759,697.6,328.415,0.05,0.069
6.522,1312.465,229.754,-22.873,230.833,22.944,109.608,0.029,109.608,0.015,22.295,1.806,37.93,-113.045,9.791,0.029,0,3.183e-4,9.08e-6,2.31e4,13,28.755,0.105,287.7,217.8,4.334,0.705,4.441e7,0,304.921,0.615,0.615,0.366,0.065,0.185,0.006,0.028,-3.423e-4,0,0,0,0,7.315e-7,0.027,16.1,200,82.85,0.021,6.706,-4.834,696.6,328.37,0.05,0.069
6.572,1323.924,228.615,-22.702,229.691,22.773,110.72,0.029,110.72,0.015,22.205,1.795,37.93,-113.045,9.791,0.031,0,9.549e-4,3.037e-5,2.31e4,13,28.755,0.105,287.7,217.8,4.333,0.702,4.415e7,0,300.985,0.614,0.614,0.366,0.064,0.184,0.007,0.029,5.877e-5,0,0,0,0,7.555e-6,0.026,16.1,200,82.85,0.019,6.706,-4.908,695.6,328.324,0.05,0.07
6.622,1335.327,227.484,-22.54,228.556,22.607,111.828,0.03,111.828,0.015,22.116,1.738,37.93,-113.045,9.79,0.022,0,0.001,3.167e-5,2.31e4,13,28.755,0.105,287.7,217.8,4.336,0.698,4.389e7,0,297.117,0.613,0.613,0.366,0.064,0.183,0.005,0.02,4.054e-4,0,0,0,0,1.911e-5,0.026,16.1,200,82.792,0.017,6.706,-4.982,694.6,328.28,0.05,0.07
