# Time (s),Altitude (m),Vertical velocity (m/s),Vertical acceleration (m/s²),Total velocity (m/s),Total acceleration (m/s²),Position East of launch (m),Position North of launch (m),Lateral distance (m),Lateral direction (°),Lateral velocity (m/s),Lateral acceleration (m/s²),Latitude (°),Longitude (°),Gravitational acceleration (m/s²),Angle of attack (°),Roll rate (°/s),Pitch rate (°/s),Yaw rate (°/s),Mass (g),Motor mass (g),Longitudinal moment of inertia (kg·m²),Rotational moment of inertia (kg·m²),CP location (cm),CG location (cm),Stability margin calibers (​),Mach number (​),Reynolds number (​),Thrust (N),Drag force (N),Drag coefficient (​),Axial drag coefficient (​),Friction drag coefficient (​),Pressure drag coefficient (​),Base drag coefficient (​),Normal force coefficient (​),Pitch moment coefficient (​),Yaw moment coefficient (​),Side force coefficient (​),Roll moment coefficient (​),Roll forcing coefficient (​),Roll damping coefficient (​),Pitch damping coefficient (​),Coriolis acceleration (m/s²),Reference length (cm),Reference area (cm²),Vertical orientation (zenith) (°),Lateral orientation (azimuth) (°),Wind velocity (m/s),Air temperature (°C),Air pressure (mbar),Speed of sound (m/s),Simulation time step (s),Computation time (s)
0.01,8.627e-4,0.173,17.261,0.173,17.261,0,0,0,0,0,0,28.61,-80.6,9.792,85.54,0,0,0,3.423e4,1.651e4,26.971,0.105,NaN,243.886,NaN,0.007,5.601e5,925.926,4.867e-5,0.75,8.489e-4,0.582,0.117,0.051,NaN,NaN,NaN,NaN,NaN,NaN,NaN,NaN,2.209e-5,15.558,190.094,90,0,2.212,15,1013.25,340.389,0.01,0.002
0.02,0.006,0.886,71.4,0.886,71.4,0,0,0,0,0,0,28.61,-80.6,9.792,68.016,0,0,0,3.421e4,1.65e4,26.965,0.105,NaN,243.862,NaN,0.007,5.977e5,2777.778,0.005,0.742,0.082,0.574,0.117,0.051,NaN,NaN,NaN,NaN,NaN,NaN,NaN,NaN,1.135e-4,15.558,190.094,90,0,2.196,15,1013.249,340.389,0.01,0.002
0.03,0.021,2.115,122.937,2.115,122.937,0,0,0,0,0,0,28.61,-80.6,9.792,45.851,0,0,0,3.419e4,1.648e4,26.957,0.105,NaN,243.832,NaN,0.009,7.666e5,4538.65,0.048,0.714,0.449,0.545,0.117,0.051,NaN,NaN,NaN,NaN,NaN,NaN,NaN,NaN,2.708e-4,15.558,190.094,90,0,2.179,15,1013.248,340.389,0.01,0.002
0.04,0.049,3.44,132.56,3.44,132.56,0,0,0,0,0,0,28.61,-80.6,9.792,32.153,0,0,0,3.417e4,1.645e4,26.945,0.105,NaN,243.788,NaN,0.012,1.026e6,4864.066,0.138,0.683,0.717,0.514,0.117,0.051,NaN,NaN,NaN,NaN,NaN,NaN,NaN,NaN,4.405e-4,15.558,190.094,90,0,2.163,15,1013.244,340.389,0.01,0.003
0.05,0.09,4.717,127.689,4.717,127.689,0,0,0,0,0,0,28.61,-80.6,9.792,24.465,0,0,0,3.414e4,1.643e4,26.933,0.105,NaN,243.744,NaN,0.015,1.308e6,4694.149,0.253,0.659,0.81,0.49,0.117,0.051,NaN,NaN,NaN,NaN,NaN,NaN,NaN,NaN,6.039e-4,15.558,190.094,90,0,2.146,14.999,1013.239,340.389,0.01,0.003
0.06,0.143,5.944,122.81,5.944,122.81,0,0,0,0,0,0,28.61,-80.6,9.792,19.598,0,0,0,3.412e4,1.64e4,26.921,0.105,NaN,243.7,NaN,0.019,1.593e6,4524.232,0.383,0.641,0.827,0.472,0.117,0.051,NaN,NaN,NaN,NaN,NaN,NaN,NaN,NaN,7.611e-4,15.558,190.094,90,0,2.116,14.999,1013.233,340.388,0.01,0.003
0.07,0.208,7.123,117.923,7.123,117.923,0,0,0,0,0,0,28.61,-80.6,9.792,16.329,0,0,0,3.409e4,1.637e4,26.909,0.105,NaN,243.656,NaN,0.022,1.874e6,4354.315,0.522,0.626,0.814,0.458,0.117,0.051,NaN,NaN,NaN,NaN,NaN,NaN,NaN,NaN,9.12e-4,15.558,190.094,90,0,2.087,14.999,1013.226,340.388,0.01,0.003
0.08,0.285,8.265,114.206,8.265,114.206,0,0,0,0,0,0,28.61,-80.6,9.792,13.978,0,0,0,3.406e4,1.635e4,26.897,0.105,NaN,243.613,NaN,0.025,2.15e6,4224.618,0.662,0.615,0.784,0.446,0.117,0.051,NaN,NaN,NaN,NaN,NaN,NaN,NaN,NaN,0.001,15.558,190.094,90,0,2.057,14.998,1013.217,340.388,0.01,0.004
0.09,0.374,9.418,115.339,9.418,115.339,0,0,0,0,0,0,28.61,-80.6,9.792,12.15,0,0,0,3.404e4,1.632e4,26.886,0.105,NaN,243.572,NaN,0.028,2.432e6,4260.272,0.811,0.605,0.751,0.437,0.117,0.051,NaN,NaN,NaN,NaN,NaN,NaN,NaN,NaN,0.001,15.558,190.094,90,0,2.028,14.998,1013.206,340.387,0.01,0.004
0.1,0.474,10.587,116.998,10.587,116.998,0,0,0,0,0,0,28.61,-80.6,9.792,10.687,0,0,0,3.402e4,1.63e4,26.874,0.105,NaN,243.53,NaN,0.032,2.719e6,4313.802,0.972,0.596,0.719,0.428,0.117,0.051,NaN,NaN,NaN,NaN,NaN,NaN,NaN,NaN,0.001,15.558,190.094,90,0,1.998,14.997,1013.194,340.387,0.01,0.004
0.109,0.579,11.707,118.61,11.707,118.61,0,0,0,0,0,0,28.61,-80.6,9.792,9.661,0,0,0,3.399e4,1.628e4,26.864,0.105,NaN,243.491,NaN,0.035,2.997e6,4365.847,1.141,0.589,0.695,0.42,0.117,0.051,NaN,NaN,NaN,NaN,NaN,NaN,NaN,NaN,0.001,15.558,190.094,90,0,1.993,14.996,1013.182,340.387,0.009,0.005
0.118,0.683,12.731,119.912,12.731,119.912,0,0,0,0,0,0,28.61,-80.6,9.792,8.877,0,0,0,3.397e4,1.626e4,26.854,0.104,NaN,243.455,NaN,0.038,3.252e6,4407.579,1.311,0.584,0.678,0.416,0.117,0.051,NaN,NaN,NaN,NaN,NaN,NaN,NaN,NaN,0.002,15.558,190.094,90,0,1.988,14.996,1013.17,340.386,0.009,0.005
0.126,0.787,13.672,119.855,13.672,119.855,0,0,0,0,0,0,28.61,-80.6,9.792,8.258,0,0,0,3.395e4,1.624e4,26.845,0.104,NaN,243.423,NaN,0.041,3.487e6,4403.353,1.485,0.584,0.668,0.416,0.117,0.051,NaN,NaN,NaN,NaN,NaN,NaN,NaN,NaN,0.002,15.558,190.094,90,0,1.984,14.995,1013.158,340.386,0.008,0.005
0.133,0.89,14.547,119.575,14.547,119.575,0,0,0,0,0,0,28.61,-80.6,9.792,7.752,0,0,0,3.393e4,1.622e4,26.837,0.104,NaN,243.393,NaN,0.043,3.705e6,4391.705,1.658,0.585,0.661,0.416,0.117,0.051,NaN,NaN,NaN,NaN,NaN,NaN,NaN,NaN,0.002,15.558,190.094,90,0,1.98,14.994,1013.146,340.385,0.007,0.006
0.14,0.993,15.367,119.312,15.367,119.312,0,0,0,0,0,0,28.61,-80.6,9.792,7.33,0,0,0,3.392e4,1.62e4,26.829,0.104,NaN,243.365,NaN,0.046,3.91e6,4380.809,1.828,0.585,0.654,0.416,0.117,0.051,NaN,NaN,NaN,NaN,NaN,NaN,NaN,NaN,0.002,15.558,190.094,90,0,1.977,14.994,1013.134,340.385,0.007,0.006
0.147,1.096,16.141,119.064,16.141,119.064,0,0,0,0,0,0,28.61,-80.6,9.792,6.97,0,0,0,3.39e4,1.619e4,26.822,0.104,NaN,243.338,NaN,0.048,4.104e6,4370.532,1.997,0.585,0.649,0.416,0.117,0.051,NaN,NaN,NaN,NaN,NaN,NaN,NaN,NaN,0.002,15.558,190.094,90,0,1.973,14.993,1013.121,340.385,0.007,0.006
0.156,1.259,17.3,118.777,17.3,118.777,-7.719e-6,0,7.719e-6,-180,0.002,0.168,28.61,-80.6,9.792,6.528,0,0.009,-3.538e-6,3.388e4,1.616e4,26.811,0.104,251.376,243.297,0.519,0.051,4.395e6,4358.038,2.267,0.585,0.642,0.416,0.117,0.051,1.594,0.828,-1.283e-4,0,0,0,0,1.012e-6,0.002,15.558,190.094,90,0,1.981,14.992,1013.102,340.384,0.01,0.007
0.171,1.525,19.033,118.345,19.033,118.345,-4.965e-5,0,4.965e-5,-180,0.004,0.183,28.61,-80.6,9.792,5.999,0,0.025,-8.374e-7,3.384e4,1.613e4,26.795,0.104,252.494,243.237,0.595,0.056,4.83e6,4339.298,2.706,0.585,0.635,0.416,0.117,0.051,1.435,0.854,-6.165e-5,0,0,0,0,6.727e-6,0.002,15.558,190.094,90,0.002,2.004,14.99,1013.071,340.383,0.015,0.007
0.193,1.971,21.616,117.693,21.616,117.693,-1.869e-4,0,1.869e-4,-180,0.008,0.204,28.61,-80.6,9.792,5.365,0,0.055,1.535e-5,3.379e4,1.607e4,26.77,0.104,253.901,243.145,0.691,0.064,5.479e6,4311.187,3.435,0.585,0.626,0.416,0.118,0.051,1.251,0.866,1.364e-4,0,0,0,0,2.623e-5,0.003,15.558,190.094,89.999,-0.003,2.039,14.987,1013.019,340.381,0.022,0.007
0.226,2.747,25.458,116.706,25.458,116.706,-5.803e-4,0,5.803e-4,-180,0.016,0.236,28.61,-80.6,9.792,4.716,0,0.117,3.667e-6,3.371e4,1.599e4,26.733,0.104,255.425,243.008,0.798,0.075,6.446e6,4269.021,4.693,0.585,0.618,0.416,0.118,0.051,1.071,0.855,-1.876e-4,0,0,0,0,8.46e-5,0.003,15.558,190.094,89.996,-0.003,2.118,14.982,1012.928,340.378,0.033,0.008
0.275,4.145,31.145,115.208,31.145,115.208,-0.002,-6.748e-9,0.002,-180,0.028,0.264,28.61,-80.6,9.792,3.885,0,0.247,5.375e-6,3.359e4,1.588e4,26.677,0.104,257.512,242.8,0.946,0.092,7.877e6,4205.771,6.9,0.585,0.608,0.416,0.118,0.052,0.852,0.805,3.896e-4,0,0,0,0,2.525e-4,0.004,15.558,190.094,89.987,-0.002,2.15,14.973,1012.764,340.373,0.049,0.008
0.325,5.844,36.801,113.3,36.801,113.3,-0.003,-1.822e-8,0.003,-180,0.042,0.283,28.61,-80.6,9.792,3.369,0,0.419,4.355e-5,3.347e4,1.575e4,26.619,0.104,258.895,242.589,1.048,0.108,9.301e6,4129.425,9.543,0.585,0.603,0.415,0.118,0.052,0.722,0.757,-3.455e-4,0,0,0,0,5.231e-4,0.005,15.558,190.094,89.971,1.329e-4,2.227,14.962,1012.565,340.366,0.05,0.008
0.375,7.824,42.414,112.427,42.414,112.427,-0.006,-3.794e-8,0.006,-180,0.056,0.289,28.61,-80.6,9.792,3.03,0,0.65,4.289e-5,3.335e4,1.564e4,26.565,0.104,259.846,242.387,1.122,0.125,1.072e7,4089.202,12.606,0.586,0.601,0.415,0.118,0.052,0.64,0.717,-4.798e-4,0,0,0,0,9.453e-4,0.005,15.558,190.094,89.944,-0.002,2.343,14.949,1012.332,340.358,0.05,0.009
0.425,10.085,48.037,112.612,48.037,112.612,-0.009,-8.027e-8,0.009,-179.999,0.07,0.253,28.61,-80.6,9.792,2.672,0,0.925,4.095e-5,3.324e4,1.552e4,26.51,0.104,260.885,242.183,1.202,0.141,1.213e7,4084.782,16.085,0.586,0.598,0.415,0.119,0.052,0.555,0.666,-4.804e-4,0,0,0,0,0.001,0.006,15.558,190.094,89.905,-0.005,2.391,14.934,1012.067,340.349,0.05,0.009
0.475,12.628,53.669,112.786,53.669,112.786,-0.013,-1.84e-7,0.013,-179.999,0.081,0.168,28.61,-80.6,9.792,2.32,0,1.251,6.542e-5,3.312e4,1.541e4,26.455,0.103,261.941,241.978,1.283,0.158,1.355e7,4080.363,19.987,0.587,0.596,0.415,0.119,0.053,0.475,0.607,-4.685e-4,0,0,0,0,0.002,0.007,15.558,190.094,89.851,-0.006,2.396,14.918,1011.769,340.339,0.05,0.009
0.525,15.452,59.309,112.948,59.309,112.948,-0.017,-3.936e-7,0.017,-179.999,0.086,0.036,28.61,-80.6,9.792,2.002,0,1.607,4.759e-4,3.301e4,1.529e4,26.4,0.103,262.933,241.771,1.36,0.174,1.496e7,4075.943,24.325,0.587,0.594,0.415,0.12,0.053,0.404,0.546,4.966e-4,0,0,0,0,0.003,0.008,15.558,190.094,89.78,-0.007,2.387,14.9,1011.438,340.328,0.05,0.01
0.575,18.559,64.957,113.098,64.957,113.098,-0.021,-7.777e-7,0.021,-179.998,0.084,0.15,28.61,-80.6,9.792,1.71,-4.196e-7,2.004,-5.313e-6,3.289e4,1.518e4,26.344,0.103,263.873,241.563,1.434,0.191,1.638e7,4071.524,29.103,0.588,0.593,0.414,0.12,0.053,0.34,0.483,1.23e-4,0,0,0,0,0.004,0.008,15.558,190.094,89.689,-0.007,2.375,14.879,1011.073,340.316,0.05,0.01
0.625,21.948,70.612,113.234,70.612,113.235,-0.025,-1.423e-6,0.025,-179.997,0.07,0.403,28.61,-80.6,9.792,1.415,0,2.406,2.241e-4,3.278e4,1.506e4,26.288,0.103,264.85,241.354,1.51,0.208,1.78e7,4067.104,34.319,0.588,0.592,0.414,0.121,0.054,0.278,0.414,-1.608e-4,0,0,0,0,0.005,0.009,15.558,190.094,89.579,-0.007,2.333,14.857,1010.676,340.302,0.05,0.01
0.675,25.62,76.273,113.357,76.273,113.359,-0.028,-2.409e-6,0.028,-179.995,0.043,0.707,28.61,-80.6,9.792,1.166,-7.068e-7,2.813,2.198e-4,3.266e4,1.495e4,26.232,0.103,265.705,241.143,1.579,0.224,1.922e7,4062.684,39.996,0.589,0.591,0.414,0.121,0.054,0.226,0.352,4.956e-4,0,0,0,0,0.005,0.01,15.558,190.094,89.449,-0.007,2.329,14.833,1010.245,340.288,0.05,0.01
0.725,29.575,81.94,113.465,81.94,113.47,-0.029,-3.826e-6,0.029,-179.992,0.002,1.106,28.61,-80.6,9.792,0.86,0,3.208,-1.691e-4,3.255e4,1.483e4,26.175,0.103,266.78,240.93,1.662,0.241,2.064e7,4058.265,46.108,0.59,0.591,0.414,0.122,0.054,0.164,0.267,-4.299e-4,0,0,0,0,0.006,0.01,15.558,190.094,89.298,-0.005,2.232,14.808,1009.781,340.272,0.05,0.011
0.775,33.814,87.613,113.558,87.613,113.568,-0.028,-5.659e-6,0.028,-179.988,0.069,1.578,28.61,-80.6,9.792,0.547,-1.135e-6,3.506,-2.134e-4,3.243e4,1.472e4,26.119,0.103,267.915,240.716,1.748,0.258,2.207e7,4053.845,52.684,0.59,0.591,0.413,0.122,0.055,0.103,0.173,-1.197e-4,0,0,0,0,0.006,0.011,15.558,190.094,89.13,-0.004,2.097,14.78,1009.284,340.256,0.05,0.011
0.825,38.337,93.289,113.634,93.289,113.652,-0.022,-7.894e-6,0.022,-179.979,0.16,2.073,28.61,-80.6,9.792,0.308,5.246e-7,3.724,0.001,3.232e4,1.46e4,26.062,0.102,268.815,240.501,1.82,0.274,2.349e7,4049.426,59.75,0.591,0.591,0.413,0.123,0.055,0.057,0.098,5.784e-5,0,0,0,0,0.006,0.012,15.558,190.094,88.949,-0.004,2.052,14.751,1008.754,340.238,0.05,0.011
0.875,43.143,98.969,113.693,98.969,113.722,-0.011,-1.057e-5,0.011,-179.945,0.277,2.563,28.61,-80.6,9.792,0.149,-1.816e-6,3.839,0.002,3.22e4,1.449e4,26.004,0.102,269.44,240.284,1.874,0.291,2.491e7,4045.006,67.302,0.592,0.592,0.412,0.124,0.056,0.028,0.046,2.876e-4,0,0,0,0,0.006,0.013,15.558,190.094,88.759,-0.004,2.124,14.72,1008.19,340.219,0.05,0.012
0.925,48.234,104.651,113.736,104.652,113.778,0.006,-1.378e-5,0.006,-0.128,0.417,3.071,28.61,-80.6,9.792,0.012,6.566e-7,3.901,0.012,3.209e4,1.437e4,25.946,0.102,269.998,240.065,1.924,0.308,2.633e7,4040.587,75.333,0.593,0.593,0.412,0.125,0.056,0.002,-0.001,6.585e-5,0,0,0,0,0.006,0.013,15.558,190.094,88.566,-0.003,2.225,14.686,1007.593,340.199,0.05,0.012
0.975,53.608,110.335,113.762,110.337,113.819,0.031,-1.744e-5,0.031,-0.032,0.584,3.618,28.61,-80.6,9.792,0.149,-1.682e-6,-3.828,0.002,3.197e4,1.426e4,25.888,0.102,269.518,239.845,1.907,0.324,2.775e7,4036.167,83.842,0.594,0.594,0.412,0.125,0.057,0.027,0.057,-1.845e-5,0,0,0,0,-0.005,0.014,15.558,190.094,88.372,-0.003,2.264,14.652,1006.963,340.178,0.05,0.012
1.025,59.267,116.02,113.769,116.023,113.846,0.065,-2.148e-5,0.065,-0.019,0.779,4.189,28.61,-80.6,9.792,0.318,1.383e-6,-3.613,-7.057e-4,3.186e4,1.414e4,25.83,0.102,268.932,239.624,1.884,0.341,2.916e7,4031.748,92.84,0.595,0.595,0.411,0.126,0.058,0.059,0.116,-2.253e-4,0,0,0,0,-0.004,0.015,15.558,190.094,88.185,-0.003,2.25,14.615,1006.299,340.155,0.05,0.013
1.075,65.21,121.705,113.76,121.709,113.858,0.109,-2.597e-5,0.109,-0.014,1.002,4.714,28.61,-80.6,9.792,0.442,2.295e-6,-3.201,-7.506e-4,3.174e4,1.403e4,25.771,0.102,268.527,239.4,1.872,0.358,3.058e7,4027.328,102.323,0.596,0.597,0.411,0.127,0.058,0.083,0.158,1.751e-4,0,0,0,0,-0.003,0.016,15.558,190.094,88.014,-0.003,2.276,14.576,1005.602,340.132,0.05,0.013
1.125,71.437,127.389,113.738,127.395,113.855,0.166,-3.099e-5,0.166,-0.011,1.249,5.16,28.61,-80.6,9.792,0.515,-3.96e-7,-2.68,-5.795e-4,3.163e4,1.391e4,25.713,0.102,268.31,239.175,1.873,0.375,3.199e7,4022.909,112.283,0.597,0.598,0.41,0.128,0.059,0.097,0.183,2.765e-4,0,0,0,0,-0.002,0.016,15.558,190.094,87.867,-0.004,2.349,14.536,1004.872,340.108,0.05,0.013
1.175,77.949,133.071,113.701,133.08,113.836,0.235,-3.689e-5,0.235,-0.009,1.517,5.555,28.61,-80.6,9.792,0.585,-4.463e-7,-2.015,-5.021e-5,3.151e4,1.38e4,25.653,0.102,268.107,238.949,1.874,0.391,3.341e7,4018.489,122.727,0.598,0.599,0.41,0.129,0.06,0.111,0.209,4.487e-4,0,0,0,0,-9.26e-4,0.017,15.558,190.094,87.749,-0.005,2.352,14.493,1004.108,340.082,0.05,0.013
1.225,84.744,138.752,113.652,138.764,113.802,0.318,-4.409e-5,0.318,-0.008,1.803,5.854,28.61,-80.6,9.792,0.629,8.11e-7,-1.201,-0.002,3.14e4,1.368e4,25.594,0.101,268,238.72,1.882,0.408,3.481e7,4014.07,133.645,0.6,0.6,0.409,0.13,0.06,0.119,0.225,4.268e-5,0,0,0,0,-3.026e-4,0.018,15.558,190.094,87.669,-0.007,2.319,14.449,1003.311,340.055,0.05,0.014
1.275,91.824,144.429,113.593,144.445,113.753,0.415,-5.307e-5,0.415,-0.007,2.1,6.02,28.61,-80.6,9.792,0.638,8.111e-7,-0.281,-0.003,3.128e4,1.357e4,25.534,0.101,268.02,238.491,1.898,0.425,3.622e7,4009.65,145.03,0.601,0.602,0.408,0.131,0.061,0.121,0.231,3.917e-4,0,0,0,0,-1.53e-5,0.018,15.558,190.094,87.632,-0.008,2.261,14.403,1002.481,340.027,0.05,0.014
1.325,99.187,150.104,113.529,150.123,113.687,0.528,-6.431e-5,0.528,-0.007,2.402,5.992,28.61,-80.6,9.792,0.59,1.119e-6,0.716,-0.002,3.117e4,1.345e4,25.473,0.101,268.248,238.259,1.928,0.442,3.762e7,4005.23,156.87,0.602,0.603,0.408,0.133,0.062,0.112,0.215,-1.366e-4,0,0,0,0,9.183e-5,0.019,15.558,190.094,87.643,-0.01,2.229,14.355,1001.617,339.998,0.05,0.014
1.375,106.834,155.775,113.458,155.798,113.604,0.655,-7.84e-5,0.655,-0.007,2.696,5.751,28.61,-80.6,9.792,0.484,1.053e-6,1.65,-0.002,3.105e4,1.334e4,25.413,0.101,268.685,238.026,1.971,0.458,3.902e7,4000.811,169.167,0.604,0.604,0.407,0.134,0.063,0.091,0.18,-3.436e-5,0,0,0,0,4.529e-4,0.02,15.558,190.094,87.702,-0.011,2.237,14.306,1000.72,339.968,0.05,0.014
1.425,114.765,161.443,113.378,161.47,113.504,0.797,-9.578e-5,0.797,-0.007,2.974,5.356,28.61,-80.6,9.792,0.36,-4.38e-6,2.443,-0.004,3.094e4,1.322e4,25.352,0.101,269.197,237.791,2.019,0.475,4.042e7,3996.391,181.945,0.605,0.605,0.407,0.135,0.064,0.068,0.136,-2.394e-4,0,0,0,0,9.245e-4,0.021,15.558,190.094,87.806,-0.012,2.2,14.254,999.79,339.937,0.05,0.015
1.475,122.978,167.107,113.306,167.138,113.408,0.952,-1.165e-4,0.952,-0.007,3.228,4.812,28.61,-80.6,9.792,0.212,-1.897e-6,3.055,-0.005,3.083e4,1.311e4,25.291,0.101,269.801,237.556,2.073,0.492,4.181e7,3992.778,195.219,0.607,0.607,0.406,0.136,0.065,0.04,0.08,9.115e-5,0,0,0,0,0.001,0.021,15.558,190.094,87.945,-0.012,2.151,14.201,998.827,339.904,0.05,0.015
1.525,131.475,172.77,113.282,172.805,113.358,1.119,-1.404e-4,1.119,-0.007,3.452,4.154,28.61,-80.6,9.792,0.05,5.256e-6,3.336,-0.016,3.071e4,1.3e4,25.231,0.101,270.469,237.322,2.131,0.509,4.32e7,3991.165,209.014,0.608,0.608,0.405,0.138,0.066,0.009,0.019,3.73e-4,0,0,0,0,0.002,0.022,15.558,190.094,88.106,-0.012,2.115,14.145,997.83,339.871,0.05,0.015
1.575,140.255,178.432,113.242,178.469,113.294,1.297,-1.671e-4,1.297,-0.007,3.642,3.417,28.61,-80.6,9.792,0.123,4.976e-7,-3.26,-0.005,3.06e4,1.288e4,25.17,0.1,270.281,237.085,2.134,0.525,4.458e7,3989.647,223.35,0.61,0.61,0.404,0.139,0.066,0.023,0.051,-4.311e-5,0,0,0,0,-0.001,0.023,15.558,190.094,88.273,-0.012,2.129,14.088,996.8,339.836,0.05,0.015
1.625,149.319,184.092,113.181,184.131,113.213,1.483,-1.964e-4,1.483,-0.008,3.794,2.694,28.61,-80.6,9.792,0.28,3.096e-6,-2.687,-0.003,3.049e4,1.277e4,25.108,0.1,269.788,236.847,2.117,0.542,4.597e7,3988.129,238.232,0.612,0.612,0.404,0.14,0.067,0.053,0.113,3.143e-4,0,0,0,0,-8.602e-4,0.024,15.558,190.094,88.423,-0.014,2.184,14.029,995.737,339.801,0.05,0.016
1.675,158.664,189.747,113.096,189.788,113.115,1.676,-2.281e-4,1.676,-0.008,3.913,2.09,28.61,-80.6,9.792,0.402,-1.657e-6,-1.726,-1.798e-4,3.037e4,1.266e4,25.047,0.1,269.445,236.607,2.111,0.559,4.734e7,3986.611,253.644,0.613,0.614,0.403,0.142,0.068,0.076,0.161,-4.487e-4,0,0,0,0,-3.342e-4,0.024,15.558,190.094,88.534,-0.014,2.282,13.969,994.641,339.764,0.05,0.016
1.725,168.293,195.398,112.988,195.439,113.001,1.874,-2.618e-4,1.874,-0.008,4.006,1.745,28.61,-80.6,9.792,0.459,-4.868e-7,-0.365,-0.001,3.026e4,1.254e4,24.984,0.1,269.351,236.365,2.12,0.575,4.872e7,3985.093,269.544,0.615,0.615,0.402,0.143,0.07,0.087,0.185,3.556e-6,0,0,0,0,-1.407e-5,0.025,15.558,190.094,88.586,-0.011,2.39,13.906,993.512,339.726,0.05,0.016
1.775,178.204,201.043,112.855,201.085,112.87,2.076,-2.969e-4,2.076,-0.008,4.093,1.843,28.61,-80.6,9.792,0.412,1.942e-6,1.103,-0.005,3.015e4,1.243e4,24.922,0.1,269.649,236.121,2.155,0.592,5.009e7,3983.575,285.867,0.617,0.617,0.401,0.145,0.071,0.078,0.169,-8.289e-5,0,0,0,0,1.215e-4,0.026,15.558,190.094,88.567,-0.006,2.383,13.842,992.35,339.687,0.05,0.017
1.825,188.397,206.681,112.698,206.724,112.72,2.283,-3.318e-4,2.283,-0.008,4.195,2.227,28.61,-80.6,9.792,0.324,3.458e-6,2.321,-0.004,3.003e4,1.232e4,24.859,0.1,270.107,235.876,2.2,0.609,5.145e7,3982.057,302.682,0.619,0.619,0.401,0.146,0.072,0.061,0.134,4.685e-4,0,0,0,0,5.094e-4,0.026,15.558,190.094,88.48,7.049e-4,2.454,13.775,991.154,339.647,0.05,0.017
1.875,198.872,212.31,112.514,212.354,112.553,2.496,-3.64e-4,2.496,-0.008,4.322,2.982,28.61,-80.6,9.792,0.169,1.699e-6,3.375,-0.007,2.992e4,1.221e4,24.796,0.1,270.826,235.628,2.262,0.625,5.281e7,3980.538,319.984,0.621,0.621,0.4,0.148,0.073,0.032,0.071,-3.717e-4,0,0,0,0,0.001,0.027,15.558,190.094,88.334,0.007,2.476,13.707,989.926,339.606,0.05,0.017
1.925,209.628,217.929,112.297,217.976,112.37,2.716,-3.913e-4,2.716,-0.008,4.498,4.038,28.61,-80.6,9.792,0.042,5.069e-6,-3.572,-0.041,2.981e4,1.209e4,24.733,0.099,271.477,235.379,2.32,0.642,5.416e7,3979.02,337.822,0.623,0.623,0.399,0.15,0.074,0.008,0.02,-3.784e-4,0,0,0,0,-0.001,0.028,15.558,190.094,88.157,0.01,2.339,13.637,988.664,339.563,0.05,0.017
1.975,220.665,223.537,112.055,223.587,112.169,2.947,-4.123e-4,2.947,-0.008,4.727,5.071,28.61,-80.6,9.792,0.229,-2.492e-6,-2.961,-0.007,2.969e4,1.198e4,24.669,0.099,270.926,235.128,2.301,0.659,5.55e7,3977.502,356.251,0.625,0.625,0.398,0.151,0.075,0.043,0.101,-9.97e-6,0,0,0,0,-7.086e-4,0.029,15.558,190.094,87.99,0.01,2.208,13.566,987.37,339.52,0.05,0.018
2.025,231.982,229.132,111.803,229.186,111.95,3.19,-4.267e-4,3.19,-0.008,5.002,5.747,28.61,-80.6,9.791,0.331,0,-1.568,-0.006,2.958e4,1.187e4,24.605,0.099,270.722,234.875,2.304,0.675,5.684e7,3975.984,375.207,0.627,0.627,0.397,0.153,0.076,0.063,0.145,-4.916e-4,0,0,0,0,-1.891e-4,0.029,15.558,190.094,87.875,0.006,2.162,13.492,986.042,339.475,0.05,0.018
2.075,243.578,234.714,111.555,234.774,111.709,3.447,-4.361e-4,3.447,-0.007,5.295,5.863,28.61,-80.6,9.791,0.324,-3.882e-7,0.058,-0.002,2.947e4,1.175e4,24.54,0.099,270.925,234.62,2.334,0.692,5.818e7,3974.466,394.616,0.629,0.629,0.396,0.155,0.078,0.062,0.144,4.608e-4,0,0,0,0,2.48e-7,0.03,15.558,190.094,87.838,0.002,2.232,13.417,984.682,339.429,0.05,0.018
2.125,255.453,240.285,111.309,240.35,111.445,3.719,-4.43e-4,3.719,-0.007,5.581,5.493,28.61,-80.6,9.791,0.245,5.168e-7,1.553,-0.007,2.935e4,1.164e4,24.475,0.099,271.405,234.363,2.381,0.708,5.95e7,3972.948,414.476,0.631,0.631,0.395,0.157,0.079,0.047,0.11,2.882e-5,0,0,0,0,1.688e-4,0.031,15.558,190.094,87.881,-0.003,2.282,13.34,983.29,339.383,0.05,0.019
2.175,267.606,245.843,111.056,245.912,111.161,4.005,-4.503e-4,4.005,-0.006,5.838,4.839,28.61,-80.6,9.791,0.14,4.182e-6,2.578,-0.01,2.924e4,1.153e4,24.409,0.099,271.991,234.104,2.435,0.725,6.082e7,3971.429,434.826,0.633,0.633,0.394,0.159,0.08,0.027,0.065,-2.025e-4,0,0,0,0,4.442e-4,0.031,15.558,190.094,87.989,-0.011,2.202,13.261,981.864,339.335,0.05,0.019
2.225,280.037,251.388,110.786,251.461,110.859,4.303,-4.622e-4,4.303,-0.006,6.06,4.011,28.61,-80.6,9.791,0.024,-9.036e-6,3.092,-0.065,2.913e4,1.141e4,24.344,0.099,272.61,233.843,2.492,0.741,6.213e7,3969.911,455.691,0.635,0.635,0.393,0.161,0.082,0.005,0.011,-3.689e-4,0,0,0,0,6.109e-4,0.032,15.558,190.094,88.135,-0.017,2.03,13.18,980.406,339.286,0.05,0.019
2.275,292.745,256.918,110.496,256.994,110.538,4.61,-4.807e-4,4.61,-0.006,6.236,3.04,28.61,-80.6,9.791,0.109,1.097e-5,-2.858,-0.021,2.902e4,1.13e4,24.277,0.099,272.532,233.58,2.504,0.758,6.343e7,3968.393,477.107,0.638,0.638,0.392,0.163,0.083,0.021,0.052,4.236e-4,0,0,0,0,-4.999e-4,0.033,15.558,190.094,88.287,-0.018,1.948,13.097,978.916,339.236,0.05,0.02
2.325,305.728,262.434,110.178,262.511,110.199,4.925,-5.064e-4,4.925,-0.006,6.364,2.175,28.61,-80.6,9.791,0.222,-4.291e-6,-1.715,-0.003,2.89e4,1.119e4,24.211,0.098,272.31,233.315,2.507,0.774,6.473e7,3966.875,499.076,0.64,0.64,0.391,0.165,0.084,0.042,0.107,4.783e-4,0,0,0,0,-1.724e-4,0.034,15.558,190.094,88.404,-0.014,1.99,13.013,977.393,339.185,0.05,0.02
2.375,318.988,267.933,109.826,268.011,109.841,5.246,-5.361e-4,5.246,-0.006,6.46,1.828,28.61,-80.6,9.791,0.258,-2.482e-6,0.068,-1.494e-4,2.879e4,1.107e4,24.144,0.098,272.392,233.047,2.529,0.79,6.602e7,3965.357,521.51,0.642,0.643,0.39,0.167,0.086,0.049,0.125,-4.812e-4,0,0,0,0,2.603e-7,0.034,15.558,190.094,88.444,-0.007,2.044,12.927,975.838,339.132,0.05,0.02
2.425,332.521,273.411,109.38,273.489,109.401,5.571,-5.665e-4,5.571,-0.006,6.556,2.178,28.61,-80.6,9.791,0.201,-6.202e-6,1.829,-0.001,2.868e4,1.096e4,24.077,0.098,272.829,232.782,2.574,0.807,6.729e7,3962.288,544.348,0.645,0.645,0.389,0.169,0.087,0.039,0.099,-4.126e-4,0,0,0,0,1.807e-4,0.035,15.558,190.094,88.393,-0.003,2.081,12.839,974.251,339.079,0.05,0.02
2.475,346.328,278.857,108.731,278.937,108.775,5.902,-5.96e-4,5.902,-0.006,6.686,3.109,28.61,-80.6,9.791,0.075,1.871e-6,2.96,-0.002,2.857e4,1.085e4,24.011,0.098,273.536,232.515,2.637,0.823,6.856e7,3954.491,567.597,0.647,0.647,0.388,0.171,0.089,0.014,0.037,3.325e-4,0,0,0,0,4.549e-4,0.036,15.558,190.094,88.267,-0.003,2.107,12.749,972.632,339.025,0.05,0.021
2.525,360.406,284.269,108.036,284.352,108.122,6.241,-6.24e-4,6.241,-0.006,6.872,4.293,28.61,-80.6,9.791,0.075,5.361e-6,-2.934,-0.005,2.846e4,1.074e4,23.944,0.098,273.772,232.247,2.669,0.839,6.981e7,3946.368,591.322,0.65,0.65,0.387,0.173,0.09,0.014,0.038,4.413e-4,0,0,0,0,-4.302e-4,0.036,15.558,190.094,88.112,4.445e-4,2.1,12.657,970.98,338.969,0.05,0.021
2.575,374.754,289.646,107.328,289.733,107.451,6.59,-6.489e-4,6.59,-0.006,7.114,5.135,28.61,-80.6,9.791,0.169,2.825e-6,-1.717,-0.006,2.834e4,1.063e4,23.876,0.098,273.646,231.977,2.678,0.855,7.105e7,3938.244,615.51,0.652,0.652,0.386,0.175,0.092,0.032,0.087,2.194e-4,0,0,0,0,-1.419e-4,0.037,15.558,190.094,87.992,5.213e-4,2.159,12.564,969.298,338.913,0.05,0.021
2.625,389.37,294.987,106.623,295.08,106.756,6.953,-6.708e-4,6.953,-0.006,7.379,5.341,28.61,-80.6,9.791,0.182,2.461e-6,-0.103,-0.007,2.823e4,1.052e4,23.808,0.098,273.832,231.704,2.708,0.871,7.228e7,3930.121,640.07,0.655,0.655,0.384,0.177,0.093,0.035,0.095,-4.267e-4,0,0,0,0,-4.922e-7,0.038,15.558,190.094,87.947,-0.003,2.241,12.469,967.583,338.855,0.05,0.021
2.675,404.252,300.294,105.925,300.391,106.038,7.328,-6.918e-4,7.328,-0.005,7.638,4.896,28.61,-80.6,9.791,0.126,-2.253e-6,1.458,-0.005,2.812e4,1.041e4,23.74,0.097,274.286,231.429,2.755,0.887,7.349e7,3921.997,664.963,0.658,0.658,0.383,0.18,0.095,0.024,0.066,-1.022e-4,0,0,0,0,9.514e-5,0.038,15.558,190.094,87.987,-0.006,2.251,12.372,965.838,338.797,0.05,0.022
2.725,419.399,305.565,105.234,305.667,105.312,7.716,-7.14e-4,7.716,-0.005,7.861,4.043,28.61,-80.6,9.791,0.033,-5.184e-6,2.237,-0.009,2.801e4,1.03e4,23.672,0.097,274.883,231.152,2.811,0.903,7.469e7,3913.874,689.882,0.66,0.66,0.382,0.182,0.096,0.006,0.018,-3.76e-4,0,0,0,0,2.165e-4,0.039,15.558,190.094,88.088,-0.007,2.182,12.274,964.062,338.737,0.05,0.022
2.775,434.808,310.804,104.589,310.908,104.634,8.113,-7.376e-4,8.113,-0.005,8.037,3.083,28.61,-80.6,9.791,0.064,-8.789e-6,-2.092,0.006,2.79e4,1.018e4,23.603,0.097,275.013,230.873,2.837,0.918,7.587e7,3905.75,713.388,0.661,0.661,0.379,0.184,0.098,0.012,0.035,4.304e-4,0,0,0,0,-1.83e-4,0.04,15.558,190.094,88.203,-0.002,2.083,12.174,962.254,338.676,0.05,0.022
2.825,450.479,316.009,103.915,316.115,103.945,8.519,-7.585e-4,8.519,-0.005,8.171,2.465,28.61,-80.6,9.791,0.118,-9.206e-7,-0.956,-0.004,2.779e4,1.007e4,23.533,0.097,275.06,230.592,2.858,0.934,7.704e7,3897.627,737.183,0.661,0.661,0.375,0.186,0.1,0.023,0.065,3.716e-4,0,0,0,0,-3.695e-5,0.04,15.558,190.094,88.282,0.01,1.988,12.072,960.416,338.614,0.05,0.023
2.875,466.408,321.181,103.214,321.287,103.239,8.93,-7.696e-4,8.93,-0.005,8.288,2.251,28.61,-80.6,9.791,0.134,0,0.403,-0.005,2.768e4,9961.917,23.463,0.097,275.274,230.308,2.89,0.949,7.82e7,3889.503,761.252,0.662,0.662,0.372,0.189,0.101,0.026,0.075,4.284e-4,0,0,0,0,6.364e-6,0.041,15.558,190.094,88.293,0.02,2.049,11.968,958.548,338.552,0.05,0.023
2.925,482.596,326.316,102.475,326.424,102.516,9.347,-7.652e-4,9.347,-0.005,8.407,2.92,28.61,-80.6,9.791,0.063,5.285e-6,2.028,-0.035,2.757e4,9850.867,23.393,0.097,275.837,230.023,2.945,0.965,7.935e7,3881.38,785.527,0.663,0.663,0.369,0.191,0.103,0.012,0.035,2.339e-4,0,0,0,0,1.56e-4,0.042,15.558,190.094,88.225,0.024,2.078,11.863,956.65,338.488,0.05,0.024
2.975,499.039,331.413,101.702,331.524,101.785,9.772,-7.424e-4,9.772,-0.004,8.585,4.109,28.61,-80.6,9.791,0.058,-1.215e-6,-1.899,-0.022,2.746e4,9739.816,23.322,0.097,276.219,229.734,2.988,0.98,8.048e7,3873.257,810.052,0.664,0.664,0.366,0.194,0.104,0.011,0.034,-2.254e-5,0,0,0,0,-1.326e-4,0.042,15.558,190.094,88.118,0.019,1.929,11.756,954.721,338.423,0.05,0.024
3.025,515.736,336.471,100.923,336.586,101.038,10.207,-7.042e-4,10.207,-0.004,8.817,4.816,28.61,-80.6,9.791,0.123,4.403e-6,-0.485,-0.011,2.734e4,9628.766,23.25,0.097,276.316,229.444,3.013,0.995,8.16e7,3865.133,834.931,0.665,0.665,0.363,0.196,0.106,0.024,0.073,-2.564e-4,0,0,0,0,-8.383e-6,0.043,15.558,190.094,88.053,0.009,1.853,11.648,952.85,338.357,0.05,0.024
3.075,532.685,341.482,99.683,341.602,99.788,10.654,-6.586e-4,10.654,-0.004,9.058,4.573,28.61,-80.6,9.791,0.1,5.717e-6,1.203,0.003,2.723e4,9517.716,23.179,0.096,276.787,229.151,3.062,1.01,8.271e7,3857.01,873.083,0.676,0.676,0.36,0.211,0.106,0.02,0.061,-2.135e-4,0,0,0,0,5.015e-5,0.044,15.558,190.094,88.075,0.004,1.798,11.538,950.957,338.291,0.05,0.025
3.125,549.883,346.423,98.311,346.547,98.37,11.112,-6.119e-4,11.112,-0.003,9.262,3.387,28.61,-80.6,9.791,0.003,4.983e-6,-2.13,-0.27,2.712e4,9406.665,23.106,0.096,277.781,228.856,3.145,1.025,8.38e7,3848.886,915.396,0.69,0.69,0.357,0.229,0.104,5.043e-4,0.002,4.963e-4,0,0,0,0,-1.527e-4,0.044,15.558,190.094,88.171,-0.003,1.831,11.426,949.035,338.223,0.05,0.025
3.175,567.326,351.296,96.978,351.422,97.006,11.579,-5.688e-4,11.579,-0.003,9.395,2.317,28.61,-80.6,9.79,0.088,-3.956e-6,-1.101,0.003,2.702e4,9300.153,23.037,0.096,277.713,228.57,3.159,1.039,8.486e7,3838.217,953.125,0.7,0.7,0.354,0.243,0.103,0.018,0.057,5.988e-5,0,0,0,0,-3.967e-5,0.045,15.558,190.094,88.261,-0.006,1.872,11.312,947.086,338.154,0.05,0.026
3.225,585.011,356.094,95.588,356.221,95.613,12.051,-5.313e-4,12.051,-0.003,9.497,2.164,28.61,-80.6,9.79,0.092,-4.374e-6,0.506,-0.007,2.691e4,9195.359,22.968,0.096,278.177,228.287,3.207,1.054,8.59e7,3820.781,984.391,0.705,0.705,0.351,0.253,0.101,0.019,0.06,7.064e-5,0,0,0,0,8.161e-6,0.046,15.558,190.094,88.275,-6.262e-4,1.834,11.197,945.11,338.085,0.05,0.026
3.275,602.934,360.823,94.285,360.951,94.329,12.529,-4.962e-4,12.529,-0.002,9.619,2.883,28.61,-80.6,9.79,0.029,4.043e-6,1.639,-0.043,2.681e4,9090.565,22.898,0.096,278.878,228.002,3.27,1.068,8.692e7,3802.98,1011.975,0.707,0.707,0.348,0.259,0.1,0.006,0.019,-4.09e-4,0,0,0,0,8.33e-5,0.046,15.558,190.094,88.209,0.016,1.842,11.081,943.108,338.014,0.05,0.027
3.325,621.092,365.49,93.093,365.621,93.171,13.014,-4.477e-4,13.014,-0.002,9.79,3.825,28.61,-80.6,9.79,0.044,-7.197e-6,-1.434,-0.005,2.67e4,8985.771,22.828,0.096,279.384,227.714,3.321,1.082,8.792e7,3785.178,1036.101,0.706,0.706,0.345,0.263,0.099,0.009,0.031,4.214e-4,0,0,0,0,-6.217e-5,0.047,15.558,190.094,88.12,0.025,1.887,10.963,941.079,337.942,0.05,0.027
3.375,639.482,370.103,92.087,370.238,92.183,13.508,-3.776e-4,13.508,-0.002,9.999,4.19,28.61,-80.6,9.79,0.068,5.154e-6,-0.148,-0.014,2.66e4,8880.977,22.758,0.096,279.829,227.424,3.368,1.096,8.891e7,3767.377,1055.48,0.703,0.703,0.342,0.263,0.097,0.015,0.05,-4.202e-4,0,0,0,0,-6.432e-7,0.047,15.558,190.094,88.077,0.019,1.935,10.843,939.025,337.87,0.05,0.027
3.425,658.102,374.667,91.185,374.806,91.258,14.014,-2.916e-4,14.014,-0.001,10.201,3.654,28.61,-80.6,9.79,0.029,9.788e-6,0.994,-0.004,2.649e4,8776.183,22.687,0.095,280.5,227.132,3.43,1.11,8.987e7,3749.576,1072.731,0.699,0.699,0.34,0.262,0.096,0.006,0.022,2.456e-4,0,0,0,0,2.841e-5,0.048,15.558,190.094,88.107,0.006,1.975,10.722,936.944,337.797,0.05,0.028
3.475,676.948,379.188,90.36,379.33,90.404,14.528,-2.074e-4,14.528,-8.179e-4,10.359,2.794,28.61,-80.6,9.79,0.028,-2.376e-6,-0.924,-0.004,2.639e4,8671.389,22.616,0.095,281.098,226.838,3.488,1.123,9.082e7,3731.774,1088.006,0.693,0.693,0.339,0.259,0.095,0.006,0.022,-3.281e-4,0,0,0,0,-2.397e-5,0.049,15.558,190.094,88.168,-0.004,1.991,10.6,934.839,337.722,0.05,0.028
3.525,696.019,383.672,89.636,383.815,89.666,15.049,-1.325e-4,15.049,-5.046e-4,10.479,2.317,28.61,-80.6,9.79,0.057,0,0.112,-0.007,2.628e4,8566.595,22.544,0.095,281.577,226.541,3.538,1.137,9.176e7,3713.973,1100.115,0.686,0.686,0.337,0.254,0.094,0.013,0.046,-1.796e-4,0,0,0,0,3.417e-7,0.049,15.558,190.094,88.193,-0.003,2.059,10.476,932.708,337.647,0.05,0.029
3.575,715.314,388.12,88.973,388.265,89.022,15.576,-6.659e-5,15.576,-2.449e-4,10.598,2.941,28.61,-80.6,9.79,0.015,7.307e-6,1.419,-0.035,2.618e4,8461.801,22.472,0.095,282.265,226.242,3.601,1.15,9.268e7,3696.172,1109.571,0.677,0.677,0.336,0.248,0.093,0.003,0.012,-2.787e-4,0,0,0,0,5.402e-5,0.05,15.558,190.094,88.144,0.009,2.115,10.35,930.552,337.571,0.05,0.029
3.625,734.831,392.536,88.357,392.683,88.443,16.11,7.173e-6,16.11,2.551e-5,10.772,3.902,28.61,-80.6,9.79,0.044,7.256e-6,-0.828,-0.02,2.607e4,8357.007,22.399,0.095,282.8,225.94,3.655,1.164,9.359e7,3678.371,1117.362,0.668,0.668,0.334,0.242,0.092,0.01,0.038,-1.854e-4,0,0,0,0,-1.798e-5,0.05,15.558,190.094,88.074,0.018,2.07,10.224,928.372,337.494,0.05,0.029
3.675,754.567,396.923,87.845,397.075,87.928,16.654,9.849e-5,16.654,3.388e-4,10.981,3.822,28.61,-80.6,9.79,0.038,7.724e-7,0.691,0.007,2.597e4,8252.212,22.326,0.095,283.39,225.636,3.712,1.177,9.449e7,3660.569,1123.215,0.658,0.658,0.333,0.234,0.091,0.009,0.034,-2.254e-4,0,0,0,0,1.225e-5,0.051,15.558,190.094,88.07,0.013,2.056,10.095,926.167,337.417,0.05,0.03
3.725,774.522,401.287,87.411,401.442,87.455,17.207,1.979e-4,17.207,6.59e-4,11.151,2.778,28.61,-80.6,9.79,0.021,-3.238e-6,-0.95,0.002,2.586e4,8147.418,22.252,0.095,284.045,225.33,3.774,1.19,9.538e7,3642.768,1127.756,0.647,0.647,0.331,0.226,0.09,0.005,0.019,-4.278e-4,0,0,0,0,-2.263e-5,0.051,15.558,190.094,88.129,0.002,2.124,9.966,923.937,337.338,0.05,0.03
3.775,794.695,405.63,86.974,405.786,87.014,17.768,2.908e-4,17.768,9.378e-4,11.266,2.633,28.61,-80.6,9.79,0.026,-2.309e-6,0.416,0.016,2.576e4,8042.624,22.178,0.095,284.609,225.021,3.83,1.203,9.626e7,3624.967,1131.51,0.637,0.637,0.33,0.218,0.089,0.007,0.026,-2.207e-4,0,0,0,0,4.245e-6,0.052,15.558,190.094,88.153,-0.008,2.104,9.834,921.683,337.259,0.05,0.031
3.825,815.085,409.95,86.537,410.109,86.592,18.334,3.686e-4,18.334,0.001,11.406,3.059,28.61,-80.6,9.79,0.003,-1.729e-6,0.495,0.066,2.565e4,7937.83,22.103,0.094,285.413,224.71,3.902,1.216,9.712e7,3607.165,1134.702,0.627,0.627,0.328,0.211,0.088,7.712e-4,0.003,3.687e-4,0,0,0,0,5.894e-6,0.053,15.558,190.094,88.118,-0.001,2.076,9.702,919.405,337.178,0.05,0.031
3.875,835.689,414.248,86.08,414.41,86.16,18.909,4.387e-4,18.909,0.001,11.576,3.732,28.61,-80.6,9.79,0.03,-6.454e-6,-0.338,0.025,2.555e4,7833.036,22.028,0.094,285.714,224.395,3.941,1.23,9.798e7,3589.364,1138.121,0.617,0.617,0.327,0.203,0.087,0.008,0.032,-4.865e-4,0,0,0,0,-2.681e-6,0.053,15.558,190.094,88.082,0.016,2.039,9.568,917.103,337.097,0.05,0.032
3.925,856.509,418.524,85.655,418.689,85.711,19.492,5.263e-4,19.492,0.002,11.764,3.098,28.61,-80.6,9.79,6.091e-4,1.068e-5,0.937,-0.19,2.544e4,7728.242,21.952,0.094,286.057,224.079,3.984,1.243,9.882e7,3571.563,1141.711,0.607,0.607,0.325,0.196,0.086,1.65e-4,5.766e-4,1.402e-4,0,0,0,0,2.024e-5,0.054,15.558,190.094,88.105,0.021,1.998,9.433,914.777,337.015,0.05,0.032
3.975,877.541,422.777,85.173,422.945,85.211,20.084,6.332e-4,20.084,0.002,11.9,2.553,28.61,-80.6,9.79,0.023,-3.835e-6,-0.03,0.005,2.534e4,7623.448,21.876,0.094,286.83,223.76,4.054,1.255,9.966e7,3553.762,1146.568,0.599,0.599,0.324,0.19,0.085,0.006,0.026,2.39e-4,0,0,0,0,-2.003e-8,0.054,15.558,190.094,88.144,0.004,2.052,9.296,912.427,336.932,0.05,0.033
4.025,898.786,427.005,84.595,427.174,84.64,20.682,7.347e-4,20.682,0.002,12.019,2.764,28.61,-80.6,9.789,0.013,1.182e-6,0.756,-0.029,2.523e4,7518.654,21.8,0.094,287.309,223.438,4.105,1.268,1.005e8,3535.96,1153.129,0.592,0.592,0.323,0.185,0.084,0.004,0.015,1.852e-4,0,0,0,0,1.265e-5,0.055,15.558,190.094,88.122,0.007,2.153,9.158,910.054,336.849,0.05,0.033
4.075,920.239,431.126,82.402,431.297,82.475,21.286,8.42e-4,21.286,0.002,12.168,3.468,28.61,-80.6,9.789,0.018,-1.009e-5,-0.79,0.005,2.515e4,7429.308,21.734,0.094,287.811,223.161,4.156,1.281,1.013e8,3480.477,1160.615,0.586,0.586,0.321,0.181,0.083,0.005,0.022,-4.234e-4,0,0,0,0,-1.354e-5,0.055,15.558,190.094,88.061,0.02,2.277,9.018,907.657,336.764,0.05,0.033
4.125,941.892,435,77.442,435.175,77.502,21.899,9.71e-4,21.899,0.003,12.344,3.046,28.61,-80.6,9.789,0.006,-1.005e-5,0.14,-0.019,2.506e4,7342.79,21.67,0.094,288.361,222.891,4.208,1.293,1.02e8,3358.469,1171.158,0.582,0.582,0.32,0.179,0.082,0.002,0.008,3.388e-4,0,0,0,0,4.21e-7,0.056,15.558,190.094,88.041,0.015,2.388,8.878,905.238,336.679,0.05,0.034
4.175,963.733,438.623,72.401,438.801,72.452,22.52,0.001,22.52,0.003,12.484,2.735,28.61,-80.6,9.789,1.417e-4,-2.287e-6,-0.02,-0.187,2.497e4,7256.271,21.605,0.094,288.795,222.62,4.254,1.304,1.027e8,3235.2,1181.528,0.578,0.578,0.318,0.178,0.082,4.209e-5,5.946e-4,1.047e-4,0,0,0,0,-8.153e-9,0.056,15.558,190.094,88.057,-0.001,2.424,8.736,902.798,336.593,0.05,0.034
4.225,985.748,441.993,67.302,442.173,67.352,23.147,0.001,23.147,0.003,12.606,2.576,28.61,-80.6,9.789,8.926e-4,-3.405e-6,0.038,0.017,2.489e4,7169.752,21.54,0.094,289.137,222.347,4.293,1.314,1.033e8,3111.93,1192.31,0.576,0.576,0.317,0.178,0.081,2.692e-4,7.966e-4,1.198e-4,0,0,0,0,3.048e-8,0.057,15.558,190.094,88.064,0.009,2.352,8.593,900.338,336.506,0.05,0.034
4.275,1007.926,445.107,62.216,445.289,62.256,23.78,0.001,23.78,0.003,12.725,2.239,28.61,-80.6,9.789,0.005,-1.376e-6,-0.204,0.003,2.48e4,7083.233,21.475,0.093,289.196,222.071,4.315,1.324,1.038e8,2988.66,1202.071,0.574,0.574,0.316,0.177,0.081,0.002,0.007,1.794e-4,0,0,0,0,-8.445e-7,0.057,15.558,190.094,88.067,0.026,2.321,8.448,897.903,336.419,0.05,0.035
4.325,1030.253,447.966,57.12,448.15,57.165,24.419,0.002,24.419,0.004,12.83,2.27,28.61,-80.6,9.789,0.002,-2.488e-6,-0.166,0.036,2.471e4,6996.714,21.41,0.093,289.241,221.794,4.335,1.333,1.043e8,2865.39,1210.859,0.572,0.572,0.315,0.177,0.08,7.37e-4,0.003,3.5e-4,0,0,0,0,-5.521e-7,0.057,15.558,190.094,88.063,0.009,2.328,8.303,895.528,336.331,0.05,0.035
4.375,1052.716,450.571,52.047,450.756,52.08,25.063,0.002,25.063,0.004,12.933,1.865,28.61,-80.6,9.789,0.006,0,-0.011,-0.016,2.463e4,6910.195,21.344,0.093,289.819,221.515,4.39,1.341,1.047e8,2742.12,1218.578,0.57,0.57,0.314,0.177,0.08,0.002,0.008,4.79e-4,0,0,0,0,0,0.058,15.558,190.094,88.057,0.004,2.383,8.157,893.138,336.242,0.05,0.036
4.425,1075.303,452.921,46.959,453.108,47.007,25.712,0.002,25.712,0.004,13.021,2.135,28.61,-80.6,9.789,0.009,1.284e-6,-0.478,-0.027,2.454e4,6823.768,21.277,0.093,290.114,221.234,4.427,1.348,1.051e8,2618.851,1225.225,0.569,0.569,0.313,0.176,0.079,0.003,0.013,-2.527e-4,0,0,0,0,-4.492e-6,0.058,15.558,190.094,88.041,0.021,2.434,8.011,890.736,336.153,0.05,0.036
4.475,1098.004,455.107,43.676,455.296,43.713,26.366,0.002,26.366,0.004,13.122,1.79,28.61,-80.6,9.789,9.011e-4,-7.692e-7,0.189,-0.121,2.447e4,6754.454,21.224,0.093,289.703,221.007,4.416,1.355,1.054e8,2540.274,1231.155,0.567,0.567,0.313,0.176,0.079,2.879e-4,0.002,-2.31e-4,0,0,0,0,6.981e-7,0.058,15.558,190.094,88.037,0.015,2.415,7.863,888.321,336.064,0.05,0.036
4.525,1120.812,457.217,42.179,457.408,42.208,27.024,0.002,27.024,0.005,13.209,1.561,28.61,-80.6,9.789,0.005,-5.705e-6,-0.016,0.032,2.44e4,6685.14,21.17,0.093,290.383,220.779,4.474,1.362,1.057e8,2505.453,1236.738,0.566,0.566,0.312,0.176,0.078,0.002,0.008,-1.006e-5,0,0,0,0,-5.233e-9,0.059,15.558,190.094,88.05,0.005,2.399,7.715,885.895,335.974,0.05,0.037
4.575,1143.724,459.253,40.668,459.445,40.713,27.686,0.002,27.686,0.005,13.285,1.929,28.61,-80.6,9.789,0.009,4.028e-7,-0.156,-0.013,2.433e4,6615.826,21.116,0.093,290.622,220.55,4.504,1.368,1.06e8,2470.631,1241.968,0.564,0.564,0.311,0.175,0.078,0.003,0.013,3.919e-4,0,0,0,0,-4.635e-7,0.059,15.558,190.094,88.049,0.007,2.327,7.566,883.458,335.884,0.05,0.037
4.625,1166.736,461.214,39.199,461.408,39.217,28.353,0.003,28.353,0.005,13.374,1.206,28.61,-80.6,9.789,0.013,-1.48e-6,-0.539,0.001,2.426e4,6546.512,21.062,0.093,290.64,220.319,4.52,1.374,1.062e8,2435.809,1246.859,0.563,0.563,0.31,0.175,0.078,0.004,0.019,-2.457e-4,0,0,0,0,-5.515e-6,0.059,15.558,190.094,88.059,0.022,2.298,7.416,881.01,335.793,0.05,0.038
4.675,1189.844,463.101,37.692,463.295,37.733,29.023,0.003,29.023,0.005,13.437,1.757,28.61,-80.6,9.789,0.006,-1.017e-5,-0.519,0.047,2.419e4,6477.199,21.008,0.093,290.761,220.087,4.543,1.38,1.065e8,2400.988,1251.416,0.562,0.562,0.31,0.175,0.077,0.002,0.009,-2.193e-5,0,0,0,0,-5.08e-6,0.059,15.558,190.094,88.054,0.018,2.339,7.266,878.552,335.702,0.05,0.038
4.725,1213.044,464.912,36.214,465.109,36.251,29.697,0.003,29.697,0.006,13.518,1.622,28.61,-80.6,9.789,0.004,-1.491e-6,0.121,-0.011,2.412e4,6407.885,20.953,0.093,291.095,219.854,4.579,1.386,1.067e8,2366.166,1255.629,0.561,0.561,0.309,0.175,0.077,0.001,0.005,2.255e-4,0,0,0,0,2.723e-7,0.06,15.558,190.094,88.038,0.012,2.34,7.115,876.084,335.611,0.05,0.039
4.775,1236.333,466.65,34.745,466.848,34.771,30.375,0.003,30.375,0.006,13.598,1.347,28.61,-80.6,9.788,0.004,1.005e-6,-0.035,-0.028,2.405e4,6339.09,20.898,0.093,291.2,219.621,4.601,1.392,1.069e8,2331.32,1259.502,0.559,0.559,0.308,0.174,0.077,0.001,0.005,-1.2e-4,0,0,0,0,-2.22e-8,0.06,15.558,190.094,88.044,0.006,2.328,6.964,873.607,335.519,0.05,0.039
4.825,1259.705,468.232,31.611,468.431,31.631,31.056,0.003,31.056,0.006,13.66,1.101,28.61,-80.6,9.788,0.008,-6.866e-7,0.101,-0.004,2.401e4,6290.274,20.859,0.093,291.085,219.455,4.604,1.397,1.071e8,2256.977,1262.719,0.558,0.558,0.308,0.174,0.076,0.003,0.013,-4.201e-4,0,0,0,0,1.868e-7,0.06,15.558,190.094,88.05,0.017,2.371,6.812,871.121,335.427,0.05,0.04
4.875,1283.15,469.582,26.985,469.782,27.034,31.74,0.003,31.74,0.006,13.71,1.633,28.61,-80.6,9.788,0.013,-5.174e-6,-0.427,0.009,2.396e4,6241.457,20.82,0.092,291.203,219.288,4.623,1.401,1.072e8,2146.874,1264.982,0.557,0.557,0.307,0.174,0.076,0.004,0.021,-1.708e-4,0,0,0,0,-3.343e-6,0.06,15.558,190.094,88.027,0.013,2.428,6.66,868.627,335.335,0.05,0.04
4.925,1306.657,470.702,22.415,470.904,22.443,32.428,0.004,32.428,0.006,13.779,1.128,28.61,-80.6,9.788,0.003,-8.549e-6,0.297,0.047,2.391e4,6192.641,20.781,0.092,291.533,219.121,4.654,1.405,1.072e8,2036.771,1266.285,0.557,0.557,0.307,0.174,0.076,8.63e-4,0.004,-5.901e-5,0,0,0,0,1.61e-6,0.06,15.558,190.094,88.02,0.012,2.386,6.507,866.126,335.242,0.05,0.041
4.975,1330.215,471.594,17.867,471.797,17.876,33.118,0.004,33.118,0.007,13.829,0.59,28.61,-80.6,9.788,0.009,-2.192e-6,-0.146,0.002,2.386e4,6143.825,20.742,0.092,291.357,218.953,4.654,1.408,1.072e8,1926.669,1266.648,0.556,0.556,0.307,0.174,0.076,0.003,0.014,3.154e-4,0,0,0,0,-3.866e-7,0.06,15.558,190.094,88.046,0.003,2.296,6.354,863.62,335.149,0.05,0.041
5.025,1353.811,472.258,13.322,472.461,13.332,33.81,0.004,33.81,0.007,13.852,0.52,28.61,-80.6,9.788,0.007,-3.156e-7,0.043,0.003,2.381e4,6095.009,20.703,0.092,291.212,218.784,4.656,1.41,1.072e8,1816.566,1266.099,0.556,0.556,0.306,0.174,0.076,0.002,0.01,3.076e-4,0,0,0,0,3.41e-8,0.06,15.558,190.094,88.056,0.014,2.299,6.2,861.11,335.056,0.05,0.042
5.075,1377.435,472.696,8.772,472.899,8.852,34.503,0.004,34.503,0.007,13.872,1.19,28.61,-80.6,9.788,0.019,-1.464e-5,-0.268,0.026,2.376e4,6046.193,20.663,0.092,291.396,218.615,4.678,1.412,1.071e8,1706.463,1264.642,0.555,0.555,0.306,0.174,0.076,0.006,0.03,1.889e-4,0,0,0,0,-1.295e-6,0.061,15.558,190.094,88.029,0.026,2.318,6.047,858.597,334.963,0.05,0.042
5.125,1401.075,472.906,4.304,473.111,4.304,35.198,0.004,35.198,0.007,13.913,0.023,28.61,-80.6,9.788,0.013,-2.097e-6,-0.547,-0.016,2.371e4,5997.377,20.623,0.092,291.446,218.445,4.692,1.413,1.069e8,1596.361,1262.277,0.555,0.555,0.306,0.174,0.075,0.004,0.02,-4.52e-5,0,0,0,0,-5.407e-6,0.061,15.558,190.094,88.032,0.012,2.302,5.893,856.083,334.87,0.05,0.043
5.175,1424.72,472.893,-0.189,473.098,0.241,35.893,0.005,35.893,0.007,13.915,0.15,28.61,-80.6,9.788,0.004,-1.033e-5,0.462,0.02,2.366e4,5948.561,20.584,0.092,291.544,218.274,4.71,1.413,1.067e8,1486.258,1259.03,0.555,0.555,0.306,0.174,0.075,0.001,0.005,-1.504e-5,0,0,0,0,3.853e-6,0.061,15.558,190.094,88.042,0.005,2.342,5.739,853.568,334.777,0.05,0.043
5.225,1448.359,472.656,-4.677,472.861,4.724,36.589,0.005,36.589,0.007,13.916,0.666,28.61,-80.6,9.788,0.017,-9.917e-6,-0.218,0.015,2.362e4,5899.745,20.544,0.092,291.368,218.102,4.709,1.413,1.064e8,1376.155,1254.901,0.555,0.555,0.306,0.174,0.075,0.006,0.027,-1.927e-4,0,0,0,0,-8.552e-7,0.061,15.558,190.094,88.021,0.017,2.329,5.586,851.053,334.684,0.05,0.044
5.275,1471.98,472.195,-9.091,472.4,9.102,37.285,0.005,37.285,0.008,13.931,0.448,28.61,-80.6,9.788,0.013,-6.365e-6,-0.534,-0.003,2.357e4,5850.929,20.503,0.092,291.409,217.93,4.723,1.412,1.061e8,1266.053,1249.901,0.555,0.555,0.306,0.174,0.076,0.004,0.021,4.716e-4,0,0,0,0,-5.171e-6,0.06,15.558,190.094,88.032,0.011,2.274,5.432,848.541,334.591,0.05,0.044
5.325,1495.573,471.513,-13.523,471.718,13.523,37.981,0.005,37.981,0.008,13.912,0.131,28.61,-80.6,9.788,0.002,-6.418e-6,-0.328,0.008,2.352e4,5806.216,20.467,0.092,291.456,217.771,4.736,1.41,1.057e8,1156.238,1244.053,0.556,0.556,0.306,0.174,0.076,6.027e-4,0.003,2.858e-4,0,0,0,0,-1.954e-6,0.06,15.558,190.094,88.045,0.01,2.234,5.279,846.031,334.498,0.05,0.045
5.375,1519.126,470.647,-17.2,470.852,17.202,38.677,0.005,38.677,0.008,13.895,0.26,28.61,-80.6,9.788,0.002,-6.154e-6,0.207,-0.024,2.35e4,5785.636,20.45,0.092,291.305,217.698,4.731,1.408,1.053e8,1063.436,1237.653,0.556,0.556,0.307,0.174,0.076,5.663e-4,0.003,-8.072e-5,0,0,0,0,7.802e-7,0.06,15.558,190.094,88.042,0.016,2.193,5.126,843.624,334.405,0.05,0.045
5.425,1542.633,469.618,-20.429,469.823,20.437,39.371,0.005,39.371,0.008,13.875,0.564,28.61,-80.6,9.788,0.005,-5.144e-6,-0.107,-0.017,2.348e4,5765.056,20.433,0.092,291.406,217.625,4.742,1.406,1.049e8,980.59,1230.687,0.557,0.557,0.307,0.174,0.076,0.001,0.007,1.261e-4,0,0,0,0,-2.085e-7,0.06,15.558,190.094,88.042,0.015,2.197,4.973,841.245,334.312,0.05,0.045
5.475,1566.084,468.428,-23.649,468.632,23.656,40.064,0.006,40.064,0.008,13.842,0.583,28.61,-80.6,9.787,0.002,-5.538e-6,0.219,-0.038,2.346e4,5744.476,20.415,0.092,291.028,217.552,4.723,1.402,1.045e8,897.744,1223.134,0.557,0.557,0.307,0.174,0.076,5.143e-4,0.003,-4.061e-4,0,0,0,0,8.828e-7,0.06,15.558,190.094,88.036,0.019,2.258,4.82,838.871,334.22,0.05,0.046
5.525,1589.472,467.077,-26.863,467.281,26.864,40.755,0.006,40.755,0.008,13.81,0.222,28.61,-80.6,9.787,0.014,-3.923e-6,-0.264,-0.014,2.344e4,5723.895,20.398,0.092,291.196,217.478,4.738,1.399,1.04e8,814.898,1214.989,0.558,0.558,0.308,0.174,0.076,0.005,0.022,-3.298e-4,0,0,0,0,-1.291e-6,0.06,15.558,190.094,88.018,0.012,2.258,4.668,836.504,334.128,0.05,0.046
5.575,1612.788,465.566,-30.012,465.77,30.035,41.445,0.006,41.445,0.008,13.786,1.167,28.61,-80.6,9.787,0.014,-4.506e-6,-0.418,-0.008,2.342e4,5703.315,20.381,0.092,291.048,217.405,4.734,1.395,1.034e8,732.052,1206.265,0.559,0.559,0.308,0.174,0.076,0.005,0.021,-2.805e-5,0,0,0,0,-3.262e-6,0.06,15.558,190.094,88.032,0.018,2.221,4.517,834.144,334.036,0.05,0.047
5.625,1636.024,463.898,-33.192,464.101,33.199,42.133,0.006,42.133,0.009,13.731,0.676,28.61,-80.6,9.787,0.006,0,-0.406,-0.015,2.34e4,5682.735,20.364,0.092,291.058,217.331,4.739,1.39,1.029e8,649.206,1196.978,0.56,0.56,0.309,0.174,0.077,0.002,0.01,1.307e-4,0,0,0,0,-3.095e-6,0.059,15.558,190.094,88.039,0.014,2.189,4.366,831.792,333.945,0.05,0.047
5.675,1659.173,462.072,-36.322,462.274,36.34,42.818,0.006,42.818,0.009,13.684,1.124,28.61,-80.6,9.787,0.005,-6.593e-6,-0.291,-0.013,2.338e4,5662.155,20.347,0.092,290.863,217.257,4.731,1.385,1.023e8,566.36,1187.143,0.561,0.561,0.309,0.175,0.077,0.002,0.008,1.786e-4,0,0,0,0,-1.597e-6,0.059,15.558,190.094,88.036,0.013,2.183,4.215,829.449,333.853,0.05,0.047
5.725,1682.227,460.089,-39.46,460.29,39.469,43.501,0.007,43.501,0.009,13.626,0.821,28.61,-80.6,9.787,0.009,-8.387e-6,-0.328,0.006,2.336e4,5641.575,20.33,0.092,290.787,217.183,4.731,1.379,1.017e8,483.514,1176.767,0.562,0.562,0.31,0.175,0.077,0.003,0.014,3.278e-4,0,0,0,0,-2.046e-6,0.059,15.558,190.094,88.027,0.019,2.187,4.066,827.116,333.763,0.05,0.048
5.775,1705.178,457.95,-42.552,458.151,42.574,44.181,0.007,44.181,0.009,13.575,1.373,28.61,-80.6,9.787,0.007,-8.795e-6,-0.294,0.006,2.334e4,5620.995,20.313,0.092,290.628,217.109,4.726,1.373,1.01e8,400.668,1165.856,0.563,0.563,0.311,0.175,0.078,0.002,0.01,1.485e-4,0,0,0,0,-1.659e-6,0.059,15.558,190.094,88.031,0.015,2.164,3.916,824.793,333.672,0.05,0.048
5.825,1728.017,455.604,-46.684,455.804,46.699,44.858,0.007,44.858,0.009,13.504,1.172,28.61,-80.6,9.787,0.006,-1.038e-5,-0.18,0.033,2.333e4,5610.667,20.304,0.092,290.398,217.071,4.713,1.367,1.003e8,293.193,1154.224,0.565,0.565,0.311,0.175,0.078,0.002,0.009,3.985e-4,0,0,0,0,-6.275e-7,0.058,15.558,190.094,88.035,0.013,2.118,3.768,822.481,333.582,0.05,0.049
5.875,1750.608,452.884,-54.403,453.083,54.432,45.528,0.007,45.528,0.009,13.428,1.779,28.61,-80.6,9.787,0.007,-1.224e-5,-0.3,0.034,2.332e4,5606,20.3,0.092,290.279,217.055,4.707,1.359,9.952e7,100.033,1141.281,0.566,0.566,0.312,0.176,0.078,0.002,0.011,8.904e-6,0,0,0,0,-1.767e-6,0.058,15.558,190.094,88.043,0.014,2.076,3.621,820.194,333.493,0.05,0.049
5.925,1773.179,449.964,-58.107,450.162,58.138,46.197,0.008,46.197,0.009,13.333,1.901,28.61,-80.6,9.787,0.007,-9.952e-6,0.238,-0.022,2.332e4,5606,20.3,0.092,290.125,217.055,4.697,1.35,9.869e7,0,1127.673,0.568,0.568,0.313,0.176,0.079,0.002,0.011,-2.096e-5,0,0,0,0,1.133e-6,0.058,15.558,190.094,88.041,0.014,2.149,3.474,817.91,333.404,0.05,0.049
5.975,1795.605,447.073,-57.547,447.269,57.565,46.861,0.008,46.861,0.009,13.239,1.446,28.61,-80.6,9.787,0.01,-9.317e-6,-0.492,-0.007,2.332e4,5606,20.3,0.092,289.912,217.055,4.683,1.342,9.788e7,0,1114.262,0.57,0.57,0.314,0.176,0.079,0.003,0.015,1.857e-4,0,0,0,0,-4.891e-6,0.057,15.558,190.094,88.012,0.027,2.239,3.329,815.64,333.316,0.05,0.05
6.025,1817.887,444.21,-56.981,444.405,56.998,47.521,0.008,47.521,0.01,13.17,1.4,28.61,-80.6,9.787,0.012,-1.03e-5,0.107,0.011,2.332e4,5606,20.3,0.092,289.61,217.055,4.664,1.334,9.708e7,0,1101.029,0.572,0.572,0.315,0.177,0.08,0.004,0.017,3.594e-4,0,0,0,0,2.33e-7,0.057,15.558,190.094,87.997,0.02,2.203,3.184,813.385,333.228,0.05,0.05
6.075,1840.027,441.375,-56.402,441.569,56.435,48.178,0.008,48.178,0.01,13.1,1.943,28.61,-80.6,9.787,0.012,-2.774e-6,-0.539,-0.033,2.332e4,5606,20.3,0.092,289.396,217.055,4.65,1.326,9.628e7,0,1087.978,0.574,0.574,0.316,0.177,0.08,0.004,0.016,-2.678e-4,0,0,0,0,-6.019e-6,0.057,15.558,190.094,88.029,0.012,2.116,3.04,811.144,333.141,0.05,0.051
6.125,1862.025,438.569,-55.851,438.761,55.884,48.831,0.008,48.831,0.01,12.999,1.934,28.61,-80.599,9.787,0.012,-1.581e-5,0.168,0.004,2.332e4,5606,20.3,0.092,289.117,217.055,4.632,1.318,9.549e7,0,1075.126,0.575,0.575,0.317,0.178,0.081,0.004,0.018,1.111e-4,0,0,0,0,5.913e-7,0.056,15.558,190.094,88.05,0.021,2.114,2.897,808.917,333.054,0.05,0.051
6.175,1883.884,435.79,-55.324,435.981,55.343,49.478,0.009,49.478,0.01,12.902,1.453,28.61,-80.599,9.786,0.008,-1.961e-5,-0.48,0.013,2.332e4,5606,20.3,0.092,288.882,217.055,4.617,1.31,9.472e7,0,1062.463,0.577,0.577,0.318,0.178,0.081,0.002,0.011,3.804e-4,0,0,0,0,-4.905e-6,0.056,15.558,190.094,88.02,0.027,2.162,2.755,806.705,332.968,0.05,0.051
6.225,1905.604,433.037,-54.796,433.227,54.809,50.121,0.009,50.121,0.01,12.837,1.221,28.61,-80.599,9.786,0.018,-1.295e-5,0.024,-0.01,2.332e4,5606,20.3,0.092,288.557,217.055,4.596,1.302,9.395e7,0,1049.972,0.579,0.579,0.319,0.178,0.082,0.005,0.024,-3.128e-4,0,0,0,0,1.245e-8,0.055,15.558,190.094,87.994,0.019,2.134,2.614,804.506,332.883,0.05,0.052
6.275,1927.188,430.309,-54.3,430.499,54.326,50.762,0.009,50.762,0.01,12.777,1.71,28.61,-80.599,9.786,0.006,-1.195e-5,-0.624,0.02,2.332e4,5606,20.3,0.092,288.241,217.055,4.576,1.294,9.319e7,0,1038.801,0.581,0.581,0.32,0.179,0.082,0.002,0.007,-1.853e-4,0,0,0,0,-8.499e-6,0.055,15.558,190.094,88.023,0.022,2.051,2.473,802.322,332.798,0.05,0.052
6.325,1948.636,427.606,-53.829,427.794,53.866,51.398,0.009,51.398,0.01,12.683,1.978,28.61,-80.599,9.786,0.019,-8.211e-6,-0.062,-0.012,2.332e4,5606,20.3,0.092,287.958,217.055,4.557,1.286,9.243e7,0,1028.057,0.584,0.584,0.321,0.18,0.083,0.006,0.025,4.95e-4,0,0,0,0,-8.471e-8,0.055,15.558,190.094,88.057,0.03,2.033,2.334,800.151,332.713,0.05,0.053
6.375,1969.949,424.926,-53.414,425.112,53.434,52.03,0.01,52.03,0.011,12.583,1.455,28.61,-80.599,9.786,0.005,-1.407e-5,-0.621,-0.03,2.332e4,5606,20.3,0.092,287.827,217.055,4.549,1.278,9.169e7,0,1017.967,0.587,0.587,0.321,0.182,0.083,0.001,0.007,-3.312e-4,0,0,0,0,-8.637e-6,0.054,15.558,190.094,88.035,0.031,2.031,2.195,797.994,332.629,0.05,0.053
6.425,1991.129,422.264,-53.067,422.449,53.083,52.658,0.01,52.658,0.011,12.52,1.313,28.61,-80.599,9.786,0.012,-1.229e-5,0.117,-0.025,2.332e4,5606,20.3,0.092,287.433,217.055,4.524,1.271,9.095e7,0,1009.757,0.591,0.591,0.322,0.185,0.084,0.003,0.015,-5.837e-5,0,0,0,0,3.123e-7,0.054,15.558,190.094,88.007,0.021,2.019,2.058,795.85,332.546,0.05,0.054
6.475,2012.176,419.619,-52.72,419.804,52.735,53.282,0.01,53.282,0.011,12.459,1.261,28.61,-80.599,9.786,0.014,-1.082e-5,0.265,0.004,2.332e4,5606,20.3,0.092,287.066,217.055,4.5,1.263,9.023e7,0,1001.627,0.595,0.595,0.323,0.187,0.084,0.004,0.017,-2.551e-4,0,0,0,0,1.615e-6,0.054,15.558,190.094,88.02,0.008,1.921,1.921,793.78,332.463,0.05,0.054
6.525,2033.091,416.991,-52.391,417.175,52.432,53.903,0.01,53.903,0.011,12.387,2.072,28.61,-80.599,9.786,0.03,-1.455e-5,-0.821,-0.004,2.332e4,5606,20.3,0.092,286.789,217.055,4.482,1.255,8.951e7,0,994.61,0.599,0.599,0.324,0.19,0.085,0.008,0.036,-4.81e-5,0,0,0,0,-1.565e-5,0.053,15.558,190.094,88.064,0.019,1.904,1.785,791.767,332.381,0.05,0.055
6.575,2053.875,414.379,-52.124,414.561,52.156,54.52,0.011,54.52,0.011,12.274,1.819,28.61,-80.599,9.786,0.017,-2.075e-6,1.013,-0.024,2.332e4,5606,20.3,0.092,286.456,217.055,4.461,1.248,8.881e7,0,988.194,0.604,0.604,0.325,0.194,0.085,0.005,0.02,-4.449e-5,0,0,0,0,2.414e-5,0.053,15.558,190.094,88.058,0.03,2.03,1.65,789.766,332.299,0.05,0.055
6.625,2074.529,411.779,-51.871,411.96,51.883,55.131,0.011,55.131,0.011,12.192,1.119,28.61,-80.599,9.786,0.022,-1.763e-5,-0.849,-0.01,2.332e4,5606,20.3,0.092,286.169,217.055,4.443,1.24,8.81e7,0,981.727,0.609,0.609,0.326,0.197,0.086,0.006,0.026,4.594e-4,0,0,0,0,-1.718e-5,0.053,15.558,190.094,87.992,0.021,2.072,1.516,787.778,332.217,0.05,0.056
6.675,2095.053,409.191,-51.631,409.371,51.646,55.74,0.011,55.74,0.012,12.149,1.233,28.61,-80.599,9.786,0.016,-1.509e-5,0.332,-0.003,2.332e4,5606,20.3,0.092,285.856,217.055,4.422,1.233,8.741e7,0,976.238,0.614,0.614,0.327,0.201,0.086,0.004,0.019,4.882e-4,0,0,0,0,2.653e-6,0.052,15.558,190.094,87.97,0.012,2.135,1.382,785.803,332.136,0.05,0.056
6.725,2115.448,406.616,-51.375,406.795,51.405,56.346,0.011,56.346,0.012,12.079,1.769,28.61,-80.599,9.786,0.015,-1.641e-5,-0.203,-0.021,2.332e4,5606,20.3,0.092,285.597,217.055,4.406,1.225,8.672e7,0,970.703,0.62,0.62,0.327,0.205,0.087,0.004,0.017,3.696e-4,0,0,0,0,-1.003e-6,0.052,15.558,190.094,87.998,0.017,2.258,1.25,783.84,332.056,0.05,0.056
6.775,2135.715,404.053,-51.146,404.231,51.171,56.947,0.012,56.947,0.012,11.981,1.607,28.61,-80.599,9.786,0.006,-1.826e-5,0.625,-0.036,2.332e4,5606,20.3,0.092,285.21,217.055,4.381,1.218,8.603e7,0,965.232,0.626,0.626,0.328,0.21,0.088,0.002,0.007,-3.073e-4,0,0,0,0,9.647e-6,0.052,15.558,190.094,87.996,0.029,2.273,1.118,781.889,331.976,0.05,0.057
6.825,2155.854,401.501,-50.935,401.678,50.95,57.544,0.012,57.544,0.012,11.909,1.27,28.61,-80.599,9.786,0.014,-1.852e-5,-0.144,-0.011,2.332e4,5606,20.3,0.092,284.978,217.055,4.366,1.21,8.535e7,0,960.036,0.631,0.631,0.329,0.214,0.088,0.004,0.016,4.962e-4,0,0,0,0,-5.204e-7,0.051,15.558,190.094,87.969,0.031,2.193,0.987,779.951,331.897,0.05,0.057
6.875,2175.865,398.96,-50.71,399.136,50.724,58.138,0.012,58.138,0.012,11.853,1.202,28.61,-80.599,9.786,0.018,-2.114e-5,0.402,0.003,2.332e4,5606,20.3,0.092,284.622,217.055,4.343,1.203,8.467e7,0,954.751,0.637,0.637,0.33,0.219,0.089,0.005,0.02,1.909e-4,0,0,0,0,4.097e-6,0.051,15.558,190.094,87.972,0.025,2.102,0.857,778.024,331.818,0.05,0.058
6.925,2195.75,396.43,-50.462,396.606,50.491,58.729,0.013,58.729,0.012,11.787,1.698,28.61,-80.599,9.785,0.015,-2.234e-5,-0.764,0.008,2.332e4,5606,20.3,0.092,284.295,217.055,4.322,1.196,8.399e7,0,949.384,0.643,0.643,0.331,0.223,0.089,0.004,0.016,-3.039e-5,0,0,0,0,-1.498e-5,0.051,15.558,190.094,88.012,0.016,2.072,0.728,776.11,331.74,0.05,0.058
6.975,2215.508,393.913,-50.226,394.087,50.258,59.316,0.013,59.316,0.012,11.691,1.788,28.61,-80.599,9.785,0.022,-1.817e-5,0.264,-0.006,2.332e4,5606,20.3,0.092,283.975,217.055,4.302,1.188,8.333e7,0,943.941,0.649,0.649,0.332,0.227,0.09,0.005,0.023,-2.908e-4,0,0,0,0,1.812e-6,0.05,15.558,190.094,88.03,0.012,2.079,0.599,774.209,331.662,0.05,0.059
7.025,2235.141,391.408,-50.002,391.58,50.022,59.899,0.013,59.899,0.013,11.606,1.402,28.61,-80.599,9.785,0.003,-2.067e-5,-0.524,0.077,2.332e4,5606,20.3,0.092,283.512,217.055,4.272,1.181,8.266e7,0,938.417,0.655,0.655,0.332,0.232,0.09,8.408e-4,0.003,-3.817e-4,0,0,0,0,-7.231e-6,0.05,15.558,190.094,88.002,0.015,2.024,0.472,772.319,331.585,0.05,0.059
7.075,2254.649,388.914,-49.755,389.085,49.768,60.478,0.013,60.478,0.013,11.548,1.138,28.61,-80.599,9.785,0.022,-1.714e-5,-0.006,0.008,2.332e4,5606,20.3,0.092,283.333,217.055,4.26,1.174,8.2e7,0,932.44,0.66,0.66,0.333,0.236,0.091,0.005,0.022,1.341e-4,0,0,0,0,0,0.05,15.558,190.094,87.98,0.026,1.976,0.345,770.441,331.508,0.05,0.06
7.125,2274.033,386.433,-49.487,386.603,49.504,61.054,0.014,61.054,0.013,11.492,1.299,28.61,-80.599,9.785,0.01,-1.649e-5,0.495,0.034,2.332e4,5606,20.3,0.092,283.113,217.055,4.246,1.167,8.135e7,0,926.339,0.666,0.666,0.334,0.24,0.091,0.002,0.01,-1.768e-4,0,0,0,0,6.621e-6,0.05,15.558,190.094,87.996,0.034,1.946,0.219,768.575,331.431,0.05,0.06
7.175,2293.293,383.965,-49.208,384.135,49.236,61.626,0.014,61.626,0.013,11.418,1.673,28.61,-80.599,9.785,0.019,-1.316e-5,-0.414,0.007,2.332e4,5606,20.3,0.092,282.652,217.055,4.216,1.159,8.07e7,0,920.129,0.671,0.671,0.335,0.244,0.092,0.004,0.019,2.895e-4,0,0,0,0,-4.701e-6,0.049,15.558,190.094,88.028,0.034,1.95,0.094,766.722,331.356,0.05,0.06
7.225,2312.43,381.512,-48.908,381.681,48.934,62.195,0.014,62.195,0.013,11.329,1.607,28.61,-80.599,9.785,0.016,-1.365e-5,0.322,0.005,2.332e4,5606,20.3,0.092,282.377,217.055,4.199,1.152,8.006e7,0,913.081,0.676,0.676,0.336,0.247,0.093,0.004,0.015,3.438e-4,0,0,0,0,2.871e-6,0.049,15.558,190.094,88.031,0.025,1.929,-0.031,764.88,331.28,0.05,0.061
7.275,2331.444,379.074,-48.614,379.241,48.632,62.76,0.014,62.76,0.013,11.255,1.331,28.61,-80.599,9.785,0.005,-1.204e-5,-0.342,-0.014,2.332e4,5606,20.3,0.092,282.142,217.055,4.184,1.145,7.942e7,0,906.023,0.68,0.68,0.337,0.251,0.093,0.001,0.005,-6.213e-5,0,0,0,0,-3.281e-6,0.049,15.558,190.094,88.008,0.017,1.883,-0.154,763.049,331.205,0.05,0.061
7.325,2350.337,376.651,-48.3,376.818,48.316,63.321,0.015,63.321,0.013,11.195,1.264,28.61,-80.599,9.785,0.01,-1.269e-5,-0.05,-0.012,2.332e4,5606,20.3,0.092,281.788,217.055,4.161,1.138,7.879e7,0,898.644,0.685,0.685,0.337,0.254,0.094,0.002,0.01,-3.818e-4,0,0,0,0,-7.178e-8,0.048,15.558,190.094,87.993,0.019,1.915,-0.277,761.231,331.131,0.05,0.062
7.375,2369.11,374.245,-47.943,374.411,47.962,63.879,0.015,63.879,0.013,11.129,1.347,28.61,-80.599,9.785,0.003,-1.414e-5,0.018,0.009,2.332e4,5606,20.3,0.092,281.409,217.055,4.137,1.131,7.816e7,0,890.386,0.689,0.689,0.338,0.256,0.094,6.71e-4,0.003,-4.971e-4,0,0,0,0,8.878e-9,0.048,15.558,190.094,87.994,0.027,1.961,-0.399,759.424,331.057,0.05,0.062
7.425,2387.762,371.857,-47.585,372.021,47.609,64.434,0.015,64.434,0.014,11.059,1.497,28.61,-80.599,9.785,0.011,-1.43e-5,-0.009,-0.008,2.332e4,5606,20.3,0.092,281.115,217.055,4.118,1.124,7.754e7,0,882.178,0.692,0.692,0.339,0.259,0.095,0.002,0.009,3.462e-5,0,0,0,0,0,0.048,15.558,190.094,87.998,0.035,2.01,-0.52,757.629,330.984,0.05,0.063
7.475,2406.296,369.487,-47.211,369.65,47.233,64.985,0.016,64.985,0.014,10.982,1.42,28.61,-80.599,9.785,0.005,-1.639e-5,0.36,-0.026,2.332e4,5606,20.3,0.092,280.832,217.055,4.099,1.117,7.693e7,0,873.406,0.696,0.696,0.34,0.261,0.095,0.001,0.004,1.555e-5,0,0,0,0,3.826e-6,0.047,15.558,190.094,87.99,0.038,2.035,-0.641,755.845,330.911,0.05,0.063
7.525,2424.711,367.136,-46.801,367.299,46.821,65.532,0.016,65.532,0.014,10.915,1.361,28.61,-80.599,9.785,4.992e-4,-1.778e-5,0.21,0.079,2.332e4,5606,20.3,0.092,281.181,217.055,4.122,1.11,7.632e7,0,863.805,0.698,0.698,0.34,0.262,0.096,1.084e-4,7.909e-4,-3.239e-4,0,0,0,0,1.319e-6,0.047,15.558,190.094,87.973,0.029,2.07,-0.761,754.072,330.838,0.05,0.063
7.575,2443.01,364.806,-46.399,364.968,46.415,66.076,0.016,66.076,0.014,10.848,1.227,28.61,-80.599,9.785,0.011,-1.439e-5,-0.321,0.002,2.332e4,5606,20.3,0.092,280.302,217.055,4.065,1.104,7.572e7,0,854.319,0.701,0.701,0.341,0.263,0.097,0.002,0.01,-2.174e-4,0,0,0,0,-3.126e-6,0.047,15.558,190.094,87.957,0.016,2.096,-0.88,752.311,330.766,0.05,0.064
7.625,2461.192,362.497,-45.979,362.657,45.993,66.617,0.016,66.617,0.014,10.79,1.124,28.61,-80.599,9.785,0.019,-1.503e-5,0.115,0.018,2.332e4,5606,20.3,0.092,280.03,217.055,4.048,1.097,7.512e7,0,844.445,0.703,0.703,0.342,0.263,0.097,0.004,0.017,3.787e-5,0,0,0,0,4.056e-7,0.046,15.558,190.094,87.953,0.02,2.028,-0.998,750.561,330.694,0.05,0.064
7.675,2479.26,360.209,-45.529,360.369,45.55,67.155,0.017,67.155,0.014,10.733,1.403,28.61,-80.599,9.785,0.008,-1e-5,-0.5,-0.014,2.332e4,5606,20.3,0.092,279.787,217.055,4.032,1.09,7.453e7,0,834.177,0.704,0.704,0.344,0.263,0.098,0.002,0.008,2.776e-4,0,0,0,0,-7.774e-6,0.046,15.558,190.094,87.971,0.036,2.07,-1.115,748.822,330.623,0.05,0.064
7.725,2497.214,357.943,-45.092,358.102,45.116,67.69,0.017,67.69,0.014,10.654,1.493,28.61,-80.599,9.785,0.019,-1.454e-5,0.178,-0.007,2.332e4,5606,20.3,0.092,279.48,217.055,4.013,1.084,7.395e7,0,824.069,0.706,0.706,0.345,0.263,0.098,0.004,0.016,2.176e-4,0,0,0,0,9.957e-7,0.046,15.558,190.094,87.982,0.046,2.111,-1.232,747.093,330.552,0.05,0.064
