# Time (s),Altitude (m),Altitude above sea level (m),Vertical velocity (m/s),Total velocity (m/s),Vertical acceleration (m/s²),Total acceleration (m/s²),Position East of launch (m),Position North of launch (m),Lateral distance (m),Lateral direction (°),Lateral velocity (m/s),Lateral acceleration (m/s²),Latitude (° N),Longitude (° E),Angle of attack (°),Roll rate (r/s),Pitch rate (r/s),Yaw rate (r/s),Vertical orientation (zenith) (°),Lateral orientation (azimuth) (°),Mass (g),Motor mass (g),Longitudinal moment of inertia (kg·m²),Rotational moment of inertia (kg·m²),Gravitational acceleration (m/s²),CP location (cm),CG location (cm),Stability margin calibers (​),Thrust (N),Thrust-to-weight ratio (​),Drag force (N),Drag coefficient (​),Friction drag coefficient (​),Pressure drag coefficient (​),Base drag coefficient (​),Axial drag coefficient (​),Normal force coefficient (​),Pitch moment coefficient (​),Yaw moment coefficient (​),Side force coefficient (​),Roll moment coefficient (​),Roll forcing coefficient (​),Roll damping coefficient (​),Pitch damping coefficient (​),Wind velocity (m/s),Wind direction (°),Air temperature (°C),Air pressure (mbar),Air density (g/cm³),Speed of sound (m/s),Mach number (​),Reynolds number (​),Reference length (cm),Reference area (cm²),Simulation time step (s),Computation time (s),Coriolis acceleration (m/s²)
0,0,0,0,0,0,0,0,0,0,0,0,0,28.61,-80.6,0,0,0,0,90.0116696,0,7976,2194,2.135,0.022,9.792,NaN,114.8,NaN,0,0,0,1.515,1.236,0.159,0.12,1.515,NaN,NaN,NaN,NaN,NaN,NaN,NaN,NaN,0,0,15,1013,0.001225,340.389,0,0,10.6,90,0.004,0.001,0
0.004,0,0,0,0,0,0,0,0,0,0,0,0,28.61,-80.6,0,0,0,0,90.0116696,0,7976,2194,2.135,0.022,9.792,NaN,114.8,NaN,10.664,0.137,0,1.515,1.236,0.159,0.12,1.515,NaN,NaN,NaN,NaN,NaN,NaN,NaN,NaN,0,0,15,1013,0.001225,340.389,0,0,10.6,90,0.007,0.002,0
0.011,0.001,0.001,0.503,0.503,149.357,149.357,0,0,0,269.9777131,1.473e-7,6.44e-5,28.61,-80.6,1.6776204e-5,0,0,0,90.0116696,0,7973,2192,2.134,0.022,9.792,NaN,114.8,NaN,1268.961,16.253,0.001,0.981,0.702,0.159,0.12,0.981,NaN,NaN,NaN,NaN,NaN,NaN,NaN,NaN,0,0,15,1013,0.001225,340.389,0.001,6.011e4,10.6,90,0.01,0.003,6.44e-5
0.021,0.014,0.014,2.009,2.009,151.797,151.797,-8.15E-09,0,8.151e-9,269.9777131,1.753e-6,2.572e-4,28.61,-80.6,4.9996297e-5,0,0,0,90.0116696,0,7967,2185,2.134,0.022,9.792,NaN,114.8,NaN,1287.347,16.502,0.017,0.775,0.495,0.159,0.12,0.775,NaN,NaN,NaN,NaN,NaN,NaN,NaN,NaN,0,0,15,1013,0.001225,340.389,0.006,2.401e5,10.6,90,0.01,0.004,2.572e-4
0.031,0.041,0.041,3.539,3.539,154.239,154.239,-4.18E-08,0,4.179e-8,269.9777131,5.303e-6,0,28.61,-80.6,8.5829078e-5,0,0,0,90.0116696,0,7960,2178,2.133,0.022,9.792,NaN,114.8,NaN,1305.732,16.752,0.048,0.716,0.436,0.16,0.12,0.716,NaN,NaN,NaN,NaN,NaN,NaN,NaN,NaN,0,0,15,1013,0.001225,340.389,0.01,4.23e5,10.6,90,0.009,0.005,4.531e-4
0.04,0.08,0.08,4.937,4.937,156.439,156.439,-8.95E-08,0,8.952e-8,269.9777131,5.303e-6,0,28.61,-80.6,6.1535667e-5,0,0,0,90.0116696,0,7954,2172,2.132,0.022,9.792,NaN,114.8,NaN,1322.279,16.977,0.09,0.687,0.407,0.16,0.12,0.687,NaN,NaN,NaN,NaN,NaN,NaN,NaN,NaN,0,0,14.999,1013,0.001225,340.389,0.015,5.9e5,10.6,90,0.01,0.005,6.321e-4
0.05,0.137,0.137,6.498,6.498,155.79,155.79,-1.43E-07,0,1.425e-7,269.9777131,5.303e-6,0,28.61,-80.6,4.6753356e-5,0,0,0,90.0116696,0,7947,2166,2.131,0.022,9.792,NaN,114.7,NaN,1316.087,16.912,0.151,0.665,0.384,0.161,0.12,0.665,NaN,NaN,NaN,NaN,NaN,NaN,NaN,NaN,0,0,14.999,1013,0.001225,340.388,0.019,7.766e5,10.6,90,0.01,0.006,8.32e-4
0.06,0.209,0.209,8.053,8.053,155.139,155.139,-1.96E-07,0,1.956e-7,269.9777131,5.303e-6,0,28.61,-80.6,3.7729271e-5,0,0,0,90.0116696,0,7941,2159,2.13,0.022,9.792,NaN,114.7,NaN,1309.896,16.846,0.227,0.649,0.368,0.161,0.12,0.649,NaN,NaN,NaN,NaN,NaN,NaN,NaN,NaN,0,0,14.999,1013,0.001225,340.388,0.024,9.624e5,10.6,90,0.01,0.007,0.001
0.07,0.298,0.298,9.601,9.601,154.484,154.484,-2.49E-07,0,2.486e-7,269.9777131,5.303e-6,0,28.61,-80.6,3.1633e-5,0,0,0,90.0116696,0,7934,2152,2.13,0.022,9.792,NaN,114.7,NaN,1303.704,16.78,0.316,0.637,0.355,0.161,0.12,0.637,NaN,NaN,NaN,NaN,NaN,NaN,NaN,NaN,0,0,14.998,1013,0.001225,340.388,0.028,1.147e6,10.6,90,0.01,0.007,0.001
0.08,0.401,0.401,11.142,11.142,153.827,153.827,-3.02E-07,0,3.016e-7,269.9777131,5.303e-6,0,28.61,-80.6,2.7267061e-5,0,0,0,90.0116696,0,7928,2146,2.129,0.022,9.792,NaN,114.7,NaN,1297.512,16.715,0.419,0.627,0.345,0.162,0.12,0.627,NaN,NaN,NaN,NaN,NaN,NaN,NaN,NaN,0,0,14.997,1013,0.001225,340.387,0.033,1.332e6,10.6,90,0.01,0.008,0.001
0.09,0.521,0.521,12.677,12.677,153.167,153.167,-3.55E-07,0,3.546e-7,269.9777131,5.303e-6,0,28.61,-80.6,2.3966825e-5,0,0,0,90.0116696,0,7921,2139,2.128,0.022,9.792,NaN,114.6,NaN,1291.32,16.649,0.537,0.62,0.338,0.162,0.12,0.62,NaN,NaN,NaN,NaN,NaN,NaN,NaN,NaN,0,0,14.997,1013,0.001225,340.387,0.037,1.515e6,10.6,90,0.01,0.009,0.002
0.1,0.655,0.655,14.206,14.206,152.504,152.504,-4.08E-07,0,4.077e-7,269.9777131,5.303e-6,0,28.61,-80.6,2.1377055e-5,0,0,0,90.0116696,0,7914,2133,2.127,0.022,9.792,NaN,114.6,NaN,1285.129,16.583,0.669,0.616,0.333,0.162,0.12,0.616,NaN,NaN,NaN,NaN,NaN,NaN,NaN,NaN,0,0,14.996,1013,0.001225,340.386,0.042,1.698e6,10.6,90,0.01,0.01,0.002
0.11,0.805,0.805,15.727,15.727,151.838,151.838,-4.61E-07,0,4.607e-7,269.9777131,5.303e-6,0,28.61,-80.6,1.9320137e-5,0,0,0,90.0116696,0,7908,2126,2.126,0.022,9.792,NaN,114.6,NaN,1278.937,16.517,0.815,0.612,0.329,0.163,0.12,0.612,NaN,NaN,NaN,NaN,NaN,NaN,NaN,NaN,0,0,14.995,1013,0.001225,340.386,0.046,1.88e6,10.6,90,0.01,0.01,0.002
0.12,0.97,0.97,17.243,17.243,151.169,151.169,-5.14E-07,0,5.137e-7,269.9777131,5.303e-6,0,28.61,-80.6,1.7641371e-5,0,0,0,90.0116696,0,7901,2119,2.125,0.022,9.792,NaN,114.6,NaN,1272.745,16.45,0.975,0.609,0.326,0.163,0.12,0.609,NaN,NaN,NaN,NaN,NaN,NaN,NaN,NaN,0,0,14.994,1013,0.001225,340.385,0.051,2.061e6,10.6,90,0.01,0.011,0.002
0.13,1.149,1.149,18.751,18.751,150.497,150.497,-5.67E-07,0,5.667e-7,269.9777131,5.303e-6,0,28.61,-80.6,1.6197517e-5,0,0,0,90.0116696,0,7895,2113,2.125,0.022,9.792,NaN,114.5,NaN,1266.553,16.384,1.148,0.607,0.322,0.164,0.12,0.607,NaN,NaN,NaN,NaN,NaN,NaN,NaN,NaN,0,0,14.993,1013,0.001225,340.384,0.055,2.241e6,10.6,90,0.01,0.012,0.002
0.14,1.345,1.345,20.252,20.252,149.823,149.823,-6.20E-07,0,6.198e-7,269.9777131,5.303e-6,0,28.61,-80.6,1.4982846e-5,0,0,0,90.0116696,0,7888,2106,2.124,0.022,9.792,NaN,114.5,NaN,1260.362,16.318,1.334,0.604,0.319,0.164,0.12,0.604,NaN,NaN,NaN,NaN,NaN,NaN,NaN,NaN,0,0,14.991,1013,0.001225,340.384,0.059,2.42e6,10.6,90,0.01,0.012,0.003
0.15,1.555,1.555,21.747,21.747,149.146,149.146,-6.73E-07,0,6.728e-7,269.9777131,5.303e-6,0,28.61,-80.6,1.3974441e-5,0,0,0,90.0116696,0,7881,2100,2.123,0.022,9.792,NaN,114.5,NaN,1254.17,16.251,1.534,0.602,0.317,0.165,0.121,0.602,NaN,NaN,NaN,NaN,NaN,NaN,NaN,NaN,0,0,14.99,1013,0.001225,340.383,0.064,2.599e6,10.6,90,0.01,0.013,0.003
0.16,1.779,1.779,23.235,23.235,148.466,148.466,-7.26E-07,0,7.258e-7,269.9777131,5.303e-6,0,28.61,-80.6,1.3057708e-5,0,0,0,90.0116696,0,7875,2093,2.122,0.022,9.792,NaN,114.5,NaN,1247.978,16.184,1.746,0.601,0.314,0.166,0.121,0.601,NaN,NaN,NaN,NaN,NaN,NaN,NaN,NaN,0,0,14.988,1013,0.001225,340.382,0.068,2.777e6,10.6,90,0.01,0.014,0.003
0.17,2.019,2.019,24.717,24.717,147.783,147.783,-7.79E-07,0,7.788e-7,269.9777131,5.303e-6,0,28.61,-80.6,1.2284215e-5,0,0,0,90.0116696,0,7868,2086,2.121,0.022,9.792,NaN,114.4,NaN,1241.786,16.118,1.97,0.599,0.312,0.166,0.121,0.599,NaN,NaN,NaN,NaN,NaN,NaN,NaN,NaN,0,0,14.987,1013,0.001225,340.381,0.073,2.954e6,10.6,90,0.01,0.015,0.003
0.18,2.274,2.274,26.191,26.191,147.098,147.098,-8.32E-07,0,8.319e-7,269.9777131,5.303e-6,0,28.61,-80.6,1.1579477e-5,0,0,0,90.0116696,0,7861,2080,2.12,0.022,9.792,NaN,114.4,NaN,1235.595,16.051,2.207,0.598,0.31,0.167,0.121,0.598,NaN,NaN,NaN,NaN,NaN,NaN,NaN,NaN,0,0,14.985,1013,0.001225,340.38,0.077,3.13e6,10.6,90,0.01,0.015,0.003
0.19,2.543,2.543,27.659,27.659,146.409,146.409,-8.85E-07,0,8.849e-7,269.9777131,5.303e-6,0,28.61,-80.6,1.0966412e-5,0,0,0,90.0116696,0,7855,2073,2.12,0.022,9.792,NaN,114.4,NaN,1229.403,15.984,2.457,0.597,0.308,0.168,0.121,0.597,NaN,NaN,NaN,NaN,NaN,NaN,NaN,NaN,0,0,14.983,1013,0.001225,340.379,0.081,3.305e6,10.6,90,0.005,0.016,0.004
0.195,2.683,2.683,28.39,28.39,146.064,146.064,-9.11E-07,0,9.114e-7,269.9777131,5.303e-6,0,28.61,-80.6,1.0697122e-5,0,0,0,90.0116696,0,7852,2070,2.119,0.022,9.792,NaN,114.4,NaN,1226.307,15.95,2.586,0.596,0.307,0.168,0.121,0.596,NaN,NaN,NaN,NaN,NaN,NaN,NaN,NaN,0,0,14.983,1013,0.001225,340.378,0.083,3.392e6,10.6,90,0.007,0.017,0.004
0.202,2.9,2.9,29.488,29.488,146.89,146.89,-9.51E-07,0,9.512e-7,269.9777131,5.303e-6,0,28.61,-80.6,1.0278863e-5,0,0,0,90.0116696,0,7847,2065,2.118,0.022,9.792,NaN,114.3,NaN,1232.231,16.037,2.786,0.595,0.306,0.168,0.121,0.595,NaN,NaN,NaN,NaN,NaN,NaN,NaN,NaN,0,0,14.981,1013,0.001225,340.377,0.087,3.524e6,10.6,90,0.01,0.017,0.004
0.212,3.202,3.202,30.963,30.963,147.991,147.991,-1.00E-06,0,1.004e-6,269.9777131,5.303e-6,0.004,28.61,-80.6,9.8090375e-6,0,0,0,90.0116696,0,7840,2059,2.118,0.022,9.792,142.5,114.3,2.661,1240.13,16.153,3.067,0.594,0.304,0.169,0.121,0.594,2.435e-6,-4.76E-04,-1.52E-04,0,0,0,0,0,0,0,14.979,1013,0.001225,340.376,0.091,3.7e6,10.6,90,0.015,0.018,0.004
0.227,3.684,3.684,33.195,33.195,149.642,149.642,-1.54E-06,0,1.541e-6,269.9777131,6.708e-5,0.004,28.61,-80.6,1.1579477e-4,0,0,0,90.0116696,0,7831,2049,2.116,0.022,9.792,142.5,114.3,2.665,1251.978,16.328,3.518,0.593,0.302,0.17,0.121,0.593,2.875e-5,-5.14E-05,2.216e-4,0,0,0,0,0,0,0,14.976,1013,0.001225,340.374,0.098,3.966e6,10.6,90,0.022,0.019,0.004
0.249,4.432,4.432,36.438,36.438,152.007,152.007,-3.99E-06,0,3.993e-6,269.9777131,1.622e-4,0.005,28.61,-80.6,2.5508081e-4,0,0,0,90.0116696,0,7817,2035,2.115,0.022,9.792,142.5,114.2,2.671,1268.961,16.579,4.23,0.592,0.299,0.172,0.121,0.592,6.335e-5,-2.37E-04,1.247e-4,0,0,0,0,0,0,0,14.971,1013,0.001224,340.371,0.107,4.353e6,10.6,90,0.032,0.02,0.005
0.281,5.686,5.686,41.307,41.307,149.942,149.942,-1.17E-05,0,1.172e-5,269.9777131,3.198e-4,0.005,28.61,-80.6,4.4358392e-4,0,0,0,90.0116696,0,7796,2014,2.112,0.022,9.792,142.5,114.1,2.679,1250.669,16.384,5.427,0.591,0.295,0.174,0.122,0.591,1.102e-4,1.774e-4,-4.76E-04,0,0,0,0,0,0,0,14.963,1013,0.001224,340.367,0.121,4.935e6,10.6,90,0.015,0.02,0.005
0.296,6.311,6.311,43.511,43.511,148.989,148.989,-1.70E-05,0,1.7e-5,269.9777131,3.977e-4,0.005,28.61,-80.6,5.2362613e-4,0,0,0,90.0116696,0,7786,2004,2.111,0.022,9.792,142.5,114.1,2.684,1242.303,16.294,6.019,0.591,0.293,0.176,0.122,0.591,1.301e-4,3.736e-4,-1.21E-04,0,0,0,0,0,0,0,14.959,1013,0.001224,340.364,0.128,5.198e6,10.6,90,0.022,0.021,0.006
0.318,7.311,7.311,46.814,46.814,149.559,149.559,-2.72E-05,0,2.715e-5,269.9777131,5.211e-4,0.006,28.61,-80.6,6.3770203e-4,0,0,0,90.0116696,0,7772,1990,2.109,0.022,9.792,142.5,114.1,2.69,1245.407,16.365,6.965,0.591,0.291,0.177,0.122,0.591,1.585e-4,4.349e-4,1.655e-4,0,0,0,0,0,0,0,14.952,1012,0.001224,340.36,0.138,5.592e6,10.6,90,0.033,0.022,0.006
0.351,8.947,8.947,51.791,51.791,150.399,150.399,-4.77E-05,0,4.771e-5,269.9777131,7.205e-4,0.006,28.61,-80.6,7.9698429e-4,0,0,0,90.0116696,0,7750,1969,2.106,0.022,9.792,142.5,114,2.699,1250.063,16.471,8.527,0.591,0.288,0.18,0.123,0.591,1.983e-4,7.066e-4,3.157e-4,0,0,0,0,0,0,0,14.942,1012,0.001224,340.354,0.152,6.186e6,10.6,90,0.021,0.022,0.007
0.372,10.05,10.05,54.908,54.908,150.913,150.913,-6.40E-05,0,6.398e-5,269.9777131,8.532e-4,0.007,28.61,-80.6,8.9037641e-4,0,0,0,90.0116696,0,7737,1955,2.104,0.022,9.792,142.5,113.9,2.705,1252.966,16.538,9.592,0.592,0.286,0.182,0.123,0.592,2.216e-4,5.745e-4,-3.03E-04,0,0,0,0,0,0,0,14.935,1012,0.001224,340.349,0.161,6.557e6,10.6,90,0.031,0.023,0.007
0.403,11.826,11.826,59.541,59.541,147.695,147.695,-9.37E-05,0,9.369e-5,269.9777131,0.001,0.007,28.61,-80.6,9.4709924e-4,0,0,0,90.0116696,282.0098268,7717,1935,2.102,0.022,9.792,142.5,113.8,2.714,1226.644,16.232,11.299,0.593,0.284,0.185,0.124,0.593,2.359e-4,8.766e-4,4.845e-4,0,0,0,0,0,0,0,14.923,1012,0.001224,340.342,0.175,7.11e6,10.6,90,0.013,0.024,0.008
0.416,12.611,12.611,61.448,61.448,146.34,146.34,-1.08E-04,9.624e-9,1.081e-4,269.9777131,0.001,0.007,28.61,-80.6,0.0010044,0,1.0142945e-5,1.3668227e-6,90.0116696,282.0098268,7709,1927,2.101,0.022,9.792,142.5,113.8,2.717,1215.644,16.104,12.044,0.593,0.283,0.186,0.124,0.593,2.501e-4,0.001,4.95e-5,0,0,0,0,0,0,0,14.918,1012,0.001224,340.339,0.181,7.337e6,10.6,90,0.019,0.025,0.008
0.435,13.834,13.834,64.297,64.297,146.586,146.586,-1.32E-04,4.205e-8,1.321e-4,270.0350088,0.001,0.008,28.61,-80.6,0.0010073,0,1.2681466e-5,2.253634e-6,90.0116696,279.603404,7697,1915,2.099,0.022,9.792,142.6,113.7,2.723,1216.771,16.145,13.205,0.594,0.281,0.188,0.125,0.594,2.51e-4,3.373e-4,-2.83E-04,0,0,0,0,0,0,0,14.91,1012,0.001223,340.334,0.189,7.677e6,10.6,90,0.029,0.025,0.008
0.465,15.773,15.773,68.58,68.58,146.94,146.94,-1.74E-04,1.616e-7,1.738e-4,270.0350088,0.002,0.009,28.61,-80.6,9.8777924e-4,0,1.6504368e-5,2.9013946e-6,90.0116696,279.2023336,7678,1896,2.097,0.022,9.792,142.6,113.7,2.732,1218.462,16.206,15.06,0.596,0.279,0.191,0.125,0.596,2.462e-4,7.385e-4,-4.86E-04,0,0,0,0,0,0,0,14.897,1011,0.001223,340.327,0.202,8.187e6,10.6,90,0.044,0.026,0.009
0.508,18.915,18.915,75.022,75.022,147.441,147.441,-2.51E-04,6.533e-7,2.506e-4,270.1496004,0.002,0.01,28.61,-80.6,8.7949022e-4,0,2.3268453e-5,3.2435777e-6,90.0116696,277.540756,7650,1869,2.093,0.022,9.792,142.6,113.6,2.745,1220.999,16.299,18.109,0.599,0.277,0.196,0.126,0.599,2.195e-4,5.148e-4,-2.32E-04,0,0,0,0,5.809e-9,0,0,14.877,1011,0.001223,340.314,0.22,8.954e6,10.6,90,0.05,0.027,0.01
0.558,22.851,22.851,82.408,82.408,147.965,147.965,-3.63E-04,1.959e-6,3.632e-4,270.3214877,0.003,0.013,28.61,-80.6,6.6176625e-4,0,0,0,90.0116696,275.5926995,7619,1837,2.089,0.022,9.792,142.6,113.4,2.76,1223.896,16.405,21.986,0.603,0.274,0.201,0.128,0.603,1.654e-4,3.975e-4,-3.31E-04,0,0,0,0,0,0,0,14.851,1011,0.001222,340.299,0.242,9.832e6,10.6,90,0.042,0.027,0.011
0.6,26.407,26.407,88.571,88.571,148.36,148.36,-4.81E-04,3.864e-6,4.812e-4,270.4360793,0.003,0.015,28.61,-80.6,4.3968781e-4,0,0,0,90.0116696,274.7905585,7592,1811,2.085,0.022,9.792,142.7,113.3,2.773,1226.307,16.495,25.55,0.606,0.272,0.206,0.129,0.606,1.1e-4,6.09e-4,1.636e-4,0,0,0,0,0,0,0,14.828,1010,0.001222,340.285,0.26,1.056e7,10.6,90,0.05,0.028,0.011
0.65,31.021,31.021,95.981,95.981,148.025,148.025,-6.58E-04,7.226e-6,6.582e-4,270.6079666,0.004,0.018,28.61,-80.6,1.3292621e-4,0,0,0,90.0116696,273.3581641,7561,1779,2.081,0.022,9.792,142.7,113.2,2.789,1223.471,16.525,30.245,0.612,0.27,0.212,0.13,0.612,3.331e-5,3.708e-4,-2.22E-04,0,0,0,0,0,0,0,14.798,1010,0.001221,340.267,0.282,1.144e7,10.6,90,0.05,0.029,0.012
0.7,36.005,36.005,103.372,103.372,147.629,147.629,-8.81E-04,1.198e-5,8.812e-4,270.779854,0.005,0.022,28.61,-80.6,2.7708239e-4,0,0,0,90.0116696,271.4101076,7529,1747,2.077,0.022,9.792,142.7,113.1,2.805,1220.635,16.556,35.384,0.617,0.267,0.218,0.132,0.617,6.957e-5,2.892e-4,2.602e-4,0,0,0,0,0,0,0,14.766,1009,0.001221,340.247,0.304,1.232e7,10.6,90,0.05,0.03,0.013
0.75,41.358,41.358,110.743,110.743,147.167,147.167,-0.001,1.731e-5,0.001,270.8371498,0.006,0.026,28.61,-80.6,5.8269808e-4,0,-3.71E-05,-1.46E-06,90.0116696,270.4360793,7498,1716,2.072,0.022,9.792,142.8,112.9,2.822,1217.799,16.588,40.995,0.623,0.265,0.224,0.134,0.623,1.466e-4,8.759e-4,1.283e-4,0,0,0,0,-6.78E-09,0,0,14.731,1008,0.00122,340.226,0.325,1.319e7,10.6,90,0.038,0.03,0.014
0.788,45.672,45.672,116.328,116.328,146.771,146.771,-0.001,2.133e-5,0.001,270.8371498,0.007,0.028,28.61,-80.6,6.5832851e-4,0,-2.49E-05,-4.02E-06,90.0116696,270.8944455,7474,1692,2.069,0.022,9.792,142.8,112.8,2.835,1215.644,16.612,45.569,0.628,0.264,0.229,0.135,0.628,1.659e-4,9.31e-5,-4.96E-04,0,0,0,0,0,0,0,14.703,1008,0.00122,340.209,0.342,1.386e7,10.6,90,0.05,0.031,0.015
0.838,51.672,51.672,123.642,123.642,145.786,145.786,-0.002,2.699e-5,0.002,270.8371498,0.009,0.03,28.61,-80.6,5.1296911e-4,0,-8.63E-06,-2.93E-06,90.0116696,271.5246991,7442,1661,2.065,0.022,9.792,142.9,112.7,2.852,1209.89,16.602,52.01,0.635,0.262,0.236,0.137,0.635,1.295e-4,3.748e-4,-1.59E-04,0,0,0,0,0,0,0,14.664,1007,0.001219,340.185,0.363,1.472e7,10.6,90,0.05,0.031,0.016
0.888,58.035,58.035,130.905,130.905,144.729,144.729,-0.002,3.411e-5,0.002,270.8371498,0.01,0.03,28.61,-80.6,2.2700588e-4,0,0,0,90.0116696,271.9830653,7411,1630,2.06,0.022,9.792,142.9,112.5,2.87,1204.136,16.592,58.924,0.642,0.26,0.243,0.139,0.642,5.744e-5,-6.68E-06,4.042e-4,0,0,0,0,0,0,0,14.623,1006,0.001218,340.16,0.385,1.558e7,10.6,90,0.05,0.032,0.017
0.938,64.761,64.761,138.114,138.114,143.599,143.599,-0.003,4.322e-5,0.003,270.8944455,0.012,0.03,28.61,-80.6,2.3021444e-4,0,0,0,90.0116696,273.5873472,7380,1599,2.056,0.022,9.792,143,112.4,2.888,1198.383,16.583,66.313,0.65,0.259,0.25,0.141,0.65,5.839e-5,3.895e-4,-3.71E-04,0,0,0,0,0,0,0,14.579,1006,0.001218,340.134,0.406,1.643e7,10.6,90,0.05,0.032,0.018
0.988,71.846,71.846,145.264,145.264,142.392,142.392,-0.003,5.62e-5,0.003,270.9517413,0.013,0.03,28.61,-80.6,4.5000105e-4,0,1.3057072e-6,1.3698466e-5,90.0116696,275.2489248,7349,1567,2.052,0.022,9.792,143,112.3,2.906,1192.629,16.573,74.196,0.657,0.257,0.257,0.144,0.657,1.144e-4,3.048e-5,-2.93E-04,0,0,0,0,0,0,0,14.533,1005,0.001217,340.106,0.427,1.727e7,10.6,90,0.05,0.033,0.019
1.038,79.286,79.286,152.352,152.352,141.111,141.111,-0.004,7.559e-5,0.004,271.0663329,0.015,0.031,28.61,-80.6,5.7467667e-4,0,9.1864233e-6,6.1370146e-6,90.0116696,275.8218826,7318,1536,2.047,0.022,9.792,143.1,112.1,2.925,1186.875,16.563,82.551,0.666,0.256,0.264,0.146,0.666,1.465e-4,5.026e-4,1.901e-5,0,0,0,0,0,0,0,14.485,1004,0.001216,340.077,0.448,1.81e7,10.6,90,0.028,0.033,0.02
1.066,83.608,83.608,156.292,156.292,140.358,140.358,-0.005,8.956e-5,0.005,271.1236287,0.016,0.032,28.61,-80.6,5.2316776e-4,0,2.5146481e-5,4.6091272e-7,90.0116696,274.9624459,7301,1519,2.045,0.022,9.792,143.1,112.1,2.935,1183.653,16.557,87.453,0.67,0.255,0.268,0.147,0.67,1.336e-4,5.351e-4,2.829e-4,0,0,0,0,0,0,0,14.457,1003,0.001215,340.06,0.46,1.856e7,10.6,90,0.042,0.033,0.02
1.108,90.295,90.295,162.166,162.166,139.362,139.362,-0.005,1.136e-4,0.005,271.2382202,0.017,0.034,28.61,-80.6,3.1071501e-4,0,0,0,90.0116696,272.1549527,7275,1493,2.041,0.022,9.792,143.2,111.9,2.951,1180.208,16.567,95.096,0.677,0.254,0.274,0.15,0.677,7.953e-5,-5.60E-05,-4.79E-04,0,0,0,0,0,0,0,14.413,1003,0.001215,340.033,0.477,1.925e7,10.6,90,0.05,0.034,0.021
1.158,98.577,98.577,169.103,169.103,138.105,138.105,-0.006,1.44e-4,0.006,271.3528118,0.019,0.038,28.61,-80.6,2.9346898e-4,0,0,0,90.0116696,269.1755722,7245,1463,2.037,0.022,9.792,143.2,111.8,2.97,1176.107,16.579,104.642,0.686,0.252,0.282,0.152,0.686,7.534e-5,2.569e-5,2.158e-4,0,0,0,0,0,0,0,14.359,1002,0.001214,340.001,0.497,2.006e7,10.6,90,0.05,0.034,0.022
1.208,107.205,107.205,175.976,175.976,136.765,136.765,-0.007,1.701e-4,0.007,271.3528118,0.021,0.04,28.61,-80.6,4.5229288e-4,0,-6.83E-06,-1.45E-05,90.0116696,267.399403,7214,1432,2.032,0.022,9.792,143.3,111.7,2.99,1172.005,16.591,114.711,0.695,0.251,0.289,0.155,0.695,1.165e-4,5.003e-4,2.654e-4,0,0,0,0,0,0,0,14.303,1001,0.001213,339.967,0.518,2.086e7,10.6,90,0.05,0.035,0.023
1.258,116.174,116.174,182.779,182.779,135.346,135.346,-0.008,1.887e-4,0.008,271.295516,0.023,0.041,28.61,-80.6,2.2270869e-4,0,0,0,90.0116696,269.1182764,7184,1402,2.028,0.022,9.792,143.4,111.5,3.011,1167.904,16.603,125.27,0.704,0.249,0.297,0.158,0.704,5.754e-5,4.41e-4,-3.98E-04,0,0,0,0,0,0,0,14.245,999.6,0.001212,339.931,0.538,2.165e7,10.6,90,0.003,0.035,0.023
1.261,116.723,116.723,183.185,183.185,135.258,135.258,-0.008,1.896e-4,0.008,271.295516,0.023,0.041,28.61,-80.6,2.2952689e-4,0,0,0,90.0116696,269.1182764,7182,1400,2.028,0.022,9.792,143.4,111.5,3.013,1167.658,16.604,125.919,0.705,0.249,0.298,0.158,0.705,5.93e-5,-1.35E-04,-4.10E-04,0,0,0,0,0,0,0,14.241,999.6,0.001212,339.929,0.539,2.17e7,10.6,90,0.005,0.035,0.023
1.266,117.548,117.548,183.793,183.793,135.068,135.068,-0.008,1.91e-4,0.008,271.295516,0.023,0.04,28.61,-80.6,2.4310599e-4,0,0,0,90.0116696,269.1182764,7179,1398,2.027,0.022,9.792,143.4,111.5,3.015,1166.878,16.599,126.895,0.705,0.249,0.298,0.158,0.705,6.283e-5,4.305e-4,-4.43E-04,0,0,0,0,0,0,0,14.236,999.5,0.001212,339.926,0.541,2.177e7,10.6,90,0.007,0.036,0.024
1.272,118.792,118.792,184.704,184.704,134.78,134.78,-0.009,1.931e-4,0.009,271.295516,0.023,0.041,28.61,-80.6,1.9400351e-4,0,0,0,90.0116696,269.6912342,7175,1394,2.027,0.022,9.792,143.4,111.5,3.017,1165.707,16.592,128.366,0.707,0.249,0.299,0.158,0.707,5.016e-5,5.628e-4,8.69e-5,0,0,0,0,0,0,0,14.228,999.3,0.001211,339.921,0.543,2.188e7,10.6,90,0.01,0.036,0.024
1.282,120.669,120.669,186.066,186.066,134.347,134.347,-0.009,1.96e-4,0.009,271.295516,0.024,0.041,28.61,-80.6,1.4770852e-4,0,0,0,90.0116696,270.6079666,7169,1388,2.026,0.022,9.792,143.4,111.4,3.022,1163.952,16.581,130.586,0.709,0.249,0.301,0.159,0.709,3.822e-5,2.254e-4,-7.65E-05,0,0,0,0,0,0,0,14.216,999.1,0.001211,339.914,0.547,2.203e7,10.6,90,0.015,0.037,0.024
1.298,123.51,123.51,188.101,188.101,133.69,133.69,-0.009,2.006e-4,0.009,271.2382202,0.024,0.041,28.61,-80.6,1.9847258e-4,0,0,0,90.0116696,271.9257696,7160,1378,2.024,0.022,9.792,143.4,111.4,3.029,1161.318,16.564,133.957,0.711,0.248,0.303,0.16,0.711,5.141e-5,6.219e-4,-3.94E-04,0,0,0,0,0,0,0,14.197,998.8,0.001211,339.902,0.553,2.227e7,10.6,90,0.023,0.037,0.024
1.32,127.83,127.83,191.136,191.136,132.69,132.69,-0.01,2.082e-4,0.01,271.2382202,0.025,0.043,28.61,-80.6,3.9694516e-4,0,-2.93E-05,3.3327045e-5,90.0116696,273.8165303,7147,1365,2.022,0.022,9.792,143.5,111.3,3.039,1157.368,16.539,139.096,0.716,0.248,0.307,0.161,0.716,1.03e-4,7.672e-4,1.957e-4,0,0,0,0,0,0,0,14.169,998.3,0.00121,339.885,0.562,2.262e7,10.6,90,0.034,0.037,0.024
1.355,134.439,134.439,195.644,195.644,131.161,131.161,-0.011,2.237e-4,0.011,271.2382202,0.027,0.045,28.61,-80.6,6.65204e-4,0,-1.84E-05,2.4127889e-5,90.0116696,276.0510657,7126,1345,2.019,0.022,9.792,143.6,111.2,3.054,1151.443,16.501,146.962,0.722,0.247,0.312,0.163,0.722,1.729e-4,9.675e-4,-2.86E-04,0,0,0,0,0,0,0,14.126,997.5,0.00121,339.859,0.576,2.314e7,10.6,90,0.05,0.038,0.025
1.405,144.384,144.384,202.145,202.145,128.861,128.861,-0.012,2.601e-4,0.012,271.2382202,0.029,0.045,28.61,-80.6,4.697681e-4,0,2.9650566e-5,3.6764792e-6,90.0116696,274.9624459,7097,1315,2.015,0.022,9.792,143.7,111.1,3.078,1142.774,16.445,158.801,0.732,0.246,0.32,0.166,0.732,1.226e-4,3.545e-4,1.426e-4,0,0,0,0,0,0,0,14.062,996.3,0.001208,339.82,0.595,2.39e7,10.6,90,0.05,0.038,0.026
1.455,154.651,154.651,208.529,208.529,126.482,126.482,-0.013,3.08e-4,0.013,271.295516,0.031,0.047,28.61,-80.6,1.4129139e-4,0,0,0,90.0116696,270.8944455,7067,1285,2.011,0.022,9.792,143.8,111,3.102,1134.104,16.389,171.058,0.741,0.245,0.328,0.169,0.741,3.699e-5,5.636e-4,1.14e-4,0,0,0,0,0,0,0,13.995,995.1,0.001207,339.78,0.614,2.463e7,10.6,90,0.052,0.039,0.027
1.507,165.769,165.769,215.1,215.1,123.908,123.908,-0.015,3.573e-4,0.015,271.3528118,0.034,0.053,28.61,-80.6,6.0790822e-4,0,-4.56E-05,-1.98E-05,90.0116696,268.6599101,7036,1254,2.006,0.022,9.792,143.9,110.8,3.128,1125.004,16.33,184.318,0.752,0.243,0.336,0.172,0.752,1.597e-4,8.611e-4,-3.57E-04,0,0,0,0,0,0,0,13.923,993.8,0.001206,339.736,0.633,2.538e7,10.6,90,0.05,0.039,0.028
1.557,176.678,176.678,221.235,221.235,121.489,121.489,-0.017,3.936e-4,0.017,271.3528118,0.037,0.055,28.61,-80.6,6.3999386e-4,0,-6.01E-07,-2.02E-05,90.0116696,267.9723608,7007,1225,2.002,0.022,9.792,144,110.7,3.153,1117.196,16.283,197.294,0.761,0.242,0.344,0.175,0.761,1.689e-4,9.312e-4,-4.81E-04,0,0,0,0,0,0,0,13.852,992.5,0.001205,339.693,0.651,2.609e7,10.6,90,0.05,0.04,0.028
1.607,187.89,187.89,227.247,227.247,118.995,118.995,-0.019,4.176e-4,0.019,271.295516,0.039,0.051,28.61,-80.6,7.8724401e-5,0,0,0,90.0116696,270.264192,6979,1197,1.997,0.022,9.792,144.2,110.5,3.178,1109.388,16.236,210.653,0.771,0.241,0.352,0.178,0.771,2.086e-5,-3.82E-04,2.234e-4,0,0,0,0,0,0,0,13.779,991.2,0.001203,339.649,0.669,2.677e7,10.6,90,0.05,0.04,0.029
1.657,199.4,199.4,233.133,233.133,116.421,116.421,-0.021,4.41e-4,0.021,271.2382202,0.042,0.048,28.61,-80.6,4.2095209e-4,0,2.1645072e-5,6.8627611e-6,90.0116696,272.0976569,6950,1168,1.993,0.022,9.792,144.3,110.4,3.204,1101.58,16.188,224.421,0.782,0.24,0.36,0.181,0.782,1.119e-4,2.707e-4,4.812e-4,0,0,0,0,0,0,0,13.704,989.9,0.001202,339.603,0.686,2.744e7,10.6,90,0.05,0.04,0.03
1.707,211.201,211.201,238.888,238.888,113.785,113.785,-0.023,4.709e-4,0.023,271.1809244,0.044,0.053,28.61,-80.6,2.0953067e-4,0,0,0,90.0116696,271.9257696,6921,1139,1.988,0.022,9.792,144.4,110.2,3.23,1093.771,16.14,238.475,0.792,0.24,0.368,0.184,0.792,5.593e-5,1.429e-4,-1.90E-04,0,0,0,0,0,0,0,13.627,988.5,0.001201,339.557,0.704,2.809e7,10.6,90,0.039,0.041,0.031
1.746,220.604,220.604,243.285,243.285,111.681,111.681,-0.025,4.986e-4,0.025,271.1809244,0.046,0.058,28.61,-80.6,2.9879749e-4,0,-2.65E-05,4.1300708e-5,90.0116696,271.5246991,6899,1117,1.985,0.022,9.791,144.5,110.1,3.251,1087.681,16.102,249.663,0.8,0.239,0.374,0.187,0.8,8.002e-5,6.998e-4,-3.15E-04,0,0,0,0,0,0,0,13.566,987.4,0.0012,339.52,0.717,2.859e7,10.6,90,0.05,0.041,0.031
1.796,232.906,232.906,248.772,248.772,107.788,107.788,-0.027,5.352e-4,0.027,271.1236287,0.049,0.059,28.61,-80.6,3.7270905e-4,0,1.6520283e-6,-3.45E-06,90.0116696,269.2901637,6871,1089,1.981,0.022,9.791,144.7,110,3.277,1071.999,15.934,264.099,0.81,0.239,0.382,0.19,0.81,1.002e-4,4.407e-4,1.784e-4,0,0,0,0,0,0,0,13.486,985.9,0.001198,339.471,0.733,2.921e7,10.6,90,0.05,0.042,0.032
1.846,245.478,245.478,254.063,254.063,103.864,103.864,-0.03,5.649e-4,0.03,271.0663329,0.052,0.056,28.61,-80.6,1.6483996e-4,0,0,0,90.0116696,269.8058257,6843,1062,1.976,0.022,9.791,144.8,109.8,3.303,1056.318,15.764,278.524,0.82,0.238,0.389,0.193,0.82,4.451e-5,1.912e-4,1.881e-4,0,0,0,0,0,0,0,13.404,984.5,0.001197,339.422,0.749,2.98e7,10.6,90,0.019,0.042,0.033
1.865,250.324,250.324,256.022,256.022,102.36,102.36,-0.031,5.745e-4,0.031,271.0663329,0.053,0.057,28.61,-80.6,4.5595981e-5,0,0,0,90.0116696,270.4360793,6833,1051,1.975,0.022,9.791,144.8,109.8,3.313,1050.359,15.7,284.038,0.824,0.238,0.392,0.194,0.824,1.233e-5,2.253e-4,-3.82E-04,0,0,0,0,0,0,0,13.373,983.9,0.001196,339.403,0.754,3.002e7,10.6,90,0.028,0.042,0.033
1.894,257.662,257.662,258.924,258.924,101.223,101.223,-0.032,5.891e-4,0.032,271.0663329,0.055,0.058,28.61,-80.6,1.5246407e-4,0,0,0,90.0116696,271.2382202,6817,1036,1.972,0.022,9.791,144.9,109.7,3.328,1049.19,15.718,292.359,0.83,0.238,0.397,0.196,0.83,4.131e-5,4.981e-4,1.266e-4,0,0,0,0,0,0,0,13.325,983,0.001195,339.374,0.763,3.034e7,10.6,90,0.043,0.043,0.033
1.936,268.823,268.823,263.214,263.214,99.49,99.49,-0.035,6.14e-4,0.035,271.0090371,0.057,0.057,28.61,-80.6,3.6033316e-4,0,-2.83E-05,2.5305636e-5,90.0116696,272.32684,6794,1013,1.968,0.022,9.791,145,109.6,3.35,1047.437,15.745,304.955,0.839,0.237,0.403,0.198,0.839,9.8e-5,3.388e-4,3.003e-4,0,0,0,0,0,0,0,13.253,981.7,0.001194,339.33,0.776,3.081e7,10.6,90,0.05,0.043,0.034
1.986,282.107,282.107,268.137,268.137,97.425,97.425,-0.037,6.569e-4,0.038,271.0090371,0.06,0.059,28.61,-80.6,4.9778573e-4,0,6.9789443e-6,3.5125496e-5,90.0116696,273.1289809,6767,985,1.964,0.022,9.791,145.2,109.5,3.377,1045.386,15.777,319.841,0.849,0.237,0.411,0.201,0.849,1.36e-4,6.907e-4,3.738e-4,0,0,0,0,0,0,0,13.166,980.2,0.001193,339.278,0.79,3.136e7,10.6,90,0.009,0.044,0.034
1.995,284.457,284.457,268.988,268.988,97.06,97.06,-0.038,6.657e-4,0.038,271.0090371,0.06,0.059,28.61,-80.6,4.4547469e-4,0,1.5888438e-5,2.9905214e-5,90.0116696,272.9570936,6762,981,1.963,0.022,9.791,145.2,109.4,3.381,1045.027,15.783,322.461,0.85,0.236,0.412,0.202,0.85,1.217e-4,3.947e-4,-1.47E-04,0,0,0,0,0,0,0,13.151,979.9,0.001192,339.268,0.793,3.145e7,10.6,90,0.013,0.044,0.034
2.008,287.996,287.996,270.241,270.241,93.948,93.948,-0.039,6.8e-4,0.039,271.0090371,0.061,0.059,28.61,-80.6,3.3523761e-4,0,1.4626339e-5,3.2801834e-5,90.0116696,272.4987274,6756,974,1.962,0.022,9.791,145.2,109.4,3.388,1027.175,15.529,326.346,0.853,0.236,0.414,0.202,0.853,9.172e-5,-1.70E-04,-3.44E-04,0,0,0,0,0,0,0,13.128,979.5,0.001192,339.254,0.797,3.159e7,10.6,90,0.02,0.044,0.035
2.028,293.334,293.334,272.045,272.045,89.291,89.291,-0.04,7.033e-4,0.04,271.0090371,0.062,0.059,28.61,-80.6,1.5435483e-4,0,0,0,90.0116696,271.5819949,6746,964,1.961,0.022,9.791,145.3,109.3,3.398,1000.397,15.146,332.018,0.857,0.236,0.417,0.204,0.857,4.23e-5,5.359e-4,-3.57E-04,0,0,0,0,0,0,0,13.093,978.8,0.001191,339.233,0.802,3.179e7,10.6,90,0.03,0.045,0.035
2.057,301.406,301.406,274.579,274.579,82.333,82.333,-0.042,7.39e-4,0.042,271.0090371,0.064,0.058,28.61,-80.6,4.575641e-4,0,-6.62E-05,-7.69E-06,90.0116696,269.0609806,6731,949,1.958,0.022,9.791,145.4,109.3,3.412,960.231,14.57,340.169,0.862,0.236,0.421,0.205,0.862,1.257e-4,2.303e-5,-3.71E-04,0,0,0,0,0,0,0,13.041,977.9,0.00119,339.202,0.809,3.206e7,10.6,90,0.036,0.045,0.035
2.093,311.247,311.247,277.366,277.366,74.002,74.002,-0.044,7.721e-4,0.044,271.0090371,0.066,0.055,28.61,-80.6,9.0756515e-4,0,1.9337326e-6,-2.10E-05,90.0116696,266.7691494,6713,931,1.955,0.022,9.791,145.4,109.2,3.429,911.733,13.872,349.26,0.869,0.235,0.426,0.207,0.869,2.499e-4,5.455e-4,2.695e-4,0,0,0,0,0,0,0,12.977,976.7,0.001189,339.163,0.818,3.236e7,10.6,90,0.05,0.046,0.036
2.143,325.199,325.199,280.557,280.557,53.697,53.697,-0.048,7.893e-4,0.048,270.9517413,0.069,0.049,28.61,-80.6,1.7039765e-4,0,0,0,90.0116696,270.5506709,6691,909,1.952,0.022,9.791,145.5,109,3.449,784.591,11.976,359.782,0.876,0.235,0.432,0.209,0.876,4.705e-5,1.574e-4,4.055e-4,0,0,0,0,0,0,0,12.886,975.1,0.001188,339.108,0.827,3.27e7,10.6,90,0.015,0.046,0.036
2.158,329.413,329.413,281.317,281.317,47.677,47.677,-0.049,7.922e-4,0.049,270.9517413,0.069,0.045,28.61,-80.6,5.4723199e-4,0,-5.69E-05,2.6101411e-5,90.0116696,272.0403611,6685,903,1.951,0.022,9.791,145.6,109,3.454,746.448,11.405,362.291,0.877,0.235,0.433,0.209,0.877,1.512e-4,6.943e-4,-2.45E-04,0,0,0,0,0,0,0,12.859,974.6,0.001187,339.091,0.83,3.278e7,10.6,90,0.023,0.046,0.036
2.181,335.754,335.754,282.316,282.316,41.09,41.09,-0.05,8.002e-4,0.05,270.8944455,0.07,0.043,28.61,-80.6,7.5172063e-4,0,1.9114509e-5,2.1963382e-5,90.0116696,273.0143894,6677,895,1.949,0.021,9.791,145.6,109,3.461,705.317,10.788,365.578,0.88,0.235,0.435,0.21,0.88,2.079e-4,4.913e-4,4.307e-5,0,0,0,0,0,0,0,12.818,973.9,0.001186,339.066,0.833,3.288e7,10.6,90,0.034,0.047,0.036
2.214,345.304,345.304,283.537,283.537,31.323,31.323,-0.053,8.22e-4,0.053,270.8944455,0.072,0.046,28.61,-80.6,3.6829727e-4,0,4.3337891e-5,4.8749159e-5,90.0116696,272.0403611,6666,884,1.948,0.021,9.791,145.6,108.9,3.47,643.621,9.862,369.566,0.882,0.235,0.437,0.211,0.882,1.02e-4,-4.03E-05,-4.77E-05,0,0,0,0,0,0,0,12.756,972.8,0.001185,339.029,0.836,3.299e7,10.6,90,0.049,0.047,0.036
2.263,359.158,359.158,284.725,284.725,17.458,17.458,-0.056,8.639e-4,0.056,270.8944455,0.074,0.049,28.61,-80.6,3.6904212e-4,0,-6.01E-05,-4.70E-06,90.0116696,269.7485299,6649,868,1.945,0.021,9.791,145.7,108.8,3.482,554.504,8.517,373.318,0.885,0.234,0.439,0.212,0.885,1.023e-4,3.536e-4,4.914e-4,0,0,0,0,0,0,0,12.665,971.1,0.001184,338.974,0.84,3.309e7,10.6,90,0.05,0.048,0.036
2.313,373.413,373.413,285.368,285.368,8.309,8.31,-0.06,9.027e-4,0.06,270.8371498,0.077,0.047,28.61,-80.6,3.6909941e-4,0,8.8728881e-6,-3.03E-05,90.0116696,269.6912342,6637,855,1.943,0.021,9.791,145.7,108.8,3.491,495.262,7.621,375.131,0.887,0.234,0.44,0.212,0.887,1.024e-4,6.143e-4,-3.44E-04,0,0,0,0,0,0,0,12.573,969.5,0.001182,338.918,0.842,3.313e7,10.6,90,0.05,0.048,0.037
2.363,387.688,387.688,285.56,285.56,-0.63,0.631,-0.064,9.344e-4,0.064,270.8371498,0.079,0.036,28.61,-80.6,6.5890146e-4,0,-3.75E-05,2.2552255e-5,90.0116696,272.7279105,6624,843,1.941,0.021,9.791,145.7,108.7,3.498,436.021,6.722,375.331,0.887,0.234,0.441,0.212,0.887,1.828e-4,5.996e-4,4.921e-4,0,0,0,0,0,0,0,12.48,967.8,0.00118,338.862,0.843,3.312e7,10.6,90,0.026,0.048,0.037
2.389,395.111,395.111,285.484,285.484,-5.197,5.197,-0.066,9.57e-4,0.066,270.8371498,0.079,0.036,28.61,-80.6,6.5489076e-4,0,4.3337891e-5,4.747592e-5,90.0116696,272.9570936,6618,836,1.94,0.021,9.791,145.7,108.6,3.501,405.215,6.254,374.81,0.887,0.234,0.44,0.212,0.887,1.817e-4,4.983e-4,-8.09E-05,0,0,0,0,0,0,0,12.432,966.9,0.001179,338.833,0.843,3.309e7,10.6,90,0.039,0.049,0.037
2.428,406.24,406.24,285.155,285.155,-11.65,11.65,-0.069,0.001,0.069,270.8371498,0.081,0.036,28.61,-80.6,2.3164684e-4,0,-5.71E-05,-2.21E-05,90.0116696,270.0350088,6612,830,1.939,0.021,9.791,145.7,108.6,3.503,360.973,5.576,373.263,0.887,0.234,0.44,0.212,0.887,6.427e-5,-2.46E-04,-6.21E-05,0,0,0,0,0,0,0,12.359,965.6,0.001178,338.789,0.842,3.302e7,10.6,90,0.05,0.049,0.037
2.478,420.48,420.48,284.369,284.369,-19.746,19.746,-0.073,0.001,0.073,270.8371498,0.083,0.04,28.61,-80.6,6.0848118e-4,0,4.4101835e-6,-7.29E-05,90.0116696,268.5453186,6604,823,1.937,0.021,9.791,145.7,108.6,3.505,304.252,4.705,370.001,0.885,0.235,0.439,0.212,0.885,1.686e-4,6.108e-4,7.602e-5,0,0,0,0,0,0,0,12.267,963.9,0.001177,338.733,0.84,3.289e7,10.6,90,0.05,0.05,0.036
2.528,434.67,434.67,283.183,283.183,-27.653,27.653,-0.077,0.001,0.077,270.779854,0.085,0.041,28.61,-80.6,6.5947442e-4,0,-5.48E-05,-4.46E-05,89.9543738,271.5819949,6597,815,1.936,0.021,9.791,145.6,108.5,3.506,247.531,3.833,365.359,0.882,0.235,0.437,0.211,0.882,1.827e-4,8.376e-4,1.886e-4,0,0,0,0,0,0,0,12.175,962.3,0.001175,338.677,0.836,3.272e7,10.6,90,0.049,0.05,0.036
2.577,448.51,448.51,281.642,281.642,-35.227,35.227,-0.081,0.001,0.081,270.779854,0.086,0.025,28.61,-80.6,5.3382478e-4,0,1.8923523e-5,-5.98E-05,89.9543738,272.2122485,6589,807,1.935,0.021,9.791,145.6,108.5,3.506,191.944,2.975,359.542,0.879,0.235,0.434,0.21,0.879,1.476e-4,2.436e-5,-2.22E-05,0,0,0,0,0,0,0,12.085,960.6,0.001173,338.622,0.832,3.25e7,10.6,90,0.05,0.051,0.036
2.627,462.545,462.545,279.732,279.732,-41.155,41.155,-0.086,0.001,0.086,270.779854,0.087,0.018,28.61,-80.6,7.3796964e-4,0,1.9369157e-5,-3.63E-05,89.9543738,269.2901637,6585,804,1.934,0.021,9.791,145.5,108.5,3.502,145.98,2.264,352.526,0.875,0.235,0.431,0.209,0.875,2.037e-4,0.001,-1.56E-04,0,0,0,0,0,0,0,11.993,959,0.001172,338.567,0.826,3.224e7,10.6,90,0.05,0.051,0.036
2.677,476.478,476.478,277.529,277.529,-46.956,46.956,-0.09,0.001,0.09,270.779854,0.088,0.027,28.61,-80.6,2.2849557e-4,0,-1.97E-05,-6.38E-05,89.9543738,269.9777131,6582,800,1.934,0.021,9.791,145.5,108.4,3.498,100.016,1.552,344.629,0.87,0.235,0.427,0.207,0.87,6.295e-5,2.432e-4,-7.11E-05,0,0,0,0,0,0,0,11.903,957.4,0.00117,338.512,0.82,3.195e7,10.6,90,0.016,0.051,0.036
2.693,480.912,480.912,276.763,276.763,-48.787,48.787,-0.092,0.001,0.092,270.779854,0.089,0.028,28.61,-80.6,3.3644082e-4,0,-5.58E-05,-2.56E-05,89.9543738,270.7225582,6581,799,1.933,0.021,9.791,145.4,108.4,3.497,85.308,1.324,341.927,0.868,0.235,0.426,0.207,0.868,9.263e-5,2.233e-4,4.724e-4,0,0,0,0,0,0,0,11.874,956.8,0.001169,338.495,0.818,3.185e7,10.6,90,0.024,0.052,0.035
2.717,487.54,487.54,275.572,275.572,-50.447,50.447,-0.094,0.001,0.094,270.779854,0.089,0.029,28.61,-80.6,5.878547e-4,0,-4.34E-05,-5.09E-06,89.9543738,271.7538822,6580,798,1.933,0.021,9.791,145.4,108.4,3.494,70.254,1.091,337.764,0.866,0.236,0.424,0.206,0.866,1.617e-4,4.242e-4,-1.66E-04,0,0,0,0,0,0,0,11.831,956.1,0.001169,338.468,0.814,3.17e7,10.6,90,0.036,0.052,0.035
2.753,497.428,497.428,273.711,273.711,-52.911,52.911,-0.097,0.001,0.097,270.7225582,0.09,0.023,28.61,-80.6,4.7028376e-4,0,1.8350565e-5,-1.78E-05,89.9543738,272.0403611,6579,797,1.933,0.021,9.791,145.3,108.4,3.49,47.672,0.74,331.348,0.862,0.236,0.421,0.205,0.862,1.291e-4,3.257e-4,-1.99E-04,0,0,0,0,0,0,0,11.767,954.9,0.001168,338.43,0.809,3.146e7,10.6,90,0.008,0.053,0.035
2.761,499.616,499.616,273.286,273.286,-53.455,53.455,-0.098,0.001,0.098,270.7225582,0.09,0.021,28.61,-80.6,3.9190313e-4,0,2.6897185e-5,-2.55E-05,89.9543738,271.8684738,6578,797,1.933,0.021,9.791,145.3,108.4,3.489,42.654,0.662,329.895,0.861,0.236,0.42,0.205,0.861,1.076e-4,3.676e-4,4.898e-5,0,0,0,0,0,0,0,11.752,954.7,0.001167,338.421,0.808,3.141e7,10.6,90,0.012,0.053,0.035
2.773,502.891,502.891,272.644,272.644,-53.451,53.451,-0.099,0.001,0.099,270.7225582,0.091,0.017,28.61,-80.6,3.2687242e-4,0,1.1056494e-5,-4.34E-05,89.9543738,271.4101076,6578,797,1.933,0.021,9.791,145.3,108.4,3.487,40.512,0.629,327.72,0.86,0.236,0.419,0.204,0.86,8.967e-5,-4.00E-05,-1.44E-04,0,0,0,0,0,0,0,11.731,954.3,0.001167,338.408,0.806,3.132e7,10.6,90,0.018,0.053,0.035
2.791,507.79,507.79,271.682,271.682,-53.448,53.448,-0.1,0.001,0.1,270.7225582,0.091,0.013,28.61,-80.6,4.7234641e-4,0,-1.32E-05,-3.80E-05,89.9543738,270.7225582,6578,796,1.933,0.021,9.791,145.3,108.4,3.485,37.3,0.579,324.478,0.858,0.236,0.418,0.204,0.858,1.295e-4,5.58e-4,4.448e-4,0,0,0,0,0,0,0,11.699,953.7,0.001166,338.389,0.803,3.12e7,10.6,90,0.027,0.054,0.035
2.818,515.106,515.106,270.239,270.239,-53.453,53.453,-0.103,0.001,0.103,270.7225582,0.091,0.013,28.61,-80.6,5.7175458e-4,0,2.8759298e-5,-2.47E-05,89.9543738,269.9204173,6578,796,1.933,0.021,9.791,145.3,108.4,3.481,32.481,0.504,319.682,0.855,0.236,0.415,0.203,0.855,1.565e-4,6.543e-4,-4.35E-04,0,0,0,0,0,0,0,11.652,952.9,0.001166,338.36,0.799,3.102e7,10.6,90,0.04,0.054,0.035
2.858,526.007,526.007,268.074,268.074,-53.487,53.487,-0.107,0.001,0.107,270.7225582,0.092,0.022,28.61,-80.6,2.4522594e-4,0,-4.56E-05,-6.51E-05,89.9543738,270.0923046,6577,796,1.933,0.021,9.791,145.2,108.4,3.475,25.253,0.392,312.657,0.85,0.236,0.412,0.202,0.85,6.7e-5,2.731e-4,1.706e-4,0,0,0,0,0,0,0,11.581,951.7,0.001164,338.317,0.792,3.074e7,10.6,90,0.05,0.055,0.034
2.908,539.344,539.344,265.398,265.398,-53.551,53.551,-0.111,0.001,0.111,270.7225582,0.093,0.024,28.61,-80.6,3.9728894e-4,0,-4.39E-06,-2.86E-05,89.9543738,270.7225582,6577,795,1.933,0.021,9.791,145.1,108.4,3.469,16.33,0.254,304.132,0.845,0.237,0.408,0.2,0.845,1.083e-4,5.98e-4,3.164e-4,0,0,0,0,0,0,0,11.494,950.2,0.001163,338.264,0.785,3.041e7,10.6,90,0.05,0.055,0.034
2.958,552.547,552.547,262.718,262.718,-53.64,53.64,-0.116,0.001,0.116,270.7225582,0.094,0.011,28.61,-80.6,6.692147e-4,0,-1.55E-05,-8.75E-06,89.9543738,271.5819949,6576,794,1.933,0.021,9.79,145,108.4,3.462,7.406,0.115,295.767,0.839,0.237,0.404,0.198,0.839,1.82e-4,7.857e-4,-3.71E-04,0,0,0,0,0,0,0,11.408,948.7,0.001161,338.212,0.777,3.007e7,10.6,90,0.042,0.055,0.034
3,563.403,563.403,260.49,260.49,-53.731,53.731,-0.12,0.002,0.12,270.7225582,0.094,0.01,28.61,-80.6,5.878547e-4,0,3.8340426e-5,-4.73E-05,89.9543738,270.7225582,6576,794,1.933,0.021,9.79,145,108.4,3.457,0,0,288.94,0.835,0.237,0.401,0.197,0.835,1.596e-4,3.384e-4,-2.75E-05,0,0,0,0,0,0,0,11.338,947.5,0.00116,338.17,0.77,2.979e7,10.6,90,0.05,0.056,0.033
3.05,576.361,576.361,257.834,257.834,-52.516,52.516,-0.124,0.002,0.124,270.7225582,0.095,0.02,28.61,-80.6,2.538776e-4,0,-3.57E-05,-6.04E-05,89.9543738,270.1496004,6576,794,1.933,0.021,9.79,144.9,108.4,3.45,0,0,280.949,0.83,0.238,0.397,0.196,0.83,6.879e-5,3.771e-4,1.597e-4,0,0,0,0,0,0,0,11.254,946.1,0.001159,338.119,0.763,2.946e7,10.6,90,0.05,0.056,0.033
3.1,589.188,589.188,255.238,255.238,-51.35,51.35,-0.129,0.002,0.129,270.7225582,0.096,0.022,28.61,-80.6,4.6461148e-4,0,-5.13E-06,-1.96E-05,89.9543738,271.3528118,6576,794,1.933,0.021,9.79,144.8,108.4,3.444,0,0,273.286,0.825,0.238,0.393,0.194,0.825,1.257e-4,3.249e-4,-1.58E-04,0,0,0,0,0,0,0,11.17,944.6,0.001157,338.068,0.755,2.913e7,10.6,90,0.05,0.057,0.033
3.15,601.886,601.886,252.699,252.699,-50.236,50.236,-0.134,0.002,0.134,270.7225582,0.097,0.013,28.61,-80.6,4.4226612e-4,0,-1.36E-05,-1.99E-05,89.9543738,271.4101076,6576,794,1.933,0.021,9.79,144.8,108.4,3.438,0,0,265.957,0.82,0.238,0.389,0.193,0.82,1.194e-4,1.37e-4,-7.79E-05,0,0,0,0,0,0,0,11.088,943.2,0.001156,338.018,0.748,2.881e7,10.6,90,0.05,0.057,0.032
3.2,614.459,614.459,250.214,250.214,-49.172,49.172,-0.139,0.002,0.139,270.7225582,0.098,0.012,28.61,-80.6,3.5248364e-4,0,4.7364511e-5,-9.91E-06,89.9543738,270.7225582,6576,794,1.933,0.021,9.79,144.7,108.4,3.432,0,0,258.965,0.815,0.238,0.385,0.191,0.815,9.495e-5,-1.33E-04,1.109e-4,0,0,0,0,0,0,0,11.006,941.8,0.001155,337.969,0.74,2.85e7,10.6,90,0.05,0.057,0.032
3.25,626.908,626.908,247.781,247.781,-48.15,48.15,-0.144,0.002,0.144,270.7225582,0.098,0.016,28.61,-80.6,1.9669641e-4,0,0,0,89.9543738,270.264192,6576,794,1.933,0.021,9.79,144.7,108.4,3.426,0,0,252.244,0.811,0.239,0.382,0.19,0.811,5.289e-5,2.887e-5,4.957e-4,0,0,0,0,0,0,0,10.925,940.4,0.001153,337.92,0.733,2.82e7,10.6,90,0.05,0.058,0.032
3.3,639.238,639.238,245.398,245.398,-47.167,47.167,-0.149,0.002,0.149,270.7225582,0.099,0.019,28.61,-80.6,2.4602808e-4,0,-8.90E-06,-2.93E-05,89.9543738,270.1496004,6576,794,1.933,0.021,9.79,144.6,108.4,3.42,0,0,245.779,0.806,0.239,0.379,0.189,0.806,6.604e-5,1.736e-4,2.252e-4,0,0,0,0,0,0,0,10.845,939.1,0.001152,337.871,0.726,2.79e7,10.6,90,0.05,0.058,0.031
3.35,651.449,651.449,243.063,243.063,-46.22,46.22,-0.154,0.002,0.154,270.7225582,0.1,0.016,28.61,-80.6,1.1906063e-4,0,0,0,89.9543738,270.264192,6576,794,1.933,0.021,9.79,144.5,108.4,3.415,0,0,239.556,0.802,0.239,0.375,0.187,0.802,3.191e-5,-1.85E-04,-3.21E-04,0,0,0,0,0,0,0,10.766,937.7,0.001151,337.823,0.719,2.761e7,10.6,90,0.05,0.059,0.031
3.4,663.545,663.545,240.775,240.775,-45.309,45.309,-0.159,0.002,0.159,270.7225582,0.101,0.009,28.61,-80.6,6.2566991e-4,0,-1.87E-05,1.9894368e-5,89.9543738,270.779854,6576,794,1.933,0.021,9.79,144.5,108.4,3.41,0,0,233.562,0.798,0.239,0.372,0.186,0.798,1.674e-4,5.865e-4,-2.63E-04,0,0,0,0,0,0,0,10.687,936.3,0.001149,337.775,0.713,2.732e7,10.6,90,0.05,0.059,0.031
3.45,675.527,675.527,238.532,238.532,-44.431,44.431,-0.164,0.002,0.164,270.7225582,0.101,0.012,28.61,-80.6,5.5284698e-4,0,4.9115215e-5,5.5354089e-5,89.9543738,271.5819949,6576,794,1.933,0.021,9.79,144.4,108.4,3.405,0,0,227.787,0.794,0.24,0.369,0.185,0.794,1.477e-4,7.818e-4,2.187e-6,0,0,0,0,0,0,0,10.609,935,0.001148,337.728,0.706,2.704e7,10.6,90,0.05,0.059,0.031
3.5,687.399,687.399,236.332,236.332,-43.586,43.586,-0.169,0.002,0.169,270.7225582,0.102,0.021,28.61,-80.6,5.4047109e-4,0,-6.16E-05,3.3788594e-5,89.9543738,270.4360793,6576,794,1.933,0.021,9.79,144.4,108.4,3.4,0,0,222.231,0.79,0.24,0.366,0.184,0.79,1.442e-4,9.787e-4,1.045e-4,0,0,0,0,0,0,0,10.532,933.7,0.001147,337.681,0.7,2.677e7,10.6,90,0.05,0.06,0.03
3.55,699.161,699.161,234.173,234.173,-42.783,42.783,-0.174,0.002,0.174,270.7225582,0.103,0.02,28.61,-80.6,6.6864175e-4,0,-1.15E-05,1.6679438e-5,89.9543738,269.3474595,6576,794,1.933,0.021,9.79,144.3,108.4,3.395,0,0,216.951,0.786,0.24,0.363,0.183,0.786,1.78e-4,3.479e-4,4.378e-4,0,0,0,0,0,0,0,10.455,932.4,0.001145,337.635,0.694,2.65e7,10.6,90,0.05,0.06,0.03
3.6,710.816,710.816,232.053,232.053,-42.007,42.007,-0.179,0.002,0.179,270.7225582,0.104,0.013,28.61,-80.6,2.4854909e-4,0,-1.10E-06,5.6738737e-5,89.9543738,270.3787835,6576,794,1.933,0.021,9.79,144.3,108.4,3.391,0,0,211.853,0.783,0.241,0.36,0.181,0.783,6.611e-5,5.004e-4,-5.30E-05,0,0,0,0,0,0,0,10.38,931.1,0.001144,337.589,0.687,2.623e7,10.6,90,0.05,0.061,0.03
3.65,722.367,722.367,229.971,229.971,-41.258,41.258,-0.184,0.002,0.184,270.6652624,0.105,0.013,28.61,-80.6,7.0531105e-4,0,1.1420959e-5,3.6398735e-5,89.9543738,271.8684738,6576,794,1.933,0.021,9.79,144.2,108.4,3.386,0,0,206.926,0.779,0.241,0.358,0.18,0.779,1.874e-4,9.642e-4,-1.71E-04,0,0,0,0,0,0,0,10.305,929.8,0.001143,337.543,0.681,2.597e7,10.6,90,0.05,0.061,0.029
3.7,733.814,733.814,227.927,227.927,-40.534,40.534,-0.19,0.002,0.19,270.6652624,0.105,0.017,28.61,-80.6,2.7954611e-4,0,-2.00E-05,7.5710006e-5,89.9543738,271.0663329,6576,794,1.933,0.021,9.79,144.2,108.4,3.382,0,0,202.164,0.776,0.242,0.355,0.179,0.776,7.414e-5,7.104e-4,2.615e-4,0,0,0,0,0,0,0,10.23,928.5,0.001141,337.498,0.675,2.572e7,10.6,90,0.05,0.061,0.029
3.75,745.16,745.16,225.918,225.918,-39.834,39.834,-0.195,0.002,0.195,270.6652624,0.106,0.02,28.61,-80.6,6.24524e-4,0,-2.66E-05,9.901029e-6,89.9543738,269.6339384,6576,794,1.933,0.021,9.79,144.2,108.4,3.378,0,0,197.559,0.772,0.242,0.352,0.178,0.772,1.654e-4,6.585e-4,-4.82E-04,0,0,0,0,0,0,0,10.156,927.2,0.00114,337.454,0.669,2.547e7,10.6,90,0.05,0.062,0.029
3.8,756.407,756.407,223.943,223.943,-39.156,39.156,-0.2,0.002,0.2,270.6652624,0.107,0.014,28.61,-80.6,2.2058875e-4,0,0,0,89.9543738,270.0350088,6576,794,1.933,0.021,9.79,144.1,108.4,3.374,0,0,193.103,0.769,0.242,0.35,0.177,0.769,5.835e-5,6.654e-4,9.317e-5,0,0,0,0,0,0,0,10.083,926,0.001139,337.409,0.664,2.523e7,10.6,90,0.05,0.062,0.029
3.85,767.555,767.555,222.002,222.002,-38.5,38.5,-0.206,0.002,0.206,270.6652624,0.108,0.016,28.61,-80.6,7.9870317e-4,0,-3.71E-05,4.5454652e-5,89.9543738,272.1549527,6576,794,1.933,0.021,9.79,144.1,108.4,3.37,0,0,188.789,0.766,0.243,0.347,0.176,0.766,2.111e-4,8.624e-4,-3.16E-04,0,0,0,0,0,0,0,10.011,924.7,0.001138,337.366,0.658,2.498e7,10.6,90,0.05,0.063,0.028
3.9,778.607,778.607,220.093,220.093,-37.865,37.865,-0.211,0.002,0.211,270.6652624,0.109,0.017,28.61,-80.6,8.2276739e-4,0,2.6292397e-5,3.4918595e-5,89.9543738,272.3841358,6576,794,1.933,0.021,9.79,144,108.4,3.367,0,0,184.612,0.763,0.243,0.345,0.175,0.763,2.172e-4,6.679e-4,1.633e-4,0,0,0,0,0,0,0,9.939,923.5,0.001136,337.322,0.652,2.475e7,10.6,90,0.05,0.063,0.028
3.95,789.565,789.565,218.215,218.215,-37.251,37.251,-0.217,0.003,0.217,270.6652624,0.109,0.013,28.61,-80.6,3.9923699e-4,0,-8.03E-05,-2.04E-05,89.9543738,270.0350088,6576,794,1.933,0.021,9.79,144,108.4,3.363,0,0,180.578,0.76,0.244,0.342,0.174,0.76,1.052e-4,1.009e-4,-1.15E-04,0,0,0,0,-8.18E-09,0,0,9.868,922.3,0.001135,337.279,0.647,2.452e7,10.6,90,0.05,0.063,0.028
4,800.429,800.429,216.367,216.367,-36.658,36.658,-0.222,0.003,0.222,270.6652624,0.11,0.016,28.61,-80.6,0.001139,0,1.1467114e-5,-3.85E-05,89.9543738,268.3734312,6576,794,1.933,0.021,9.79,144,108.4,3.359,0,0,176.677,0.757,0.244,0.34,0.174,0.757,2.999e-4,7.398e-4,-4.48E-05,0,0,0,0,0,0,0,9.797,921,0.001134,337.236,0.642,2.429e7,10.6,90,0.05,0.064,0.028
4.05,811.202,811.202,214.549,214.549,-36.083,36.083,-0.228,0.003,0.228,270.6652624,0.111,0.015,28.61,-80.6,4.3126533e-4,0,5.7677751e-5,-3.66E-05,89.9543738,269.5193468,6576,794,1.933,0.021,9.79,143.9,108.4,3.356,0,0,172.895,0.754,0.244,0.338,0.173,0.754,1.134e-4,2.534e-4,3.135e-4,0,0,0,0,0,0,0,9.727,919.8,0.001133,337.194,0.636,2.406e7,10.6,90,0.05,0.064,0.027
4.1,821.885,821.885,212.759,212.759,-35.525,35.525,-0.233,0.003,0.233,270.6652624,0.111,0.016,28.61,-80.6,4.8157103e-4,0,-4.92E-05,1.1459156e-5,89.9543738,271.1809244,6576,794,1.933,0.021,9.79,143.9,108.4,3.353,0,0,169.225,0.752,0.245,0.335,0.172,0.752,1.265e-4,8.755e-5,-2.44E-04,0,0,0,0,0,0,0,9.658,918.6,0.001132,337.151,0.631,2.384e7,10.6,90,0.05,0.065,0.027
4.15,832.478,832.478,210.996,210.996,-34.983,34.983,-0.239,0.003,0.239,270.6652624,0.112,0.016,28.61,-80.6,4.3997429e-4,0,3.1640003e-5,2.850465e-5,89.9543738,271.2382202,6576,794,1.933,0.021,9.79,143.9,108.4,3.35,0,0,165.664,0.749,0.245,0.333,0.171,0.749,1.155e-4,1.031e-4,2.503e-4,0,0,0,0,0,0,0,9.589,917.5,0.00113,337.11,0.626,2.362e7,10.6,90,0.05,0.065,0.027
4.2,842.985,842.985,209.26,209.26,-34.457,34.457,-0.244,0.003,0.244,270.6652624,0.113,0.013,28.61,-80.6,8.0729753e-5,0,0,0,89.9543738,270.3787835,6576,794,1.933,0.021,9.79,143.8,108.4,3.347,0,0,162.207,0.746,0.245,0.331,0.17,0.746,2.116e-5,4.318e-4,1.577e-4,0,0,0,0,0,0,0,9.521,916.3,0.001129,337.068,0.621,2.341e7,10.6,90,0.05,0.065,0.027
4.25,853.405,853.405,207.55,207.55,-33.947,33.947,-0.25,0.003,0.25,270.6652624,0.113,0.011,28.61,-80.6,3.1277766e-4,0,1.3868762e-5,-9.49E-06,89.9543738,270.2068962,6576,794,1.933,0.021,9.79,143.8,108.4,3.344,0,0,158.85,0.744,0.246,0.329,0.169,0.744,8.194e-5,-1.49E-04,2.338e-4,0,0,0,0,0,0,0,9.453,915.1,0.001128,337.027,0.616,2.32e7,10.6,90,0.05,0.066,0.027
4.3,863.74,863.74,205.865,205.865,-33.451,33.451,-0.256,0.003,0.256,270.6652624,0.114,0.013,28.61,-80.6,2.484918e-4,0,0,0,89.9543738,270.0350088,6576,794,1.933,0.021,9.79,143.8,108.4,3.341,0,0,155.588,0.741,0.246,0.327,0.169,0.741,6.503e-5,5.341e-5,-4.89E-04,0,0,0,0,0,0,0,9.386,914,0.001127,336.987,0.611,2.299e7,10.6,90,0.05,0.066,0.026
4.35,873.992,873.992,204.205,204.205,-32.968,32.968,-0.261,0.003,0.261,270.6652624,0.115,0.017,28.61,-80.6,6.1879442e-4,0,-4.96E-05,-3.40E-05,89.9543738,269.6912342,6576,794,1.933,0.021,9.789,143.7,108.4,3.338,0,0,152.419,0.739,0.246,0.325,0.168,0.739,1.618e-4,2.365e-4,4.303e-4,0,0,0,0,0,0,0,9.319,912.8,0.001126,336.946,0.606,2.279e7,10.6,90,0.05,0.067,0.026
4.4,884.161,884.161,202.568,202.568,-32.5,32.5,-0.267,0.003,0.267,270.6652624,0.116,0.019,28.61,-80.6,7.4713696e-4,0,-6.41E-06,-2.40E-05,89.9543738,269.9777131,6576,794,1.933,0.021,9.789,143.7,108.4,3.335,0,0,149.337,0.736,0.247,0.323,0.167,0.736,1.952e-4,8.649e-4,-1.60E-04,0,0,0,0,0,0,0,9.253,911.7,0.001125,336.906,0.601,2.258e7,10.6,90,0.05,0.067,0.026
4.45,894.249,894.249,200.954,200.955,-32.046,32.046,-0.273,0.003,0.273,270.6079666,0.116,0.013,28.61,-80.6,3.3495113e-4,0,-3.36E-05,-2.31E-05,89.9543738,270.8944455,6576,794,1.933,0.021,9.789,143.7,108.4,3.333,0,0,146.351,0.734,0.247,0.321,0.166,0.734,8.742e-5,-1.88E-04,-2.86E-04,0,0,0,0,0,0,0,9.187,910.6,0.001124,336.866,0.597,2.239e7,10.6,90,0.05,0.071,0.026
4.5,904.257,904.257,199.363,199.363,-31.604,31.604,-0.279,0.003,0.279,270.6079666,0.117,0.011,28.61,-80.6,8.2276739e-4,0,-5.26E-07,1.2667142e-5,89.9543738,271.6965865,6576,794,1.933,0.021,9.789,143.6,108.4,3.33,0,0,143.45,0.732,0.247,0.319,0.166,0.732,2.146e-4,8.564e-4,-2.86E-04,0,0,0,0,0,0,0,9.122,909.4,0.001122,336.827,0.592,2.219e7,10.6,90,0.05,0.072,0.026
4.55,914.186,914.186,197.794,197.794,-31.175,31.175,-0.285,0.003,0.285,270.6079666,0.117,0.011,28.61,-80.6,4.2565035e-4,0,5.9508033e-5,1.0095198e-5,89.9543738,271.0663329,6576,794,1.933,0.021,9.789,143.6,108.4,3.328,0,0,140.627,0.729,0.248,0.317,0.165,0.729,1.109e-4,2.516e-4,-4.65E-05,0,0,0,0,5.465e-9,0,0,9.058,908.3,0.001121,336.788,0.587,2.2e7,10.6,90,0.05,0.072,0.025
4.6,924.036,924.036,196.246,196.246,-30.757,30.757,-0.29,0.003,0.29,270.6079666,0.118,0.012,28.61,-80.6,2.5811749e-4,0,0,0,89.9543738,270.0923046,6576,794,1.933,0.021,9.789,143.6,108.4,3.325,0,0,137.878,0.727,0.248,0.315,0.164,0.727,6.719e-5,5.994e-4,-4.26E-04,0,0,0,0,0,0,0,8.994,907.2,0.00112,336.749,0.583,2.181e7,10.6,90,0.05,0.072,0.025
4.65,933.81,933.81,194.718,194.718,-30.35,30.35,-0.296,0.003,0.296,270.6079666,0.119,0.013,28.61,-80.6,2.8338493e-4,0,0,0,89.9543738,269.9777131,6576,794,1.933,0.021,9.789,143.6,108.4,3.323,0,0,135.202,0.725,0.248,0.313,0.163,0.725,7.371e-5,-1.43E-04,5.714e-6,0,0,0,0,0,0,0,8.93,906.1,0.001119,336.711,0.578,2.162e7,10.6,90,0.05,0.073,0.025
4.7,943.509,943.509,193.21,193.21,-29.954,29.954,-0.302,0.003,0.302,270.6079666,0.119,0.013,28.61,-80.6,1.0840361e-4,0,0,0,89.9543738,270.264192,6576,794,1.933,0.021,9.789,143.5,108.4,3.321,0,0,132.595,0.723,0.249,0.311,0.163,0.723,2.817e-5,1.356e-4,1.602e-5,0,0,0,0,0,0,0,8.867,905.1,0.001118,336.672,0.574,2.144e7,10.6,90,0.05,0.073,0.025
4.75,953.132,953.132,191.722,191.722,-29.567,29.567,-0.308,0.003,0.308,270.6079666,0.12,0.011,28.61,-80.6,1.9640993e-4,0,0,0,89.9543738,270.4360793,6576,794,1.933,0.021,9.789,143.5,108.4,3.319,0,0,130.056,0.721,0.249,0.31,0.162,0.721,5.102e-5,2.448e-4,-8.41E-05,0,0,0,0,0,0,0,8.805,904,0.001117,336.635,0.57,2.126e7,10.6,90,0.05,0.074,0.025
4.8,962.681,962.681,190.253,190.254,-29.191,29.191,-0.314,0.003,0.314,270.6079666,0.12,0.01,28.61,-80.6,4.3865649e-4,0,1.7984509e-5,1.9973945e-5,89.9543738,270.779854,6576,794,1.933,0.021,9.789,143.5,108.4,3.317,0,0,127.581,0.719,0.249,0.308,0.162,0.719,1.138e-4,4.482e-4,-4.65E-04,0,0,0,0,0,0,0,8.743,902.9,0.001116,336.597,0.565,2.108e7,10.6,90,0.05,0.074,0.024
4.85,972.157,972.157,188.803,188.803,-28.824,28.824,-0.32,0.003,0.32,270.6079666,0.121,0.011,28.61,-80.6,4.1694139e-4,0,7.5646344e-6,4.3258314e-5,89.9543738,271.0663329,6576,794,1.933,0.021,9.789,143.5,108.4,3.315,0,0,125.169,0.717,0.249,0.306,0.161,0.717,1.081e-4,4.91e-4,-1.74E-04,0,0,0,0,0,0,0,8.681,901.9,0.001115,336.56,0.561,2.09e7,10.6,90,0.05,0.074,0.024
4.9,981.562,981.562,187.371,187.371,-28.466,28.466,-0.326,0.003,0.326,270.6079666,0.121,0.013,28.61,-80.6,2.4929394e-4,0,0,0,89.9543738,270.779854,6576,794,1.933,0.021,9.789,143.5,108.4,3.313,0,0,122.817,0.715,0.25,0.305,0.16,0.715,6.461e-5,5.253e-4,2.206e-4,0,0,0,0,0,0,0,8.62,900.8,0.001114,336.523,0.557,2.072e7,10.6,90,0.05,0.075,0.024
4.95,990.895,990.895,185.956,185.956,-28.118,28.118,-0.332,0.003,0.332,270.6079666,0.122,0.014,28.61,-80.6,4.7589874e-4,0,-4.54E-05,-2.94E-06,89.9543738,270.0350088,6576,794,1.933,0.021,9.789,143.4,108.4,3.311,0,0,120.523,0.713,0.25,0.303,0.16,0.713,1.232e-4,4.372e-4,8.784e-5,0,0,0,0,0,0,0,8.559,899.8,0.001113,336.486,0.553,2.055e7,10.6,90,0.05,0.075,0.024
5,1000.158,1000.158,184.559,184.559,-27.778,27.778,-0.339,0.004,0.339,270.6079666,0.123,0.014,28.61,-80.6,5.7754146e-4,0,-7.10E-06,-2.47E-05,89.9543738,269.8058257,6576,794,1.933,0.021,9.789,143.4,108.4,3.309,0,0,118.289,0.711,0.25,0.301,0.159,0.711,1.495e-4,3.14e-4,-8.29E-05,0,0,0,0,0,0,0,8.499,898.7,0.001112,336.449,0.549,2.038e7,10.6,90,0.05,0.076,0.024
5.05,1009.351,1009.351,183.178,183.178,-27.448,27.448,-0.345,0.004,0.345,270.6079666,0.124,0.013,28.61,-80.6,2.5891963e-4,0,0,0,89.9543738,270.4360793,6576,794,1.933,0.021,9.789,143.4,108.4,3.307,0,0,116.121,0.709,0.251,0.3,0.159,0.709,6.697e-5,-7.03E-05,8.711e-5,0,0,0,0,0,0,0,8.439,897.8,0.001111,336.413,0.545,2.021e7,10.6,90,0.05,0.076,0.023
5.1,1018.476,1018.476,181.814,181.814,-27.126,27.126,-0.351,0.004,0.351,270.6079666,0.124,0.013,28.61,-80.6,7.5401246e-4,0,-3.69E-05,5.9587611e-6,89.9543738,271.5246991,6576,794,1.933,0.021,9.789,143.4,108.4,3.305,0,0,114.005,0.707,0.251,0.298,0.158,0.707,1.949e-4,4.657e-4,3.32e-4,0,0,0,0,0,0,0,8.38,896.8,0.00111,336.377,0.541,2.005e7,10.6,90,0.05,0.076,0.023
5.15,1027.533,1027.533,180.466,180.466,-26.812,26.812,-0.357,0.004,0.357,270.6079666,0.125,0.011,28.61,-80.6,9.0584627e-4,0,7.9179584e-6,9.6352403e-6,89.9543738,271.8684738,6576,794,1.933,0.021,9.789,143.4,108.4,3.304,0,0,111.938,0.705,0.251,0.297,0.157,0.705,2.34e-4,8.232e-4,2.7e-4,0,0,0,0,0,0,0,8.321,895.8,0.001109,336.341,0.537,1.989e7,10.6,90,0.05,0.077,0.023
5.2,1036.523,1036.523,179.133,179.133,-26.505,26.505,-0.363,0.004,0.363,270.6079666,0.125,0.01,28.61,-80.6,4.9320207e-4,0,5.1104652e-5,1.1653325e-5,89.9543738,271.2382202,6576,794,1.933,0.021,9.789,143.4,108.4,3.302,0,0,109.92,0.704,0.252,0.295,0.157,0.704,1.273e-4,2.742e-4,-3.93E-04,0,0,0,0,0,0,0,8.263,894.9,0.001108,336.306,0.533,1.973e7,10.6,90,0.05,0.077,0.023
5.25,1045.446,1045.446,177.815,177.815,-26.205,26.205,-0.37,0.004,0.37,270.6079666,0.126,0.011,28.61,-80.6,2.6653997e-4,0,0,0,89.9543738,270.264192,6576,794,1.933,0.021,9.789,143.3,108.4,3.301,0,0,107.949,0.702,0.252,0.294,0.156,0.702,6.876e-5,-2.36E-04,-1.20E-04,0,0,0,0,0,0,0,8.205,893.9,0.001107,336.271,0.529,1.957e7,10.6,90,0.05,0.078,0.023
5.3,1054.304,1054.304,176.512,176.512,-25.912,25.912,-0.376,0.004,0.376,270.6079666,0.126,0.013,28.61,-80.6,7.6203387e-4,0,-2.81E-05,-2.68E-05,89.9543738,269.5193468,6576,794,1.933,0.021,9.789,143.3,108.4,3.299,0,0,106.024,0.7,0.252,0.292,0.156,0.7,1.964e-4,2.268e-4,-1.53E-04,0,0,0,0,0,0,0,8.147,893,0.001106,336.236,0.525,1.941e7,10.6,90,0.05,0.078,0.023
5.35,1063.098,1063.098,175.224,175.224,-25.626,25.626,-0.382,0.004,0.382,270.6079666,0.127,0.012,28.61,-80.6,8.8350092e-4,0,-3.05E-06,-2.04E-05,89.9543738,269.2328679,6576,794,1.933,0.021,9.789,143.3,108.4,3.298,0,0,104.142,0.698,0.252,0.291,0.155,0.698,2.276e-4,5.963e-4,-9.95E-05,0,0,0,0,0,0,0,8.09,892,0.001105,336.201,0.521,1.926e7,10.6,90,0.05,0.078,0.022
5.4,1071.827,1071.827,173.949,173.949,-25.346,25.346,-0.389,0.004,0.389,270.6079666,0.127,0.01,28.61,-80.6,3.7293823e-4,0,4.4372398e-5,1.9385072e-5,89.9543738,269.9204173,6576,794,1.933,0.021,9.789,143.3,108.4,3.297,0,0,102.303,0.697,0.253,0.289,0.155,0.697,9.603e-5,9.271e-5,1.003e-4,0,0,0,0,0,0,0,8.033,891.1,0.001104,336.167,0.517,1.91e7,10.6,90,0.05,0.079,0.022
5.45,1080.493,1080.493,172.689,172.689,-25.073,25.073,-0.395,0.004,0.395,270.6079666,0.128,0.009,28.61,-80.6,5.2156348e-4,0,1.7204649e-6,4.1507609e-5,89.9543738,270.8944455,6576,794,1.933,0.021,9.789,143.3,108.4,3.295,0,0,100.505,0.695,0.253,0.288,0.154,0.695,1.342e-4,3.038e-4,-2.96E-04,0,0,0,0,0,0,0,7.977,890.2,0.001103,336.133,0.514,1.895e7,10.6,90,0.05,0.079,0.022
5.5,1089.096,1089.096,171.442,171.442,-24.806,24.806,-0.401,0.004,0.401,270.6079666,0.128,0.01,28.61,-80.6,5.7983329e-4,0,1.6647607e-5,3.9900144e-5,89.9543738,271.2382202,6576,794,1.933,0.021,9.789,143.3,108.4,3.294,0,0,98.747,0.694,0.253,0.287,0.154,0.694,1.492e-4,5.013e-4,3.011e-4,0,0,0,0,0,0,0,7.921,889.3,0.001102,336.099,0.51,1.88e7,10.6,90,0.05,0.08,0.022
5.55,1097.637,1097.637,170.208,170.208,-24.544,24.544,-0.408,0.004,0.408,270.6079666,0.129,0.011,28.61,-80.6,1.059399e-4,0,0,0,89.9543738,270.6079666,6576,794,1.933,0.021,9.789,143.3,108.4,3.293,0,0,97.027,0.692,0.253,0.285,0.153,0.692,2.723e-5,-2.87E-04,-8.92E-05,0,0,0,0,0,0,0,7.865,888.4,0.001101,336.065,0.506,1.865e7,10.6,90,0.05,0.08,0.022
5.6,1106.117,1106.117,168.987,168.988,-24.288,24.288,-0.414,0.004,0.414,270.6079666,0.129,0.011,28.61,-80.6,3.3655541e-4,0,0,0,89.9543738,270.0923046,6576,794,1.933,0.021,9.789,143.2,108.4,3.292,0,0,95.346,0.69,0.254,0.284,0.153,0.69,8.647e-5,7.557e-4,-3.32E-04,0,0,0,0,0,0,0,7.81,887.5,0.0011,336.032,0.503,1.851e7,10.6,90,0.05,0.08,0.022
5.65,1114.536,1114.536,167.779,167.779,-24.038,24.038,-0.421,0.004,0.421,270.5506709,0.13,0.011,28.61,-80.6,2.3032903e-4,0,0,0,89.9543738,270.1496004,6576,794,1.933,0.021,9.789,143.2,108.4,3.291,0,0,93.702,0.689,0.254,0.282,0.152,0.689,5.915e-5,-1.15E-04,-5.01E-05,0,0,0,0,0,0,0,7.756,886.6,0.001099,335.999,0.499,1.836e7,10.6,90,0.05,0.081,0.021
5.7,1122.895,1122.895,166.584,166.584,-23.794,23.794,-0.427,0.004,0.427,270.5506709,0.13,0.01,28.61,-80.6,1.6529832e-4,0,0,0,89.9543738,270.4933751,6576,794,1.933,0.021,9.789,143.2,108.4,3.29,0,0,92.098,0.687,0.254,0.281,0.152,0.687,4.243e-5,6.368e-4,5.9e-5,0,0,0,0,0,0,0,7.701,885.7,0.001099,335.966,0.496,1.822e7,10.6,90,0.05,0.081,0.021
5.75,1131.195,1131.195,165.4,165.4,-23.556,23.556,-0.434,0.004,0.434,270.5506709,0.131,0.009,28.61,-80.6,4.7876353e-4,0,-1.86E-06,3.0048453e-5,89.9543738,270.8944455,6576,794,1.933,0.021,9.789,143.2,108.4,3.289,0,0,90.529,0.686,0.254,0.28,0.152,0.686,1.228e-4,8.418e-4,-1.68E-04,0,0,0,0,0,0,0,7.647,884.8,0.001098,335.933,0.492,1.808e7,10.6,90,0.05,0.082,0.021
5.8,1139.435,1139.435,164.228,164.228,-23.322,23.322,-0.44,0.004,0.44,270.5506709,0.131,0.01,28.61,-80.6,5.2666281e-4,0,1.5566945e-5,3.9168031e-5,89.9543738,271.1236287,6576,794,1.933,0.021,9.789,143.2,108.4,3.287,0,0,88.992,0.684,0.255,0.279,0.151,0.684,1.35e-4,7.102e-4,-2.19E-04,0,0,0,0,0,0,0,7.594,883.9,0.001097,335.901,0.489,1.794e7,10.6,90,0.05,0.082,0.021
5.85,1147.618,1147.618,163.067,163.068,-23.093,23.093,-0.447,0.004,0.447,270.5506709,0.132,0.011,28.61,-80.6,2.552527e-4,0,0,0,89.9543738,270.779854,6576,794,1.933,0.021,9.789,143.2,108.4,3.286,0,0,87.488,0.683,0.255,0.277,0.151,0.683,6.541e-5,-9.85E-06,-3.71E-04,0,0,0,0,0,0,0,7.54,883,0.001096,335.868,0.486,1.78e7,10.6,90,0.05,0.082,0.021
5.9,1155.742,1155.742,161.918,161.918,-22.869,22.869,-0.454,0.005,0.454,270.5506709,0.132,0.012,28.61,-80.6,5.0185373e-4,0,-4.84E-05,-7.03E-08,89.9543738,270.3214877,6576,794,1.933,0.021,9.789,143.2,108.4,3.285,0,0,86.015,0.682,0.255,0.276,0.15,0.682,1.286e-4,5.891e-4,3.619e-4,0,0,0,0,-5.40E-09,0,0,7.488,882.2,0.001095,335.836,0.482,1.767e7,10.6,90,0.05,0.083,0.021
5.95,1163.81,1163.81,160.78,160.781,-22.65,22.65,-0.46,0.005,0.46,270.5506709,0.133,0.012,28.61,-80.6,5.7095244e-4,0,-2.29E-05,-1.30E-05,89.9543738,270.2068962,6576,794,1.933,0.021,9.789,143.2,108.4,3.284,0,0,84.572,0.68,0.256,0.275,0.15,0.68,1.462e-4,2.723e-4,1.533e-4,0,0,0,0,0,0,0,7.435,881.3,0.001094,335.805,0.479,1.753e7,10.6,90,0.05,0.083,0.021
6,1171.821,1171.821,159.653,159.653,-22.435,22.435,-0.467,0.005,0.467,270.5506709,0.134,0.011,28.61,-80.6,2.4488216e-4,0,0,0,89.9543738,270.4360793,6576,794,1.933,0.021,9.789,143.2,108.4,3.284,0,0,83.159,0.679,0.256,0.274,0.149,0.679,6.266e-5,5.497e-4,-2.26E-04,0,0,0,0,0,0,0,7.383,880.5,0.001093,335.773,0.475,1.74e7,10.6,90,0.05,0.084,0.02
6.05,1179.775,1179.775,158.537,158.537,-22.224,22.224,-0.474,0.005,0.474,270.5506709,0.134,0.008,28.61,-80.6,3.8972589e-4,0,-1.20E-05,7.6887753e-6,89.9543738,270.7225582,6576,794,1.933,0.021,9.789,143.1,108.4,3.283,0,0,81.774,0.678,0.256,0.273,0.149,0.678,9.969e-5,1.585e-4,3.566e-4,0,0,0,0,0,0,0,7.331,879.6,0.001093,335.742,0.472,1.726e7,10.6,90,0.05,0.084,0.02
