# Time (s),Altitude (m),Altitude above sea level (m),Vertical velocity (m/s),Total velocity (m/s),Vertical acceleration (m/s²),Total acceleration (m/s²),Position East of launch (m),Position North of launch (m),Lateral distance (m),Lateral direction (°),Lateral velocity (m/s),Lateral acceleration (m/s²),Latitude (° N),Longitude (° E),Angle of attack (°),Roll rate (r/s),Pitch rate (r/s),Yaw rate (r/s),Vertical orientation (zenith) (°),Lateral orientation (azimuth) (°),Mass (g),Motor mass (g),Longitudinal moment of inertia (kg·m²),Rotational moment of inertia (kg·m²),Gravitational acceleration (m/s²),CP location (cm),CG location (cm),Stability margin calibers (​),Thrust (N),Thrust-to-weight ratio (​),Drag force (N),Drag coefficient (​),Friction drag coefficient (​),Pressure drag coefficient (​),Base drag coefficient (​),Axial drag coefficient (​),Normal force coefficient (​),Pitch moment coefficient (​),Yaw moment coefficient (​),Side force coefficient (​),Roll moment coefficient (​),Roll forcing coefficient (​),Roll damping coefficient (​),Pitch damping coefficient (​),Wind velocity (m/s),Wind direction (°),Air temperature (°C),Air pressure (mbar),Air density (g/cm³),Speed of sound (m/s),Mach number (​),Reynolds number (​),Reference length (cm),Reference area (cm²),Simulation time step (s),Computation time (s),Coriolis acceleration (m/s²)
0,0,1380,0,0,0,0,0,0,0,0,0,0,43.8,-120.63,90,0,0,0,90,0,9637.2372638,3855.515,2.3640809,0.0238819,9.8008672,NaN,121.5589397,NaN,0,0,0,0.8083736,0.5290092,0.1593612,0.1200033,0,NaN,NaN,NaN,NaN,NaN,NaN,NaN,NaN,1.694548,90,6.03,858.3245703,0.001071,334.95308,0.0050591,1.8156077e5,10.5791,87.8996865,0.01,0.0018738,0
0.01,0,1380,0,0,0,0,0,0,0,0,0,0,43.8,-120.63,90,0,0,0,90,0,9637.1356029,3855.4133391,2.3640706,0.0238818,9.8008672,NaN,121.5586523,NaN,24.0685,0.2548218,0,0.8069782,0.527609,0.1593657,0.1200034,0,NaN,NaN,NaN,NaN,NaN,NaN,NaN,NaN,1.7134729,90,6.03,858.3245703,0.001071,334.95308,0.0051156,1.8358847e5,10.5791,87.8996865,0.01,0.0033854,0
0.02,0,1380,0,0,0,0,0,0,0,0,0,0,43.8,-120.63,90,0,0,0,90,0,9637.033942,3855.3116782,2.3640604,0.0238818,9.8008672,NaN,121.5583648,NaN,48.137,0.5096489,0,0.8056035,0.5262297,0.1593703,0.1200035,0,NaN,NaN,NaN,NaN,NaN,NaN,NaN,NaN,1.7323978,90,6.03,858.3245703,0.001071,334.95308,0.0051721,1.8561616e5,10.5791,87.8996865,0.01,0.0041442,0
0.03,0.0016209,1380.0016209,0.4943193,0.4943193,102.0845718,102.0845724,-3.2479674e-7,0,3.2479674e-7,269.9999857,8.2373422e-5,0.0104706,43.8,-120.63,74.2373196,0,0,0,90,0,9632.4817873,3850.7595234,2.3636016,0.0238786,9.8008672,NaN,121.5454856,NaN,1077.735,11.4158772,5.4673057e-4,0.7995193,0.520124,0.1593915,0.1200038,0.0350773,NaN,NaN,NaN,NaN,NaN,NaN,NaN,NaN,1.7513228,90,6.0299895,858.3243979,0.001071,334.9530736,0.0054326,1.949667e5,10.5791,87.8996865,0.01,0.0049066,5.2033619e-5
0.04,0.0134511,1380.0134511,2.0500319,2.0500319,209.0740717,209.0740791,-1.7723145e-6,0,1.7723145e-6,269.999967,2.8227649e-4,0.0555559,43.8,-120.63,40.8068119,0,0,0,90,0,9627.9296326,3846.2073687,2.3631424,0.0238754,9.8008671,NaN,121.5325943,NaN,2107.333,22.3324186,0.020491,0.7540163,0.4744005,0.1596073,0.1200085,0.5934392,NaN,NaN,NaN,NaN,NaN,NaN,NaN,NaN,1.7702477,90,6.0299126,858.3231395,0.001071,334.953027,0.0080859,2.9018825e5,10.5791,87.8996865,0.01,0.005698,2.1579286e-4
0.05,0.0446185,1380.0446185,4.2047977,4.2047978,221.8825536,221.8825536,-7.8242542e-6,0,7.8242542e-6,269.9999613,9.8238091e-4,0,43.8,-120.63,23.0387781,0,0,0,90,0,9618.6445924,3836.9223286,2.362205,0.0238688,9.800867,NaN,121.506262,NaN,2228.567,23.6399918,0.08652,0.7029912,0.4229049,0.1600622,0.1200242,0.880376,NaN,NaN,NaN,NaN,NaN,NaN,NaN,NaN,1.7891726,90,6.02971,858.3198242,0.001071,334.9529042,0.0136414,4.8956511e5,10.5791,87.8996865,0.005,0.0064551,4.4261036e-4
0.055,0.0684427,1380.0684427,5.3302386,5.3302387,228.2947355,228.2947355,-1.2736159e-5,0,1.2736159e-5,269.9999585,9.8238091e-4,0,43.8,-120.63,18.7552986,0,0,0,90,0,9614.0020723,3832.2798085,2.3617357,0.0238656,9.8008669,NaN,121.4930768,NaN,2289.184,24.2947255,0.1323855,0.6850369,0.4046771,0.1603231,0.1200367,0.8875568,NaN,NaN,NaN,NaN,NaN,NaN,NaN,NaN,1.8109043,90,6.0295551,858.31729,0.001071,334.9528104,0.0168058,6.0312601e5,10.5791,87.8996865,0.0075,0.007173,5.6107784e-4
0.0625,0.1147853,1380.1147853,7.0204601,7.0204602,222.4294332,222.4294332,-2.0104015e-5,0,2.0104015e-5,269.9999568,9.8238091e-4,0,43.8,-120.63,14.7056217,0,0,0,90,0,9606.9705173,3825.2482535,2.3610243,0.0238606,9.8008668,NaN,121.4730822,NaN,2231.2415,23.6971236,0.211856,0.6648023,0.3840146,0.1607267,0.120061,0.8543251,NaN,NaN,NaN,NaN,NaN,NaN,NaN,NaN,1.8435019,90,6.0292539,858.3123605,0.001071,334.9526279,0.0216694,7.7766777e5,10.5791,87.8996865,0.0105,0.0081163,7.3899591e-4
0.073,0.2006105,1380.2006105,9.3127926,9.3127927,214.202231,214.202231,-3.0419015e-5,0,3.0419015e-5,269.9999558,9.8238091e-4,0,43.8,-120.63,11.4612804,0,0,0,90,0,9597.1263404,3815.4040766,2.3600272,0.0238537,9.8008665,NaN,121.4450405,NaN,2150.122,22.8590099,0.335973,0.6451831,0.3637908,0.1612877,0.1201046,0.7904883,NaN,NaN,NaN,NaN,NaN,NaN,NaN,NaN,1.8891384,90,6.028696,858.3032311,0.001071,334.9522898,0.028369,1.0180957e6,10.5791,87.8996865,0.01,0.008877,9.802941e-4
0.083,0.3044417,1380.3044417,11.4527707,11.4527708,213.7929001,213.7929001,-4.0242824e-5,0,4.0242824e-5,269.9999554,9.8238091e-4,0,43.8,-120.63,9.5733851,0,0,0,90,0,9588.1462809,3806.4240171,2.3591162,0.0238474,9.8008662,NaN,121.4194101,NaN,2144.3223614,22.8187033,0.4726232,0.6317152,0.3497377,0.1618212,0.1201563,0.7443261,NaN,NaN,NaN,NaN,NaN,NaN,NaN,NaN,1.9326018,90,6.0280211,858.2921865,0.001071,334.9518808,0.0346752,1.244396e6,10.5791,87.8996865,0.0087315,0.0095638,0.0012056
0.0917315,0.4125869,1380.4125869,13.3179365,13.3179365,213.4329985,213.4329985,-4.8820494e-5,0,4.8820494e-5,269.9999551,9.8238091e-4,0,43.8,-120.63,8.4124106,0,0,0,90,0,9580.3053316,3798.5830677,2.3583197,0.0238419,9.8008659,NaN,121.3969916,NaN,2139.2584004,22.7834479,0.6098197,0.6228245,0.3403222,0.1622923,0.12021,0.7148041,NaN,NaN,NaN,NaN,NaN,NaN,NaN,NaN,1.9705519,90,6.0273182,858.2806829,0.001071,334.9514548,0.0401932,1.4424089e6,10.5791,87.8996865,0.0075087,0.0102982,0.0014019
0.0992402,0.5186006,1380.5186006,14.9193657,14.9193658,213.1213643,213.1213643,-5.6196869e-5,0,5.6196869e-5,269.999955,9.8238091e-4,0,43.8,-120.63,7.6435242,0,0,0,90,0,9573.5625006,3791.8402367,2.357634,0.0238371,9.8008656,NaN,121.3776835,NaN,2134.9036427,22.753084,0.7437433,0.6185152,0.3355518,0.1627008,0.1202626,0.6973173,NaN,NaN,NaN,NaN,NaN,NaN,NaN,NaN,2.0031871,90,6.0266291,858.2694061,0.001071,334.9510372,0.0449412,1.6127833e6,10.5791,87.8996865,0.0067027,0.0109774,0.0015705
0.1059429,0.6233859,1380.6233859,16.3469176,16.3469176,212.8417835,212.8417835,-6.2781471e-5,0,6.2781471e-5,269.9999549,9.8238091e-4,0,43.8,-120.63,7.0294801,0,0,0,90,0,9567.5434381,3785.8211742,2.3570214,0.0238329,9.8008652,NaN,121.3604248,NaN,2131.0163203,22.7259431,0.8731084,0.6151949,0.331813,0.1630675,0.1203143,0.6837662,NaN,NaN,NaN,NaN,NaN,NaN,NaN,NaN,2.0166697,90,6.025948,858.2582599,0.001071,334.9506245,0.0491736,1.7646498e6,10.5791,87.8996865,0.0061174,0.0117183,0.0017207
0.1120602,0.7273668,1380.7273668,17.648164,17.648164,212.5853505,212.5853505,-6.879105e-5,0,6.879105e-5,269.9999548,9.8238091e-4,0,43.8,-120.63,6.5493902,0,0,0,90,0,9562.0500113,3780.3277475,2.3564617,0.023829,9.8008649,NaN,121.3446544,NaN,2127.4684719,22.7011427,1.0003596,0.6126803,0.3287431,0.1635715,0.1203657,0.6735027,NaN,NaN,NaN,NaN,NaN,NaN,NaN,NaN,2.0271488,90,6.0252721,858.2471993,0.001071,334.9502149,0.053035,1.9032035e6,10.5791,87.8996865,0.0056663,0.0123918,0.0018577
0.1177266,0.8307783,1380.8307783,18.8520633,18.8520633,212.3467379,212.3467379,-7.4357527e-5,0,7.4357527e-5,269.9999547,9.8238091e-4,0,43.8,-120.63,6.1636018,0,0,0,90,0,9556.9616295,3775.2393657,2.3559428,0.0238255,9.8008646,NaN,121.3300306,NaN,2124.1822158,22.6781455,1.1261032,0.6106426,0.3261437,0.1640822,0.1204166,0.6654244,NaN,NaN,NaN,NaN,NaN,NaN,NaN,NaN,2.0368552,90,6.0245999,858.2361993,0.0010709,334.9498076,0.0566105,2.0314921e6,10.5791,87.8996865,0.0053045,0.0131408,0.0019844
0.123031,0.9337646,1380.9337646,19.9778534,19.9778534,212.1224184,212.1224184,-7.9568526e-5,0,7.9568526e-5,269.9999547,9.8238091e-4,0,43.8,-120.63,5.8445157,0,0,0,90,0,9552.1981937,3770.4759298,2.3554568,0.0238221,9.8008643,NaN,121.3163265,NaN,2121.1058213,22.6565947,1.250642,0.6089222,0.3238933,0.1645616,0.1204673,0.6588506,NaN,NaN,NaN,NaN,NaN,NaN,NaN,NaN,2.0459418,90,6.0239305,858.2252445,0.0010709,334.9494019,0.059956,2.151528e6,10.5791,87.8996865,0.0050055,0.0139801,0.0021029
0.1280366,1.0364212,1381.0364212,21.0391097,21.0391097,211.9098999,211.910197,-8.4485876e-5,0,8.4485876e-5,269.9999546,9.8238091e-4,0.3548407,43.8,-120.63,5.5747279,0,0,0,90,0,9547.7031864,3765.9809226,2.3549977,0.0238189,9.800864,135.2852093,121.3033822,1.3216462,2118.2027874,22.6362387,1.3742214,0.6074447,0.3219119,0.165015,0.1205178,0.6533817,1.6007501,2.1156568,-4.0030292e-4,0,0,0,0,0,2.0545163,90,6.0232633,858.2143248,0.0010709,334.9489975,0.0631114,2.2647351e6,10.5791,87.8996865,0.0075083,0.0153353,0.0022146
0.1355449,1.2003596,1381.2003596,22.6289945,22.6289949,211.5896214,211.5899606,-1.0209523e-4,0,1.0209523e-4,269.9999555,0.0037382,0.3788298,43.8,-120.63,5.2103134,0,2.5118513e-4,-1.2168791e-8,89.9996661,89.9993147,9540.9606756,3759.2384118,2.3543086,0.0238142,9.8008635,135.6923998,121.2839428,1.3619738,2113.8482365,22.6056687,1.5703507,0.6054606,0.3191653,0.165697,0.1205983,0.6461886,1.4830147,2.0198901,-4.2944261e-4,0,0,0,0,7.3767356e-6,2.0673781,90,6.0221977,858.1968865,0.0010709,334.9483518,0.06784,2.4343832e6,10.5791,87.8996865,0.0112625,0.0163593,0.002382
0.1468073,1.4686272,1381.4686272,25.0092958,25.0092971,211.105772,211.1061699,-1.6891281e-4,0,1.6891281e-4,269.999951,0.0081853,0.4098341,43.8,-120.63,4.7486575,0,6.746099e-4,3.1932208e-8,89.9978083,90.0006526,9530.8469094,3749.1246456,2.3532736,0.0238071,9.8008626,136.2204726,121.2547321,1.4146516,2107.3164103,22.5597329,1.8892521,0.602926,0.3154721,0.1667242,0.1207298,0.6373813,1.336505,1.8901977,-4.5006422e-4,0,0,0,0,4.3623134e-5,2.0866708,90,6.0204539,858.1683505,0.0010709,334.9472951,0.0749238,2.688511e6,10.5791,87.8996865,0.0091927,0.0175312,0.0026326
0.156,1.7074432,1381.7074432,26.948093,26.9480957,210.708108,210.7085325,-2.6173142e-4,0,2.6173142e-4,269.9999347,0.0120288,0.4229482,43.8,-120.63,4.3669769,0,0.0010606,5.8016127e-8,89.9949462,90.0020585,9522.5918464,3740.8695826,2.3524276,0.0238013,9.8008619,136.6671981,121.2308438,1.4591368,2101.985,22.5221669,2.1684539,0.6011864,0.3127748,0.1675651,0.1208464,0.6307759,1.2175864,1.7763094,-4.7241978e-4,0,0,0,0,9.2967886e-5,2.0723392,90,6.0189016,858.1429473,0.0010709,334.9463544,0.0806898,2.895348e6,10.5791,87.8996865,0.013789,0.0188891,0.0028366
0.169789,2.0990786,1382.0990786,29.857196,29.8572014,211.2370993,211.2375274,-4.6799758e-4,0,4.6799758e-4,269.9998901,0.0178939,0.4252811,43.8,-120.63,3.8374721,0,0.0016967,1.1412002e-7,89.9881298,90.0029598,9510.209252,3728.4869881,2.3511565,0.0237926,9.8008607,137.3030359,121.1949336,1.5226345,2104.7391933,22.5810431,2.6228356,0.5990214,0.3091484,0.1688353,0.1210377,0.6223584,1.0559466,1.6074138,-1.5551298e-4,0,0,0,0,1.9407699e-4,2.0268342,90,6.016356,858.1012885,0.0010708,334.9448117,0.0893422,3.205701e6,10.5791,87.8996865,0.0206835,0.0199938,0.0031429
0.1904725,2.76187,1382.76187,34.234466,34.2344762,212.0238575,212.024233,-9.2788783e-4,0,9.2788783e-4,269.9997775,0.0264837,0.3990159,43.8,-120.63,3.2017652,0,0.0027696,2.0903781e-7,89.9715862,90.0033835,9491.6353603,3709.9130964,2.3492453,0.0237795,9.8008587,138.0931881,121.1408925,1.6024327,2108.8704832,22.6696459,3.39331,0.5966449,0.3044364,0.1708461,0.1213624,0.6133009,0.8670461,1.3894767,2.0335027e-4,0,0,0,0,3.9383909e-4,1.9585765,90,6.0120478,858.0307865,0.0010707,334.942201,0.1023727,3.6730221e6,10.5791,87.8996865,0.0310252,0.0206716,0.0036036
0.2214977,3.9262328,1383.9262328,40.8306501,40.8306675,213.1868579,213.1870901,-0.0019297,-1.5613485e-8,0.0019297,269.9995364,0.0376516,0.3146258,43.8,-120.63,2.6195552,0,0.0046419,3.8445421e-7,89.9305185,90.0038726,9463.7745227,3682.0522589,2.346368,0.0237599,9.8008551,138.8479947,121.0594332,1.6814815,2115.067418,22.8032035,4.7671318,0.5949607,0.2985637,0.1744608,0.1219362,0.6063687,0.6990789,1.1744579,-5.2128935e-5,0,0,0,0,7.7850675e-4,1.9553461,90,6.0044795,857.9069317,0.0010706,334.9376146,0.1220396,4.3781696e6,10.5791,87.8996865,0.0465378,0.0215546,0.004298
0.2680355,6.0578799,1386.0578799,50.7917844,50.7918055,214.8929408,214.8929408,-0.0039381,-8.4262953e-8,0.0039381,269.9987741,0.0462049,0.002365,43.8,-120.63,2.0188373,0,0.0081191,1.5026767e-6,89.8246391,90.0062754,9421.9832664,3640.2610026,2.3420283,0.0237306,9.8008485,139.6634499,120.936341,1.7701987,2124.3628203,23.0050238,7.3115728,0.5946245,0.2915641,0.1800663,0.1229941,0.6015742,0.5308029,0.9379085,4.7420789e-4,0,0,0,0,0.0015403,1.9922777,90,5.9906238,857.6801855,0.0010704,334.929218,0.1517606,5.4433165e6,10.5791,87.8996865,0.05,0.0226035,0.0053465
0.3180355,8.8668318,1388.8668318,61.581085,61.5810928,216.6683112,216.6693296,-0.0060036,-3.6426095e-7,0.0060036,269.9965237,0.030829,0.6642888,43.8,-120.6300001,1.5208379,0,0.0124964,2.463717e-6,89.6399779,90.0071577,9377.0829688,3595.360705,2.3373337,0.023699,9.8008399,140.3722713,120.8028687,1.8498173,2134.3497498,23.2238669,10.7321613,0.5970601,0.2855948,0.1870655,0.1243998,0.6011042,0.3950962,0.728033,-1.1215058e-4,0,0,0,0,0.0024832,2.0530901,90,5.9723656,857.3813936,0.0010701,334.9181535,0.1839682,6.5967869e6,10.5791,87.8996865,0.05,0.0237772,0.0064822
0.3680355,12.2174403,1392.2174403,72.4574744,72.4574795,218.3747705,218.3820665,-0.0063284,-1.1869323e-6,0.0063284,269.9892539,0.0272123,1.7851025,43.8,-120.6300001,1.0453523,0,0.0173344,3.5817555e-6,89.3713546,90.0079302,9332.1826713,3550.4604074,2.3326053,0.0236674,9.8008296,141.0745963,120.6681121,1.9289433,2144.3366792,23.4448202,14.9048831,0.6013792,0.2806632,0.1946257,0.1260903,0.6033418,0.268534,0.5144907,2.691908e-4,0,0,0,0,0.0034521,2.0903637,90,5.9505866,857.0249849,0.0010697,334.9049555,0.2164447,7.7588919e6,10.5791,87.8996865,0.0289645,0.0248673,0.0076271
0.397,14.4078678,1394.4078678,78.7964287,78.7964828,219.3258007,219.3428771,-0.004664,-2.0644617e-6,0.004664,269.9746389,0.0922993,2.736952,43.8,-120.6300001,0.6803219,0,0.0197268,4.8779514e-6,89.1776355,90.0076174,9306.1724121,3524.4501483,2.3298506,0.0236491,9.8008228,141.6208062,120.5894542,1.9880096,2150.122,23.5737932,17.6830041,0.604649,0.2781456,0.1993017,0.1272017,0.6054972,0.1732141,0.3405707,1.6109499e-4,0,0,0,0,0.003781,1.9747549,90,5.9363489,856.7919862,0.0010695,334.8963274,0.235367,8.4354564e6,10.5791,87.8996865,0.0434467,0.0260263,0.0082944
0.4404467,18.0384861,1398.0384861,88.3371892,88.3375258,219.8542519,219.8959195,0.0023968,-4.180805e-6,0.0023968,90.0999423,0.2438604,4.2805732,43.8,-120.63,0.3303814,0,0.0222994,7.4496985e-6,88.8474284,90.0069132,9266.6662694,3484.9440056,2.3256444,0.0236213,9.8008117,142.1728419,120.4691387,2.0515642,2150.912316,23.6830232,22.4061979,0.6104799,0.2747224,0.2067057,0.1290519,0.6106848,0.0834638,0.167069,1.4171997e-4,0,0,0,0,0.0038442,2.0430299,90,5.9127498,856.4057925,0.0010691,334.8820264,0.2638744,9.4539136e6,10.5791,87.8996865,0.05,0.0271461,0.0092987
0.4904467,22.7303846,1402.7303846,99.3429352,99.3442421,220.3556898,220.4485218,0.0207963,-8.0208216e-6,0.0207963,90.0220981,0.5095683,6.3969334,43.8,-120.6299997,0.0911724,0,-0.0231238,1.814185e-5,88.4340475,90.0040651,9221.2011948,3439.478931,2.3207702,0.0235894,9.8007972,142.5824761,120.3293993,2.1034943,2151.8218398,23.8098911,28.6800723,0.6183581,0.2711981,0.2157109,0.131449,0.618374,0.022937,0.0517268,-4.0410645e-4,0,0,0,0,-0.0032686,2.0480608,90,5.8822525,855.9067089,0.0010686,334.863545,0.2967652,1.06276e7,10.5791,87.8996865,0.05,0.028241,0.0104574
0.5404467,27.9731466,1407.9731466,110.3707296,110.3742702,220.7364577,220.9023836,0.0551939,-1.2971053e-5,0.0551939,90.013465,0.8840613,8.5603327,43.8,-120.6299993,0.421874,0,-0.020372,2.4842867e-7,88.0369527,90.0020781,9175.7361202,3394.0138563,2.3158597,0.0235574,9.8007811,142.1616455,120.1882751,2.0770548,2152.7313637,23.9380204,35.9287945,0.6275476,0.2680088,0.2254042,0.1341346,0.6278896,0.1074181,0.2255678,4.8316617e-5,0,0,0,0,-0.0020552,2.0854673,90,5.8481745,855.3490293,0.001068,334.8428938,0.3297387,1.1802586e7,10.5791,87.8996865,0.05,0.0347668,0.0116187
0.5904467,33.7677275,1413.7677275,121.4147904,121.4223992,221.0088509,221.2512765,0.1109131,-1.8555189e-5,0.1109131,90.0095853,1.3593,10.3544764,43.8,-120.6299986,0.6122928,0,-0.0138527,3.4433003e-6,87.7237335,90.0015045,9130.2710455,3348.5487817,2.3109122,0.0235254,9.8007633,141.9593952,120.0457455,2.0714096,2153.6408875,24.06743,44.1885565,0.6377095,0.2650743,0.235526,0.1371092,0.6384362,0.1572151,0.3260294,-3.2812366e-4,0,0,0,0,-7.8517401e-4,2.1677982,90,5.8105098,854.732652,0.0010674,334.8200689,0.36278,1.2978148e7,10.5791,87.8996865,0.05,0.0362055,0.0127821
0.6404467,40.1148106,1420.1148106,132.4700493,132.4838034,221.1884298,221.4866648,0.1923939,-2.4216129e-5,0.1923939,90.0072117,1.9089835,11.4900481,43.8,-120.6299976,0.7068894,0,-0.0039487,6.798296e-6,87.5588954,89.9987698,9084.8059709,3303.0837071,2.3059273,0.0234935,9.8007438,141.9048631,119.9017892,2.0798625,2154.5504113,24.1981391,53.5096808,0.6488414,0.2623382,0.2461319,0.1403713,0.6498231,0.1826069,0.3793815,-1.6564952e-4,0,0,0,0,-5.3588423e-5,2.1018137,90,5.7692537,854.0575043,0.0010667,334.7950678,0.3958563,1.4152929e7,10.5791,87.8996865,0.0505533,0.037536,0.013947
0.691,47.0943061,1427.0943061,143.6551932,143.6767745,221.3119149,221.5972981,0.3036492,-2.8395871e-5,0.3036492,90.005358,2.4901777,11.2427249,43.8,-120.6299962,0.5591248,-1.0048663e-8,0.0077161,7.6838839e-6,87.5941357,89.9955203,9038.8377733,3257.1155095,2.3008485,0.0234612,9.8007223,142.2054942,119.7547676,2.1221774,2155.47,24.3316358,64.0477787,0.66115,0.2597279,0.2574586,0.1439635,0.6617795,0.1444147,0.3061492,-2.0321601e-4,0,0,0,0,1.7398157e-4,2.1416754,90,5.723887,853.3150861,0.001066,334.7675755,0.4293422,1.5339998e7,10.5791,87.8996865,0.05,0.0392526,0.015126
0.741,54.5533943,1434.5533943,154.7018817,154.7313002,220.5381763,220.7491582,0.4416605,-2.8972185e-5,0.4416605,90.0037585,3.0171251,9.6490216,43.8,-120.6299945,0.2793408,-5.2763803e-9,0.016663,1.7655375e-5,87.8200685,89.9929163,8993.7115755,3211.9893116,2.2958244,0.0234294,9.8006994,142.7048386,119.6089772,2.1831594,2149.0370103,24.3807955,75.6254487,0.6741028,0.2572732,0.2690324,0.1477973,0.6742648,0.0719044,0.1561401,-7.3180618e-5,0,0,0,0,6.9958554e-4,2.1164617,90,5.6754029,852.5216529,0.0010652,334.7381942,0.4624122,1.6509883e7,10.5791,87.8996865,0.05,0.0405299,0.0162904
0.791,62.5638024,1442.5638024,165.7069211,165.7426228,219.6377664,219.7552528,0.6035852,-2.3899048e-5,0.6035852,90.0022686,3.4399565,7.1848957,43.8,-120.6299925,0.0500965,0,-0.0193896,8.7402035e-5,88.155842,89.9910646,8948.5853776,3166.8631138,2.2907617,0.0233977,9.8006747,143.141959,119.4617163,2.2383986,2142.6040206,24.4304549,88.4406275,0.6878238,0.2549237,0.2810016,0.1518985,0.6878292,0.0128739,0.0295195,4.0261725e-5,0,0,0,0,-8.2562763e-4,2.0404717,90,5.6233353,851.6695751,0.0010643,334.7066412,0.4953518,1.7672511e7,10.5791,87.8996865,0.05,0.0416954,0.01745
0.841,71.1232688,1451.1232688,176.6627371,176.7021075,218.5617594,218.6077611,0.7833615,-1.2486137e-5,0.7833615,90.0009132,3.7298953,4.4844792,43.8,-120.6299902,0.3827982,0,-0.0127356,9.877346e-6,88.4599052,89.9887745,8903.4591798,3121.736916,2.2856597,0.023366,9.8006484,142.778157,119.3129627,2.2180709,2136.1710309,24.4806216,102.6090783,0.7023833,0.2526577,0.2934611,0.1562645,0.702699,0.0997616,0.2218971,-2.6583996e-4,0,0,0,0,-3.1337273e-4,2.2012767,90,5.5676988,850.7590932,0.0010634,334.6729254,0.5281642,1.8827832e7,10.5791,87.8996865,0.0465514,0.0428634,0.018604
0.8875514,79.5835646,1459.5835646,186.8101149,186.850973,217.3722146,217.4000149,0.9612815,2.9945035e-6,0.9612815,89.9998215,3.9073111,3.4766117,43.8,-120.629988,0.4552426,0,9.1794205e-4,5.0365564e-6,88.5636569,89.9925434,8861.4454479,3079.7231841,2.2808739,0.0233364,9.8006224,142.8118155,119.1731072,2.2344725,2130.1817405,24.5277908,116.9543175,0.716479,0.2506114,0.3053109,0.1605567,0.7169332,0.1194633,0.2670652,-1.7531422e-4,0,0,0,0,1.4559956e-6,2.2623542,90,5.5127068,849.8591602,0.0010624,334.6396003,0.5585471,1.9894888e7,10.5791,87.8996865,0.034549,0.0443193,0.0196724
0.9221003,86.1671968,1466.1671968,194.303053,194.3449622,216.3681974,216.4084406,1.0984249,1.6676732e-5,1.0984249,89.9991301,4.0358313,4.1732853,43.8,-120.6299863,0.3406107,0,0.011367,8.0092161e-6,88.4851928,89.9955084,8830.2641814,3048.5419176,2.2772994,0.0233145,9.8006021,143.0923891,119.0684504,2.2708868,2125.7366781,24.5630907,128.3216755,0.7273751,0.2491258,0.3143689,0.1638804,0.7276344,0.0894558,0.2025399,2.5309009e-4,0,0,0,0,2.0638453e-4,2.2585143,90,5.4699132,849.1588505,0.0010617,334.6136674,0.5809834,2.0681072e7,10.5791,87.8996865,0.0420738,0.0454418,0.0204614
0.9641741,94.533375,1474.533375,203.3782001,203.4227132,214.9933528,215.0908141,1.2725139,3.487165e-5,1.2725139,89.9984299,4.2553473,6.4743008,43.8,-120.6299841,0.0665794,0,0.0186418,5.0213238e-5,88.2472435,90.000272,8792.2915924,3010.5693286,2.2729201,0.0232878,9.8005764,143.6447136,118.9399968,2.335238,2120.323475,24.6064194,143.0436403,0.7409935,0.2473492,0.3255617,0.1680826,0.7410037,0.0174455,0.0404708,7.3020973e-5,0,0,0,0,5.0668142e-4,2.2047734,90,5.4155331,848.2689289,0.0010608,334.580713,0.6081665,2.1631433e7,10.5791,87.8996865,0.0178259,0.0465543,0.0214172
0.982,98.192897,1478.192897,207.2050122,207.2513368,214.3562691,214.4948353,1.3494633,4.2387665e-5,1.3494633,89.9982003,4.3817296,7.7087157,43.8,-120.6299832,0.0664642,0,-0.018614,4.7559618e-5,88.1265783,90.0025823,8776.2033019,2994.4810381,2.2710558,0.0232765,9.8005651,143.7159746,118.8852381,2.3471502,2118.03,24.6248908,149.6135741,0.7469531,0.2466062,0.3304342,0.1699128,0.7469634,0.0174541,0.0418838,3.8248135e-4,0,0,0,0,-4.8668729e-4,2.1551372,90,5.3917462,847.8796607,0.0010604,334.5662982,0.6196323,2.2031556e7,10.5791,87.8996865,0.0267388,0.0478528,0.0218204
1.0087388,103.8097715,1483.8097715,212.9170984,212.9670257,212.8866417,213.0930331,1.4695969,5.2970434e-5,1.4695969,89.9979348,4.61121,9.3764877,43.8,-120.6299817,0.2311728,0,-0.0146669,8.7658028e-6,87.9629868,90.0051654,8752.9467603,2971.2244965,2.2683516,0.0232601,9.8005478,143.5899257,118.8057255,2.3427513,2110.6788206,24.6046682,159.8129656,0.7559584,0.2455024,0.3377465,0.1727095,0.756083,0.0611845,0.1439023,3.1370978e-4,0,0,0,0,-2.8617142e-4,2.1017051,90,5.3552365,847.2821862,0.0010598,334.5441733,0.6367557,2.2628245e7,10.5791,87.8996865,0.0401082,0.049167,0.0224224
1.0488471,112.5201317,1492.5201317,221.4104043,221.4672606,210.6215162,210.8889348,1.6625553,6.5717146e-5,1.6625553,89.9977352,5.0180055,10.6169558,43.8,-120.6299793,0.3289464,7.0020317e-9,-0.0025589,4.3906561e-6,87.8332041,90.0062017,8718.0619479,2936.3396841,2.2642744,0.0232356,9.8005211,143.6279695,118.6856611,2.3576966,2099.6520514,24.5741335,175.8612364,0.7698031,0.2438707,0.3489201,0.1770123,0.7700591,0.0877542,0.2073579,4.4426443e-4,0,0,0,0,-8.0552131e-6,2.0865083,90,5.2986191,846.3556536,0.0010589,334.5098632,0.6622357,2.3514125e7,10.5791,87.8996865,0.0315537,0.0504483,0.0233178
1.0804008,119.6110035,1499.6110035,228.0277729,228.0905508,208.8117751,209.0642443,1.8261786,7.3143639e-5,1.8261786,89.9977051,5.3510893,10.271359,43.8,-120.6299772,0.2891616,0,0.008579,5.7229401e-6,87.8680662,90.005016,8690.6175826,2908.8953188,2.261049,0.0232163,9.8004992,143.8323412,118.5905274,2.3860077,2090.9771393,24.5499406,189.0831789,0.7809596,0.2426064,0.3578716,0.1804815,0.7811606,0.0773971,0.1847861,2.4259236e-4,0,0,0,0,8.5359888e-5,1.9853709,90,5.2525285,845.6013881,0.0010581,334.4819323,0.682087,2.4202549e7,10.5791,87.8996865,0.0333593,0.051645,0.0240156
1.1137601,127.3336725,1507.3336725,234.961421,235.029739,206.8782322,207.0465322,2.0101241,7.8882193e-5,2.0101241,89.9977516,5.6664671,8.3464702,43.8,-120.629975,0.114959,0,0.0171196,-1.6719813e-5,88.0286446,90.0031272,8661.6028089,2879.8805451,2.2576218,0.0231959,9.8004755,144.2442436,118.4892944,2.4345123,2081.8058356,24.5241978,203.6322789,0.7928962,0.2412851,0.3673828,0.1842283,0.7929287,0.0307769,0.0743938,4.1136444e-4,0,0,0,0,3.2014117e-4,1.9490023,90,5.2023311,844.8177264,0.0010573,334.4515127,0.7028965,2.4923593e7,10.5791,87.8996865,0.05,0.0542393,0.0247466
1.1637601,139.3390939,1519.3390939,245.2297829,245.3027215,203.8105119,203.8594433,2.3020482,8.5145248e-5,2.3020482,89.9978808,5.9815347,4.4663024,43.8,-120.6299713,0.1981532,0,-0.0132027,-1.1226444e-5,88.3295195,90.0055786,8618.1144803,2836.3922165,2.2524515,0.0231653,9.8004386,144.3800825,118.3362864,2.4618159,2068.0595739,24.4852913,226.7843463,0.8115063,0.2393334,0.3821873,0.1899855,0.8116047,0.0535678,0.1320266,2.4185805e-4,0,0,0,0,-1.7479189e-4,2.0191793,90,5.1242959,843.602588,0.0010561,334.4042233,0.7337236,2.5988606e7,10.5791,87.8996865,0.0402916,0.0565311,0.0258284
1.2040517,149.3845298,1529.3845298,253.3882907,253.4624272,201.1268233,201.1540176,2.5461675,8.8901041e-5,2.5461675,89.9979995,6.129937,3.3075282,43.8,-120.6299683,0.2620307,1.5583706e-8,0.0012156,-1.1491063e-5,88.4209465,90.0006946,8583.0701513,2801.3478874,2.2482555,0.0231407,9.8004077,144.5036339,118.2118594,2.4852563,2056.982383,24.4536543,246.4725218,0.8268311,0.237789,0.3943071,0.194735,0.8270061,0.0714062,0.1778658,3.4266807e-4,0,0,0,0,1.3878032e-6,2.0149876,90,5.0590006,842.5858311,0.0010551,334.3646543,0.7582116,2.6831693e7,10.5791,87.8996865,0.0279887,0.0579083,0.0266874
1.2320404,156.5550474,1536.5550474,258.9898146,259.0647345,199.1291509,199.1706034,2.7190856,9.099524e-5,2.7190856,89.9980826,6.2299733,4.0633142,43.8,-120.6299661,0.1921591,1.6323323e-8,0.0114571,-8.0688297e-6,88.354968,89.9973054,8558.7265542,2777.0042904,2.2453249,0.0231236,9.8003856,144.7558435,118.1248262,2.5173235,2049.2875953,24.4315261,260.843142,0.8382647,0.2371381,0.4030379,0.1980887,0.8383603,0.0525109,0.13194,3.5602796e-4,0,0,0,0,1.1801549e-4,2.0773911,90,5.0123922,841.8600614,0.0010543,334.3364097,0.7750368,2.7409376e7,10.5791,87.8996865,0.0360946,0.0593131,0.0272772
1.268135,166.0323194,1546.0323194,266.1287639,266.2061946,196.4131953,196.527579,2.9471093,9.5601905e-5,2.9471093,89.9981414,6.4202047,6.7041818,43.8,-120.6299633,0.0086821,1.7566187e-8,-0.0173461,-3.4549073e-4,88.1555409,89.99344,8527.3326616,2745.6103978,2.2415264,0.0231015,9.8003565,145.2187013,118.0118532,2.5717545,2039.3642739,24.4028039,279.9702958,0.8529911,0.2362876,0.4142323,0.2024712,0.8529913,0.0023758,0.0063114,-4.7497813e-4,0,0,0,0,-2.5619989e-4,2.1095822,90,4.9507899,840.9008117,0.0010534,334.2990787,0.7964887,2.8143936e7,10.5791,87.8996865,0.05,0.0605667,0.0280292
1.318135,179.582621,1559.582621,275.8503727,275.9352964,192.4321656,192.6774335,3.2782749,1.0962314e-4,3.2782749,89.9980841,6.8454143,9.7187982,43.8,-120.6299592,0.2119724,9.4637881e-9,-0.0050889,-7.9500339e-6,87.9314723,89.9907334,8483.8443331,2702.1220693,2.2362282,0.0230709,9.8003148,145.2156698,117.8539762,2.5863914,2025.6180122,24.3626673,308.0360198,0.8745237,0.235091,0.4307957,0.208637,0.874645,0.058824,0.1525822,2.2496904e-4,0,0,0,0,-2.052335e-5,2.0960963,90,4.862713,839.529307,0.001052,334.2457041,0.8257257,2.914129e7,10.5791,87.8996865,0.027462,0.0617524,0.029054
1.345597,187.230312,1567.230312,281.1047645,281.1947167,190.2362179,190.4695333,3.4699459,1.2107271e-4,3.4699459,89.9980008,7.1119691,9.4246752,43.8,-120.6299568,0.1866566,0,0.0060588,-9.5688067e-6,87.9370977,89.9935179,8459.9587966,2678.2365328,2.2333001,0.0230541,9.8002913,145.4116347,117.7665733,2.6131771,2018.0680132,24.340448,323.9787116,0.8863883,0.2344258,0.439898,0.2120645,0.8864837,0.0520254,0.1363923,-1.7773812e-4,0,0,0,0,2.8013714e-5,2.0965665,90,4.813003,838.7552398,0.0010512,334.2155798,0.8415393,2.9678813e7,10.5791,87.8996865,0.0295665,0.0629158,0.0296081
1.3751635,195.6243997,1575.6243997,286.6944075,286.7889611,187.8482952,187.9942257,3.6840887,1.3589617e-4,3.6840887,89.9978865,7.363758,7.4058673,43.8,-120.6299541,0.0559034,7.5633592e-9,0.0137478,-3.530878e-5,88.0491443,89.9990248,8434.2428538,2652.52059,2.2301331,0.023036,9.8002654,145.7707475,117.6719191,2.6560698,2009.9394397,24.3163862,341.7481146,0.8997042,0.2337041,0.4502168,0.2157832,0.8997129,0.0156166,0.0409247,4.7393902e-4,0,0,0,0,1.3866175e-4,2.1215901,90,4.7584414,837.9056254,0.0010503,334.1825155,0.8583671,3.0249244e7,10.5791,87.8996865,0.0348365,0.0640664,0.0301974
1.41,205.725237,1585.725237,293.1878113,293.2854934,184.9217868,184.976469,3.9444592,1.529695e-4,3.9444592,89.997778,7.5688797,4.4974244,43.8,-120.6299509,0.1153209,0,-0.0109487,-3.0094614e-5,88.2166309,90.0006328,8403.9432093,2622.2209455,2.226382,0.0230147,9.8002344,145.8946599,117.55965,2.6783951,2000.362,24.2878474,363.5308195,0.9159958,0.2328478,0.4629525,0.2201955,0.9160336,0.0324806,0.0867078,-2.6872575e-4,0,0,0,0,-8.4093445e-5,2.1504507,90,4.692786,836.883261,0.0010493,334.1427283,0.8779149,3.0909745e7,10.5791,87.8996865,0.0426972,0.0651985,0.0308816
1.4526972,218.4108203,1598.4108203,300.9936001,301.0927796,180.6752004,180.7104052,4.2710692,1.7343151e-4,4.2710692,89.9976734,7.727523,3.5668629,43.8,-120.6299468,0.1519379,1.1798413e-8,0.0043329,-2.8803824e-5,88.2691555,89.9918189,8368.7840303,2587.0617665,2.2220026,0.02299,9.8001954,146.1008807,117.4283559,2.7102991,1985.1906164,24.2050019,390.9540376,0.9358107,0.2316825,0.4784968,0.2256313,0.9358776,0.0431983,0.1166382,6.0663022e-5,0,0,0,0,1.2496055e-5,2.1669142,90,4.6103297,835.5992795,0.001048,334.0927598,0.9014149,3.1700527e7,10.5791,87.8996865,0.0300944,0.0740278,0.0317035
1.4827916,227.5503846,1607.5503846,306.3837156,306.484446,177.5215135,177.5995558,4.505447,1.9133974e-4,4.505447,89.9975667,7.8571302,5.264451,43.8,-120.6299439,0.0458697,0,0.0121678,-8.913371e-5,88.1729802,89.9865233,8344.002671,2562.2804072,2.2188984,0.0229726,9.8001672,146.4306503,117.3351507,2.7502812,1974.4973205,24.1461908,410.863346,0.9500887,0.2296785,0.4909394,0.2294708,0.9500949,0.0130867,0.0356628,-3.5491258e-4,0,0,0,0,9.5111767e-5,2.1615308,90,4.5509225,834.6742111,0.0010471,334.056759,0.9176509,3.2244636e7,10.5791,87.8996865,0.0451416,0.0755861,0.0322712
1.5279332,241.5602552,1621.5602552,314.2877018,314.3938661,172.6546008,172.8472439,4.866793,2.2842633e-4,4.866793,89.9973108,8.1696743,8.1583427,43.8,-120.6299394,0.1156985,1.7628841e-8,-0.0062443,-2.5314155e-5,88.0019145,89.984873,8306.8306321,2525.1083682,2.2142147,0.0229465,9.8001242,146.5956003,117.1943002,2.7791873,1958.4573765,24.057317,441.3787921,0.9712497,0.2267367,0.5092819,0.2352312,0.97129,0.0333595,0.0925623,7.9441124e-5,0,0,0,0,-2.380371e-5,2.1596058,90,4.4598583,833.2561907,0.0010456,334.0015742,0.9414848,3.303983e7,10.5791,87.8996865,0.0347388,0.0768984,0.0331043
1.562672,252.5816511,1632.5816511,320.2198572,320.3314694,168.8289803,169.0098605,5.1556216,2.6702806e-4,5.1556216,89.9970324,8.4553703,7.8171829,43.8,-120.6299358,0.0976066,0,0.0054843,-1.6451339e-5,87.9998223,89.9919286,8278.2248259,2496.5025621,2.2105877,0.0229263,9.8000903,146.8095596,117.0850471,2.8097392,1946.1138102,23.9883812,466.007434,0.9888612,0.2245265,0.5246787,0.2396561,0.9888904,0.0283081,0.079962,-1.7700463e-4,0,0,0,0,1.7687759e-5,2.1818019,90,4.3882193,832.1406513,0.0010445,333.9581609,0.9593911,3.3634295e7,10.5791,87.8996865,0.0387139,0.0780212,0.0337298
1.6013859,265.1040617,1645.1040617,326.6719648,326.787932,164.477954,164.5555208,5.4881277,3.1351286e-4,5.4881277,89.9967269,8.7051676,5.0519393,43.8,-120.6299316,0.0370962,0,-0.0089087,-3.1716532e-6,88.1172859,89.9933645,8246.3456619,2464.6233981,2.2065222,0.0229039,9.8000517,147.0851847,116.9623993,2.8473864,1932.3577716,23.9109942,494.5913582,1.0097147,0.2221214,0.5430274,0.2445658,1.009719,0.0108101,0.0305442,-4.7771267e-4,0,0,0,0,-4.4845612e-5,2.2447319,90,4.3068236,830.8731854,0.0010432,333.9088351,0.9788763,3.4278047e7,10.5791,87.8996865,0.05,0.0791495,0.0344098
1.6513859,281.6408435,1661.6408435,334.7505031,334.8690864,158.6586119,158.7087417,5.928506,3.7363687e-4,5.928506,89.996389,8.9109862,3.9886787,43.8,-120.6299261,0.0747019,0,0.0031817,9.3946934e-6,88.1649633,89.9965706,8205.1729456,2423.4506818,2.2012345,0.022875,9.8000009,147.2460405,116.8025862,2.8776979,1914.5915128,23.8101579,532.0033579,1.0359879,0.2200676,0.566736,0.2491843,1.0360059,0.0219313,0.0629851,-4.3228786e-4,0,0,0,0,5.4476394e-6,2.2507923,90,4.1993345,829.1994017,0.0010415,333.8436967,1.0032735,3.5079064e7,10.5791,87.8996865,0.0446141,0.0802913,0.0352607
1.696,296.7317721,1676.7317721,341.7240231,341.8461641,153.9713461,154.0923394,6.3307602,4.2416849e-4,6.3307602,89.9961611,9.1373932,6.1052158,43.8,-120.6299211,0.032284,5.2347635e-9,-0.0059611,2.752392e-5,88.0699551,89.9968811,8168.435272,2386.7130082,2.1964807,0.0228491,9.7999545,147.4585804,116.6586279,2.9113963,1898.739,23.7193258,560.0453158,1.0481277,0.2184007,0.5856695,0.2440575,1.0481311,0.0095083,0.0280861,4.9709968e-4,0,0,0,0,-1.8349506e-5,2.1853917,90,4.1012435,827.6719611,0.00104,333.7842535,1.024349,3.5766231e7,10.5791,87.8996865,0.05,0.0814533,0.0359955
1.746,314.0085638,1694.0085638,349.311341,349.4395622,149.5760676,149.7098648,6.7960228,4.7944981e-4,6.7960229,89.9959579,9.4654478,6.3280036,43.8,-120.6299153,0.0478673,2.8106954e-8,0.0040151,1.3877466e-5,88.0614043,89.9893974,8128.956908,2347.2346442,2.1913341,0.0228214,9.7999013,147.5676324,116.5024795,2.9364646,1886.4306318,23.6801427,589.8534138,1.0582913,0.2166319,0.6029508,0.2387086,1.0582988,0.0141423,0.0413655,1.095576e-4,0,0,0,0,7.9669037e-6,2.0658167,90,3.9889443,825.9232767,0.0010382,333.7162003,1.0473019,3.6509392e7,10.5791,87.8996865,0.05,0.0825218,0.0367954
1.796,331.6593427,1711.6593427,356.6848963,356.8172187,145.3907917,145.4493825,7.2759985,5.4538902e-4,7.2759985,89.9957053,9.7165992,4.12802,43.8,-120.6299093,0.0404483,2.44456e-8,-0.0028303,9.6743296e-6,88.146048,89.9869511,8089.4785439,2307.7562801,2.1861475,0.0227936,9.799847,147.6627792,116.3448071,2.9603626,1874.1222636,23.6405783,618.2696398,1.0657483,0.2149594,0.6170641,0.2337247,1.0657537,0.0119556,0.0356553,4.0286169e-4,0,0,0,0,-3.7967423e-6,2.0809564,90,3.8742143,824.1367389,0.0010364,333.6466738,1.0696344,3.7227049e7,10.5791,87.8996865,0.05,0.083493,0.0375724
1.846,349.6735853,1729.6735853,363.8500047,363.9854311,141.2446787,141.3222702,7.7668163,6.2716287e-4,7.7668163,89.9953734,9.9281483,4.6823923,43.8,-120.6299032,0.0108812,3.582872e-8,0.0036621,7.7914403e-5,88.1188332,89.9976731,8050.0001799,2268.2779161,2.1809203,0.0227659,9.7997916,147.7420143,116.1855882,2.9829027,1861.8138954,23.6006267,645.3053109,1.0708981,0.2133811,0.6284433,0.2290737,1.0708985,0.0032089,0.0100166,-3.0232536e-4,0,0,0,0,6.108813e-6,2.0914377,90,3.7571217,822.3134128,0.0010345,333.5757157,1.0913519,3.7919448e7,10.5791,87.8996865,0.05,0.0845239,0.0383272
1.896,368.0409233,1748.0409233,370.8098912,370.9500279,137.1918624,137.3028123,8.269842,6.966093e-4,8.269842,89.9951737,10.195479,5.5186195,43.8,-120.629897,0.0276506,3.6544822e-8,1.6570126e-4,-5.5547334e-6,88.0815813,90.0041714,8010.5218158,2228.799552,2.1756518,0.0227381,9.7997351,147.7111203,116.0248,2.9951811,1849.5055272,23.5602822,671.1871457,1.0743953,0.2119673,0.6377026,0.2247255,1.0743979,0.0081269,0.0241114,-4.3812495e-4,0,0,0,0,1.2041476e-8,2.0457531,90,3.637734,820.4543479,0.0010326,333.5033668,1.1124682,3.8587128e7,10.5791,87.8996865,0.039,0.0860479,0.0390608
1.935,382.6060611,1762.6060611,376.1004716,376.244095,134.1467166,134.2266927,8.6714773,7.4547517e-4,8.6714773,89.9950744,10.3949159,4.6328666,43.8,-120.629892,0.003697,3.8710786e-8,-0.0024156,-1.0816724e-4,88.1063057,89.9993389,7979.7286919,2198.006428,2.1715135,0.0227165,9.7996904,147.7061893,115.8982807,3.0066743,1839.905,23.5285368,690.638239,1.0762078,0.2109393,0.6437432,0.2215254,1.0762079,0.0010812,0.0036314,3.9827724e-4,0,0,0,0,-2.4875866e-6,2.064457,90,3.5430606,818.9801257,0.0010311,333.4459947,1.1285389,3.9091398e7,10.5791,87.8996865,0.05,0.0867596,0.0396184
1.985,401.5773467,1781.5773467,382.7224465,382.8695511,130.7419651,130.8184056,9.1965929,8.0898387e-4,9.196593,89.9949599,10.6123565,4.4714443,43.8,-120.6298854,0.0041402,4.0352597e-8,1.7213196e-4,-2.3193887e-5,88.1204146,89.9950459,7941.0974986,2159.3752348,2.1662852,0.0226893,9.799632,147.6166248,115.7381696,3.0133428,1831.3474,23.5331705,714.7093561,1.0775752,0.2096554,0.6502744,0.2176454,1.0775752,0.0012017,0.0033476,-1.9097648e-4,0,0,0,0,1.2198021e-8,1.9750263,90,3.4197472,817.0599317,0.0010292,333.3712668,1.1486574,3.9717731e7,10.5791,87.8996865,0.05,0.0876293,0.0403162
2.035,420.8754811,1800.8754811,389.1749607,389.3260317,127.3806941,127.4647523,9.7330198,8.7381976e-4,9.7330199,89.994856,10.8447653,4.6283752,43.8,-120.6298787,0.0072992,3.8929067e-8,0.0010246,-3.5040257e-5,88.1264102,89.9951301,7902.4663054,2120.7440416,2.1610159,0.0226621,9.7995727,147.4785428,115.5764931,3.0155731,1822.7898,23.5378505,738.0914923,1.0783443,0.2084067,0.6559474,0.2139902,1.0783445,0.0020987,0.0063626,9.9930155e-5,0,0,0,0,4.1799834e-7,1.8362843,90,3.2943094,815.1066555,0.0010272,333.2952515,1.168278,4.0323083e7,10.5791,87.8996865,0.025,0.0883676,0.0409962
2.06,430.644489,1810.644489,392.3387794,392.491781,125.726995,125.8028697,10.0055699,9.0928989e-4,10.0055699,89.9947931,10.9581153,4.3686107,43.8,-120.6298753,4.0068553e-4,3.9288814e-8,0.0010473,-0.0012671,88.139074,90.0032077,7883.1507088,2101.428445,2.1583656,0.0226486,9.7995426,147.4047475,115.4950607,3.016295,1818.511,23.5402081,749.5603491,1.0785776,0.2077952,0.6585417,0.2122407,1.0785776,1.1455088e-4,2.1129437e-4,-4.6193193e-4,0,0,0,0,4.2965958e-7,1.7874805,90,3.2308108,814.1178775,0.0010262,333.2567714,1.1779078,4.0618124e7,10.5791,87.8996865,0.0375,0.0891733,0.0413296
2.0975,445.4409193,1825.4409193,396.6797584,396.8350836,105.8256427,105.8802128,10.4192959,9.5729494e-4,10.4192959,89.9947358,11.1019303,3.3989438,43.8,-120.6298702,0.0111495,4.0425112e-8,-4.0966558e-4,-4.5224259e-5,88.1541673,90.0003249,7855.6598735,2073.9376096,2.1545755,0.0226292,9.7994971,147.2552562,115.3784718,3.0131849,1673.9127442,21.7443463,765.1924974,1.0787183,0.2069575,0.661879,0.2098818,1.0787187,0.0031615,0.009657,2.2585969e-4,0,0,0,0,-6.4317082e-8,1.7591345,90,3.134634,812.6202449,0.0010246,333.1984882,1.1911464,4.1017412e7,10.5791,87.8996865,0.0055,0.0900609,0.041787
2.103,447.624244,1827.624244,397.2538164,397.4094322,102.9235211,102.9763041,10.4804074,9.6372932e-4,10.4804075,89.9947313,11.1203506,3.2966662,43.8,-120.6298694,0.0114248,4.0420721e-8,-1.145046e-4,-4.3517734e-5,88.154689,89.9977637,7851.6278843,2069.9056204,2.1540178,0.0226264,9.7994904,147.2352803,115.3613034,3.0129195,1652.705,21.4798943,767.2515845,1.0787355,0.2068469,0.6623155,0.2095732,1.0787359,0.0032357,0.0098356,-2.950267e-4,0,0,0,0,-5.0102254e-9,1.7576229,90,3.1204424,812.3992579,0.0010244,333.1898881,1.1929008,4.1069365e7,10.5791,87.8996865,0.00825,0.0908404,0.0418475
2.11125,450.9048323,1830.9048323,398.009053,398.1650495,80.1742503,80.2154129,10.5722541,9.7333246e-4,10.5722542,89.9947251,11.144522,2.5694463,43.8,-120.6298683,0.0111911,4.0435924e-8,3.4358217e-4,-3.4776443e-5,88.154351,89.994363,7846.3533722,2064.6311084,2.1532876,0.0226227,9.7994803,147.2091217,115.3388177,3.0125723,1476.2025962,19.198843,769.9340476,1.0787602,0.2067017,0.6628912,0.2091674,1.0787607,0.0031644,0.0097213,-3.4670428e-4,0,0,0,0,4.4938944e-8,1.7586626,90,3.0991186,812.0672105,0.0010241,333.1769659,1.1952151,4.1136303e7,10.5791,87.8996865,0.00475,0.0914965,0.0419271
2.116,452.7962306,1832.7962306,398.3588302,398.5150044,67.1037226,67.1387257,10.6252181,9.7890266e-4,10.6252181,89.9947213,11.1557681,2.1676963,43.8,-120.6298676,0.0104643,4.0437347e-8,5.8980466e-4,-4.0163933e-5,88.1535514,89.9925018,7843.316532,2061.5942681,2.1528668,0.0226206,9.7994745,147.1975606,115.3258577,3.0127046,1374.58,17.8841166,771.1494497,1.0787729,0.2066347,0.6631592,0.208979,1.0787732,0.0029566,0.008758,2.8826515e-4,0,0,0,0,1.3219499e-7,1.7592613,90,3.0868245,811.8757711,0.0010239,333.1695156,1.1962923,4.1166024e7,10.5791,87.8996865,0.007125,0.092198,0.0419639
2.123125,455.636041,1835.636041,398.7529408,398.9093215,43.5341033,43.5584384,10.7047519,9.8740976e-4,10.7047519,89.994715,11.1686634,1.45582,43.8,-120.6298666,0.008663,4.0428856e-8,9.2024011e-4,-5.6674983e-5,88.1516029,89.9895048,7839.8397254,2058.1174615,2.1523847,0.0226181,9.7994658,147.1855973,115.3110077,3.0129774,1190.7625441,15.4994248,772.4655114,1.0787887,0.2065597,0.6634636,0.2087655,1.078789,0.0024454,0.0078358,3.3984495e-4,0,0,0,0,3.2117516e-7,1.7601592,90,3.0683657,811.5883374,0.0010236,333.1583296,1.1975162,4.1197085e7,10.5791,87.8996865,0.009875,0.09287,0.0420055
2.133,459.5753192,1839.5753192,399.0219551,399.1785001,10.9696388,10.9810174,10.8150978,9.9970765e-4,10.8150978,89.9947038,11.1782955,0.4997683,43.8,-120.6298652,0.0050453,4.0453207e-8,0.0012548,-1.1312403e-4,88.147669,89.9851347,7835.0209934,2053.2987296,2.151716,0.0226147,9.7994536,147.1803115,115.2904044,3.0144253,935.998,12.1908193,773.2103555,1.0788032,0.2065098,0.6636785,0.208615,1.0788033,0.0014232,0.0045572,-2.9358021e-4,0,0,0,0,5.9633636e-7,1.7614038,90,3.0427604,811.1896202,0.0010232,333.1428128,1.1983801,4.121146e7,10.5791,87.8996865,0.0148125,0.0939916,0.0420338
2.1478125,465.4861122,1845.4861122,398.9975836,399.1542108,-14.2343282,14.2350998,10.9807075,0.0010198,10.9807075,89.9946788,11.1808898,0.148221,43.8,-120.6298632,0.0015235,4.0436797e-8,-0.0013504,-3.4416767e-4,88.1404022,89.9821073,7830.4197738,2048.69751,2.1510768,0.0226115,9.7994355,147.185106,115.2707074,3.0167404,737.9341375,9.6168203,772.6606001,1.0788127,0.2065184,0.6636813,0.208613,1.0788127,4.296972e-4,0.0011254,1.5689551e-4,0,0,0,0,-6.907829e-7,1.7632706,90,3.0043403,810.5913545,0.0010226,333.1195302,1.1983911,4.1188807e7,10.5791,87.8996865,0.0151875,0.0948096,0.0420312
2.163,471.5432576,1851.5432576,398.5861871,398.7427653,-39.9139019,39.9230186,11.1504738,0.0010428,11.1504739,89.9946416,11.1733756,0.8531409,43.8,-120.6298611,0.0066053,4.0515007e-8,-0.0010784,-7.6729e-5,88.1334553,89.9859804,7825.7020677,2043.9798039,2.1504208,0.0226082,9.7994168,147.1917309,115.2504877,3.0192779,534.856,6.9745041,770.5955049,1.0788114,0.2066027,0.6633955,0.2088132,1.0788115,0.0018648,0.0059815,-3.0771624e-4,0,0,0,0,-4.4145499e-7,1.7701298,90,2.9649688,809.9782756,0.0010219,333.0956711,1.1972425,4.1125739e7,10.5791,87.8996865,0.0227812,0.0957045,0.0419879
2.1857812,480.611789,1860.611789,397.4923247,397.6486441,-56.0894757,56.1053418,11.4047588,0.00108,11.4047588,89.9945744,11.148809,1.334202,43.8,-120.6298579,0.0085781,4.0375416e-8,-1.622807e-4,-1.5074089e-5,88.12824,89.9925879,7821.9707919,2040.2485281,2.1499015,0.0226055,9.7993889,147.2257732,115.2344785,3.0240091,403.4524099,5.2635303,765.6599286,1.0787978,0.2068222,0.6626106,0.209365,1.078798,0.0024273,0.007346,4.3005274e-4,0,0,0,0,-1.0051264e-8,1.7816667,90,2.9060234,809.0603969,0.001021,333.0599502,1.1940871,4.0982108e7,10.5791,87.8996865,0.0282188,0.0964107,0.0418727
2.214,491.8035569,1871.8035569,395.6295107,395.785214,-75.8989077,75.9247689,11.718729,0.001126,11.718729,89.9944946,11.1007178,1.9814999,43.8,-120.629854,0.0084904,4.2545147e-8,7.5852437e-4,-2.9526528e-5,88.131305,89.9981338,7817.3489237,2035.6266598,2.1492577,0.0226023,9.7993545,147.2861643,115.214627,3.0315941,240.685,3.1418978,757.6188388,1.0787741,0.2071939,0.6612569,0.2103233,1.0787744,0.0024114,0.0072588,1.2452542e-4,0,0,0,0,2.2167034e-7,1.7485927,90,2.8332769,807.9276131,0.0010198,333.0158658,1.1886464,4.0752059e7,10.5791,87.8996865,0.03,0.0971497,0.0416765
2.244,503.6360161,1883.6360161,393.1256489,393.2804431,-90.990642,91.0265325,12.0507826,0.0011732,12.0507826,89.9944219,11.0331804,2.5559135,43.8,-120.6298498,0.0045159,4.2273985e-8,0.0018086,-1.9592352e-4,88.145854,90.0059267,7815.1123812,2033.3901174,2.148946,0.0226007,9.7993181,147.3669461,115.2050123,3.0401389,112.32,1.4666484,747.1338545,1.078751,0.2076922,0.6594244,0.2116345,1.0787511,0.0012885,0.0037408,-3.1339379e-4,0,0,0,0,1.2763674e-6,1.6622899,90,2.7563659,806.7299812,0.0010186,332.9692577,1.181282,4.0454023e7,10.5791,87.8996865,0.045,0.0978199,0.0414128
2.289,521.2313017,1901.2313017,388.8152617,388.9679796,-100.5563191,100.6103446,12.544349,0.0012316,12.5443491,89.9943745,10.8986872,3.2966849,43.8,-120.6298437,0.0140659,3.851262e-8,-2.9801936e-4,-3.8499521e-5,88.1662785,89.9997111,7813.9941037,2032.2718399,2.1487901,0.0225999,9.799264,147.4667754,115.2002029,3.05003,19.7489423,0.2579154,729.3659771,1.0785117,0.2085488,0.6560266,0.2139363,1.0785124,0.0040443,0.0121907,3.1611762e-4,0,0,0,0,-3.5428626e-8,1.644937,90,2.6419965,804.9490602,0.0010168,332.8999499,1.168572,3.995169e7,10.5791,87.8996865,0.007,0.0985067,0.0409587
2.296,523.9505329,1903.9505329,388.1062041,388.2585486,-102.0310499,102.0858811,12.6205586,0.0012402,12.6205587,89.9943695,10.8754237,3.3454406,43.8,-120.6298427,0.0141806,3.8493506e-8,1.5900359e-4,-4.6751752e-5,88.1664538,89.9964451,7813.8201494,2032.0978856,2.1487658,0.0225998,9.7992557,147.4832556,115.1994546,3.0516585,5.349,0.069858,726.4799034,1.0784726,0.2086897,0.6554626,0.2143203,1.0784733,0.0040819,0.0122875,1.1002799e-4,0,0,0,0,1.0121962e-8,1.6449204,90,2.6243215,804.673831,0.0010165,332.8892389,1.1664784,3.9869762e7,10.5791,87.8996865,0.0105,0.099314,0.0408839
2.3065,528.0200236,1908.0200236,387.0348889,387.1866752,-102.0296466,102.0829806,12.7345667,0.0012531,12.7345668,89.9943621,10.8404907,3.2994152,43.8,-120.6298413,0.0122648,3.8618273e-8,8.2097597e-4,-4.7026935e-5,88.164579,89.9909335,7813.808288,2032.0860241,2.1487641,0.0225998,9.7992431,147.5100066,115.1994036,3.054192,1.0286538,0.0134343,722.1362281,1.0784162,0.2089027,0.6546102,0.2149032,1.0784167,0.0035361,0.0103943,2.5985159e-4,0,0,0,0,2.7133929e-7,1.6450132,90,2.5978698,804.2619342,0.0010161,332.8732091,1.1633145,3.9746166e7,10.5791,87.8996865,0.0025,0.100007,0.0407711
2.309,528.987292,1908.987292,386.7798145,386.9314705,-102.029894,102.0826265,12.7616577,0.0012562,12.7616577,89.9943602,10.832265,3.2807554,43.8,-120.629841,0.011471,3.8619592e-8,9.5665419e-4,-4.9499609e-5,88.1637785,89.9898339,7813.8054638,2032.0832,2.1487638,0.0225998,9.7992402,147.5166585,115.1993914,3.054822,0,0,721.104643,1.0784032,0.2089535,0.6544073,0.2150425,1.0784036,0.0033084,0.0099573,2.0150226e-4,0,0,0,0,3.6892184e-7,1.6450526,90,2.5915826,804.1640314,0.001016,332.8693991,1.1625611,3.9716754e7,10.5791,87.8996865,0.00375,0.1008298,0.0407442
2.31275,530.4369993,1910.4369993,386.3975711,386.5490345,-101.8334163,101.8850041,12.8022557,0.0012609,12.8022558,89.9943571,10.8200336,3.2418177,43.8,-120.6298405,0.0100752,3.8616673e-8,0.0011409,-5.4168132e-5,88.1623584,89.9883491,7813.8054638,2032.0832,2.1487638,0.0225998,9.7992357,147.5267791,115.1993914,3.0557786,0,0,719.5605469,1.0783841,0.2090295,0.6541031,0.2152515,1.0783845,0.0029074,0.0092622,3.308821e-4,0,0,0,0,5.2579329e-7,1.6451116,90,2.5821595,804.0172981,0.0010158,332.8636887,1.1614321,3.9672687e7,10.5791,87.8996865,0.005625,0.1015804,0.0407039
2.318375,532.6088762,1912.6088762,385.8255843,385.9767666,-101.5394187,101.5890387,12.8630674,0.001268,12.8630675,89.9943518,10.8019828,3.1747797,43.8,-120.6298397,0.0075953,3.8619749e-8,0.0013692,-6.932627e-5,88.1598037,89.9865051,7813.8054638,2032.0832,2.1487638,0.0225998,9.799229,147.5421676,115.1993914,3.0572332,0,0,717.2478378,1.0783473,0.2091433,0.653639,0.2155651,1.0783475,0.0021935,0.0066834,1.4848602e-4,0,0,0,0,7.5944902e-7,1.6452001,90,2.5680423,803.7974698,0.0010156,332.8551336,1.1597427,3.9606753e7,10.5791,87.8996865,0.0084375,0.103005,0.0406436
2.3268125,535.8606705,1915.8606705,384.970722,385.1215027,-101.0952245,101.1415512,12.9540975,0.0012792,12.9540975,89.9943422,10.7756688,3.0608759,43.8,-120.6298386,0.0032764,3.8619832e-8,0.0015779,-1.7282279e-4,88.1552662,89.984149,7813.8054638,2032.0832,2.1487638,0.0225998,9.799219,147.5653517,115.1993914,3.0594247,0,0,713.7503729,1.0782189,0.2093134,0.6528701,0.2160354,1.0782189,9.472791e-4,0.0026412,-5.3696077e-5,0,0,0,0,1.0130878e-6,1.6453329,90,2.5469056,803.4683368,0.0010153,332.8423248,1.1572178,3.9508232e7,10.5791,87.8996865,0.0126563,0.1044487,0.0405536
2.3394688,540.7248771,1920.7248771,383.6954185,383.845646,-100.435417,100.4768392,13.0902367,0.001297,13.0902368,89.9943232,10.7380529,2.8848253,43.8,-120.6298369,0.003566,3.8648807e-8,-0.0015714,-1.5452222e-4,88.1479035,89.981117,7813.8054638,2032.0832,2.1487638,0.0225998,9.7992041,147.58914,115.1993914,3.0616733,0,0,708.5532537,1.0780313,0.2095673,0.6517231,0.2167409,1.0780314,0.0010328,0.003646,4.003012e-4,0,0,0,0,-1.0114385e-6,1.645532,90,2.5152883,802.9760022,0.0010147,332.8231647,1.153451,3.9361301e7,10.5791,87.8996865,0.0189844,0.1053979,0.0404192
2.3584531,547.9910549,1927.9910549,381.7980135,381.9475084,-99.4587057,99.4952307,13.2935861,0.0013264,13.2935861,89.9942831,10.6853213,2.6957006,43.8,-120.6298344,0.0106555,3.8385677e-8,-9.0443154e-4,-3.5148097e-5,88.1391216,89.9805668,7813.8054638,2032.0832,2.1487638,0.0225998,9.7991817,147.612115,115.1993914,3.0638451,0,0,700.877615,1.0777786,0.2099454,0.6500341,0.2177991,1.077779,0.0030944,0.0098473,-3.1824053e-4,0,0,0,0,-3.384035e-7,1.6482171,90,2.4680581,802.2405502,0.001014,332.7945432,1.1478469,3.9142803e7,10.5791,87.8996865,0.0284766,0.1061535,0.0402193
2.3869297,558.8232192,1938.8232192,378.9863553,379.1348209,-98.0161237,98.0532913,13.5967856,0.0013766,13.5967856,89.9941989,10.6091901,2.6995223,43.8,-120.6298306,0.0087546,3.8911104e-8,5.229731e-4,-2.1354639e-5,88.1375175,89.9841278,7813.8054638,2032.0832,2.1487638,0.0225998,9.7991484,147.6564182,115.1993914,3.0680329,0,0,689.61283,1.0774427,0.2105062,0.6475502,0.2193864,1.077443,0.0025507,0.0079766,-4.9242062e-5,0,0,0,0,1.1483139e-7,1.6567043,90,2.3976491,801.1441639,0.0010129,332.7518753,1.1395422,3.8819239e7,10.5791,87.8996865,0.0427148,0.1069145,0.0399231
2.4296445,574.9228063,1954.9228063,374.8459475,374.992571,-95.8614023,95.9103114,14.0473615,0.0014571,14.0473615,89.9940569,10.4854158,3.0625791,43.8,-120.629825,0.0102404,3.9314285e-8,-2.2130234e-4,3.1380606e-5,88.1475274,90.0047932,7813.8054638,2032.0832,2.1487638,0.0225998,9.7990989,147.7010636,115.1993914,3.072253,0,0,672.8776312,1.0764189,0.2113333,0.6433193,0.2217662,1.0764192,0.0029964,0.0087493,3.4507767e-4,0,0,0,0,-2.101895e-8,1.7052415,90,2.2930018,799.5146312,0.0010112,332.6884591,1.1273133,3.8343254e7,10.5791,87.8996865,0.05,0.1078124,0.0394869
2.4796445,593.5462918,1973.5462918,370.1136877,370.2579624,-93.4272157,93.4708257,14.5677779,0.0015362,14.5677779,89.9939581,10.3352254,2.8549312,43.8,-120.6298185,0.0036026,2.891282e-8,0.0017633,2.4020907e-4,88.1274172,90.0056725,7813.8054638,2032.0832,2.1487638,0.0225998,9.7990416,147.7429336,115.1993914,3.0762108,0,0,653.8158224,1.0748891,0.2122806,0.6380581,0.2245505,1.0748892,0.001058,0.0027993,-1.7219096e-4,0,0,0,0,1.3688007e-6,1.7885438,90,2.1719491,797.6296401,0.0010092,332.6151012,1.1133355,3.7799894e7,10.5791,87.8996865,0.05,0.1095231,0.0389883
2.5296445,611.9361825,1991.9361825,365.5015824,365.6440545,-91.0743376,91.1023587,15.0812163,0.0016015,15.0812164,89.9939157,10.2062647,2.2593802,43.8,-120.6298121,0.020963,2.8308465e-8,-6.0065363e-5,1.4244887e-5,88.1050612,90.011251,7813.8054638,2032.0832,2.1487638,0.0225998,9.7989851,147.7305813,115.1993914,3.0750432,0,0,635.287937,1.0729937,0.2132085,0.6324505,0.2273347,1.0729952,0.006176,0.0188536,-4.9305577e-4,0,0,0,0,0,1.7525206,90,2.0524148,795.7682925,0.0010073,332.5426634,1.0997,3.7270606e7,10.5791,87.8996865,0.05,0.1105966,0.0385025
2.5796445,630.098402,2010.098402,361.0067852,361.1476316,-88.7331449,88.7753147,15.5886668,0.0016507,15.5886669,89.9939328,10.0852755,2.7359621,43.8,-120.6298058,0.0060609,3.0630317e-8,-0.0022982,-4.0083008e-5,88.138088,89.9962493,7813.8054638,2032.0832,2.1487638,0.0225998,9.7989292,147.7438933,115.1993914,3.0763016,0,0,617.1276282,1.0703937,0.2142065,0.6260708,0.2301165,1.0703939,0.0017882,0.0052009,2.9023589e-4,0,0,0,0,-2.443932e-6,1.6885394,90,1.9343604,793.9800986,0.0010055,332.4711224,1.0864063,3.6757585e7,10.5791,87.8996865,0.05,0.1120816,0.0380291
2.6296445,648.0387676,2028.0387676,356.6266286,356.7651249,-86.4671157,86.5160588,16.089259,0.0017061,16.0892591,89.9939242,9.9399259,2.9096966,43.8,-120.6297995,0.018516,1.6959265e-8,9.9746184e-4,9.0943511e-7,88.148106,89.9824786,7813.8054638,2032.0832,2.1487638,0.0225998,9.7988741,147.7029927,115.1993914,3.0724354,0,0,599.4749085,1.0673395,0.2151959,0.6192506,0.232893,1.0673406,0.0054694,0.0163386,-1.1397033e-5,0,0,0,0,4.7174346e-7,1.7062012,90,1.817748,792.2532728,0.0010037,332.4004553,1.0734544,3.6260131e7,10.5791,87.8996865,0.05,0.1141609,0.0375675
2.6796445,665.762934,2045.762934,352.3581818,352.4947025,-84.2858892,84.3190995,16.5828652,0.0017791,16.5828653,89.993853,9.8095368,2.366311,43.8,-120.6297934,0.0060103,2.2724461e-8,-0.0019349,5.4220502e-5,88.1133655,89.9992827,7813.8054638,2032.0832,2.1487638,0.0225998,9.7988196,147.6819679,115.1993914,3.070448,0,0,582.3030871,1.0638711,0.2161765,0.6120313,0.2356633,1.0638713,0.001775,0.005168,2.3136541e-4,0,0,0,0,-1.8183719e-6,1.7601197,90,1.7025409,790.5472571,0.001002,332.3306398,1.0608353,3.577597e7,10.5791,87.8996865,0.05,0.1173478,0.0371178
2.7296445,683.2763982,2063.2763982,348.19858,348.3336101,-82.1095518,82.1377289,17.0705547,0.0018403,17.0705548,89.9938231,9.6980849,2.1512804,43.8,-120.6297873,0.0141209,2.4546089e-8,3.1434467e-4,1.2825285e-5,88.0994389,89.9950449,7813.8054638,2032.0832,2.1487638,0.0225998,9.7987657,147.6199066,115.1993914,3.0645816,0,0,565.2516139,1.0593525,0.217148,0.6037762,0.2384283,1.0593532,0.004169,0.0126916,-1.9341151e-4,0,0,0,0,4.9146328e-8,1.7703557,90,1.5887034,788.8615221,0.0010003,332.2616543,1.0485333,3.530448e7,10.5791,87.8996865,0.05,0.1180892,0.0366796
2.7796445,700.5845723,2080.5845723,344.1460812,344.279465,-79.9880647,80.0262025,17.5526483,0.0019027,17.5526484,89.993789,9.5825274,2.4703428,43.8,-120.6297813,0.0065086,2.7269735e-8,-0.0010005,1.1547473e-5,88.1180423,89.9957693,7813.8054638,2032.0832,2.1487638,0.0225998,9.7987125,147.5686097,115.1993914,3.0597327,0,0,548.7668543,1.054616,0.2181093,0.5953206,0.2411861,1.0546162,0.001919,0.005705,2.8981839e-4,0,0,0,0,-5.096426e-7,1.764619,90,1.4762003,787.1955471,9.9857013e-4,332.1934774,1.0365438,3.4845424e7,10.5791,87.8996865,0.05,0.1187244,0.0362527
2.8296445,717.6927702,2097.6927702,340.1990949,340.3305476,-77.9119804,77.9482629,18.0286151,0.0019653,18.0286152,89.9937543,9.4581974,2.378023,43.8,-120.6297754,0.0054667,3.0120629e-8,6.7090323e-4,-4.8237351e-5,88.1183973,89.9920744,7813.8054638,2032.0832,2.1487638,0.0225998,9.7986599,147.4989673,115.1993914,3.0531497,0,0,532.53041,1.0490702,0.2190592,0.5860759,0.2439351,1.0490703,0.0016091,0.0046031,7.449014e-5,0,0,0,0,2.3452331e-7,1.7505062,90,1.364997,785.5488205,9.9688489e-4,332.1260882,1.0248629,3.4398576e7,10.5791,87.8996865,0.05,0.1194402,0.0358369
2.8796445,734.6061708,2114.6061708,336.3538265,336.4837512,-75.8864643,75.911855,18.4987405,0.0020324,18.4987406,89.993705,9.349773,1.9632303,43.8,-120.6297695,0.0136281,3.1387768e-8,8.7690113e-5,-1.3125295e-5,88.1092586,89.9776163,7813.8054638,2032.0832,2.1487638,0.0225998,9.7986079,147.408738,115.1993914,3.0446207,0,0,516.6058192,1.0428569,0.2199977,0.5761835,0.2466757,1.0428575,0.004004,0.0125567,1.6728904e-4,0,0,0,0,0,1.6737773,90,1.2550599,783.9208439,9.9521751e-4,332.0594663,1.0134764,3.3963383e7,10.5791,87.8996865,0.05,0.1201325,0.0354318
2.9296445,751.3298391,2131.3298391,332.6094919,332.7381164,-73.9004433,73.9294769,18.963811,0.0021162,18.9638111,89.9936061,9.2509483,2.0717225,43.8,-120.6297637,0.0029462,2.4635983e-8,0.001924,-1.0321024e-4,88.1324456,89.9956737,7813.8054638,2032.0832,2.1487638,0.0225998,9.7985564,147.3381335,115.1993914,3.0379467,0,0,501.1246568,1.0362433,0.2209234,0.5659149,0.2494049,1.0362433,8.6329438e-4,0.0028643,3.6174714e-4,0,0,0,0,2.0178341e-6,1.5771886,90,1.146356,782.3111297,9.9356751e-4,331.9935918,1.0023859,3.3539822e7,10.5791,87.8996865,0.05,0.1208034,0.0350374
2.9796445,767.8688577,2147.8688577,328.9696218,329.096552,-71.6932829,71.732642,19.4236108,0.002193,19.4236109,89.9935312,9.1393927,2.3759428,43.8,-120.629758,0.0198592,2.3002266e-8,-4.7577811e-4,-2.2495876e-5,88.1582649,89.9934649,7813.8054638,2032.0832,2.1487638,0.0225998,9.7985056,147.2243415,115.1993914,3.0271904,0,0,483.9643641,1.0247134,0.2218339,0.5550519,0.2478276,1.0247146,0.0058057,0.0176877,-3.4664431e-4,0,0,0,0,-1.26137e-7,1.5529054,90,1.0388524,780.7191887,9.9193444e-4,331.9284446,0.9916093,3.3128408e7,10.5791,87.8996865,0.05,0.1216146,0.0346539
3.0296445,784.2286104,2164.2286104,325.437876,325.5631926,-69.6023004,69.6222226,19.8777275,0.0022677,19.8777277,89.9934634,9.0322355,1.6654315,43.8,-120.6297523,0.0178233,2.4599052e-8,-8.4874859e-4,5.8173653e-6,88.1437965,89.9865714,7813.8054638,2032.0832,2.1487638,0.0225998,9.7984553,147.1330638,115.1993914,3.0185623,0,0,467.4558283,1.0130359,0.2227286,0.5451644,0.245143,1.0130369,0.0051949,0.0153818,9.4750259e-6,0,0,0,0,-4.1018379e-7,1.4132833,90,0.932514,779.1445028,9.9031781e-4,331.8640035,0.9811413,3.2728885e7,10.5791,87.8996865,0.05,0.122444,0.0342818
3.0796445,800.4143393,2180.4143393,322.0080801,322.1325747,-67.5951484,67.6198426,20.3275017,0.0023508,20.3275018,89.9933739,8.9550017,1.8273004,43.8,-120.6297467,0.0032634,2.3614581e-8,0.0027318,-5.034132e-5,88.1684696,89.9919214,7813.8054638,2032.0832,2.1487638,0.0225998,9.7984055,147.0566685,115.1993914,3.011341,0,0,451.8223017,1.0017571,0.2236063,0.5355861,0.2425648,1.0017572,9.4787864e-4,0.0025159,-1.4267702e-4,0,0,0,0,4.340279e-6,1.3235339,90,0.8273068,777.5865672,9.8871715e-4,331.8002479,0.970982,3.2341186e7,10.5791,87.8996865,0.05,0.1232416,0.0339206
3.1296445,816.4310611,2196.4310611,318.6766811,318.7994483,-65.6817652,65.7250457,20.7726104,0.0024312,20.7726105,89.9932943,8.8465367,2.3848178,43.8,-120.6297412,0.0360761,2.3473654e-8,3.7929988e-4,-9.5627078e-7,88.1951054,89.9975534,7813.8054638,2032.0832,2.1487638,0.0225998,9.7983563,146.9128039,115.1993914,2.997742,0,0,437.0168328,0.9908658,0.2244666,0.52631,0.2400892,0.9908698,0.0104534,0.0314796,-9.6676696e-5,0,0,0,0,8.5431916e-8,1.3963857,90,0.7231981,776.0448992,9.8713199e-4,331.7371581,0.9611261,3.1965051e7,10.5791,87.8996865,0.05,0.1241788,0.0335696
3.1796445,832.2835481,2212.2835481,315.4375306,315.5585327,-63.908002,63.9350121,21.2120744,0.0025069,21.2120746,89.9932286,8.7379528,1.8582409,43.8,-120.6297357,0.0046615,2.5601082e-8,0.0038976,-3.5790491e-4,88.146569,89.9797056,7813.8054638,2032.0832,2.1487638,0.0225998,9.7983075,146.8575877,115.1993914,2.9925226,0,0,423.0354684,0.9805099,0.2254949,0.517308,0.237707,0.9805099,0.0013453,0.0041745,1.4709502e-4,0,0,0,0,9.2068794e-6,1.4951383,90,0.6201569,774.5190394,9.8556189e-4,331.6747151,0.9515452,3.1599467e7,10.5791,87.8996865,0.05,0.1251374,0.0332282
3.2296445,847.9762185,2227.9762185,312.2826945,312.402883,-62.3054243,62.315415,21.6470286,0.0025962,21.6470288,89.9931283,8.6648733,1.1158176,43.8,-120.6297303,0.0426239,1.5973378e-8,-9.8136546e-4,-6.4391773e-5,88.0950692,89.9864654,7813.8054638,2032.0832,2.1487638,0.0225998,9.7982593,146.7052371,115.1993914,2.9781215,0,0,410.3281962,0.971894,0.2266476,0.5098385,0.2354078,0.9718995,0.0122711,0.036053,2.0336434e-4,0,0,0,0,-5.9553946e-7,1.4889486,90,0.5181546,773.0085625,9.8400646e-4,331.6129017,0.9422062,3.1243275e7,10.5791,87.8996865,0.05,0.1260804,0.032896
