# Time (s),Altitude (m),Altitude above sea level (m),Vertical velocity (m/s),Total velocity (m/s),Vertical acceleration (m/s²),Total acceleration (m/s²),Position East of launch (m),Position North of launch (m),Lateral distance (m),Lateral direction (°),Lateral velocity (m/s),Lateral acceleration (m/s²),Latitude (° N),Longitude (° E),Angle of attack (°),Roll rate (r/s),Pitch rate (r/s),Yaw rate (r/s),Vertical orientation (zenith) (°),Lateral orientation (azimuth) (°),Mass (g),Motor mass (g),Longitudinal moment of inertia (kg·m²),Rotational moment of inertia (kg·m²),Gravitational acceleration (m/s²),CP location (cm),CG location (cm),Stability margin calibers (​),Thrust (N),Thrust-to-weight ratio (​),Drag force (N),Drag coefficient (​),Friction drag coefficient (​),Pressure drag coefficient (​),Base drag coefficient (​),Axial drag coefficient (​),Normal force coefficient (​),Pitch moment coefficient (​),Yaw moment coefficient (​),Side force coefficient (​),Roll moment coefficient (​),Roll forcing coefficient (​),Roll damping coefficient (​),Pitch damping coefficient (​),Wind velocity (m/s),Wind direction (°),Air temperature (°C),Air pressure (mbar),Air density (g/cm³),Speed of sound (m/s),Mach number (​),Reynolds number (​),Reference length (cm),Reference area (cm²),Simulation time step (s),Computation time (s),Coriolis acceleration (m/s²)
0,0,1380,0,0,0,0,0,0,0,0,0,0,43.8,-120.63,0,0,0,0,90,0,7975.722264,2194,2.1347745,0.0219707,9.8008672,NaN,114.844678,NaN,0,0,0,1.5148519,1.2358995,0.1589525,0.12,1.5148519,NaN,NaN,NaN,NaN,NaN,NaN,NaN,NaN,0,0,6.03,858.3245703,0.001071,334.95308,0,0,10.5791,87.8996865,0.004,0.0106457,0
0.004,0,1380,0,0,0,0,0,0,0,0,0,0,43.8,-120.63,0,0,0,0,90,0,7975.711213,2193.98895,2.1347732,0.0219707,9.8008672,NaN,114.8446362,NaN,10.664,0.1364226,0,1.5148519,1.2358995,0.1589525,0.12,1.5148519,NaN,NaN,NaN,NaN,NaN,NaN,NaN,NaN,0,0,6.03,858.3245703,0.001071,334.95308,0,0,10.5791,87.8996865,0.007,0.0281092,0
0.011,0.0011504,1380.00115,0.5029174,0.5029174,149.3484647,149.3484647,0,0,0,270,1.21E-07,5.29E-05,43.8,-120.63,1.38E-05,0,0,0,90,0,7973.390723,2191.66846,2.1344831,0.0219699,9.8008672,NaN,114.8358481,NaN,1268.961,16.2383062,0.0011939,1.0027746,0.7237009,0.1590734,0.1200003,1.0027746,NaN,NaN,NaN,NaN,NaN,NaN,NaN,NaN,0,0,6.0299925,858.324448,0.001071,334.9530755,0.0015015,5.39E+04,10.5791,87.8996865,0.01,0.0383865,5.29E-05
0.021,0.0136876,1380.013688,2.008601,2.008601,151.788641,151.788641,-6.70E-09,0,6.70E-09,269.9999797,1.44E-06,2.11E-04,43.8,-120.63,4.11E-05,0,0,0,90,0,7966.677879,2184.955615,2.1336434,0.0219674,9.8008671,NaN,114.8103968,NaN,1287.346517,16.4874581,0.0149576,0.7876109,0.508169,0.1594373,0.1200047,0.7876109,NaN,NaN,NaN,NaN,NaN,NaN,NaN,NaN,0,0,6.029911,858.3231144,0.001071,334.9530261,0.0059967,2.15E+05,10.5791,87.8996865,0.01,0.0511051,2.11E-04
0.031,0.0414038,1380.041404,3.5386981,3.5386981,154.2311593,154.2311593,-3.44E-08,0,3.44E-08,269.9999656,4.36E-06,0,43.8,-120.63,7.06E-05,0,0,0,90,0,7959.965035,2178.242771,2.1328026,0.021965,9.800867,NaN,114.7849026,NaN,1305.732035,16.7370303,0.0428406,0.7267889,0.4469646,0.1598098,0.1200145,0.7267889,NaN,NaN,NaN,NaN,NaN,NaN,NaN,NaN,0,0,6.0297309,858.3201662,0.001071,334.9529169,0.0105648,3.79E+05,10.5791,87.8996865,0.009,0.0634492,3.72E-04
0.04,0.0795281,1380.079528,4.9366784,4.9366784,156.431451,156.431451,-7.36E-08,0,7.36E-08,269.9999596,4.36E-06,0,43.8,-120.63,5.06E-05,0,0,0,90,0,7953.923475,2172.201211,2.132045,0.0219628,9.8008669,NaN,114.761921,NaN,1322.279,16.9620055,0.0798646,0.6961867,0.416006,0.1601525,0.1200282,0.6961867,NaN,NaN,NaN,NaN,NaN,NaN,NaN,NaN,0,0,6.0294831,858.3161108,0.001071,334.9527667,0.0147384,5.29E+05,10.5791,87.8996865,0.01,0.0803965,5.20E-04
0.05,0.1367057,1380.136706,6.4977562,6.4977562,155.7836624,155.7836624,-1.17E-07,0,1.17E-07,269.9999577,4.36E-06,0,43.8,-120.63,3.84E-05,0,0,0,90,0,7947.321129,2165.598865,2.1312161,0.0219604,9.8008667,NaN,114.7367662,NaN,1316.087258,16.8966045,0.133831,0.6734002,0.3928134,0.1605379,0.1200489,0.6734002,NaN,NaN,NaN,NaN,NaN,NaN,NaN,NaN,0,0,6.0291114,858.3100288,0.001071,334.9525415,0.019399,6.96E+05,10.5791,87.8996865,0.01,0.0890384,6.84E-04
0.06,0.2094616,1380.209462,8.0523427,8.0523427,155.1331932,155.1331932,-1.61E-07,0,1.61E-07,269.9999568,4.36E-06,0,43.8,-120.63,3.10E-05,0,0,0,90,0,7940.718784,2158.99652,2.1303862,0.0219579,9.8008665,NaN,114.7115696,NaN,1309.895516,16.8310948,0.2005304,0.6570259,0.3760262,0.1609245,0.1200751,0.6570259,NaN,NaN,NaN,NaN,NaN,NaN,NaN,NaN,0,0,6.0286385,858.3022896,0.001071,334.9522549,0.0240403,8.63E+05,10.5791,87.8996865,0.01,0.1030245,8.48E-04
0.07,0.2977308,1380.297731,9.6004113,9.6004113,154.4800827,154.4800827,-2.04E-07,0,2.04E-07,269.9999563,4.36E-06,0,43.8,-120.63,2.60E-05,0,0,0,90,0,7934.116439,2152.394175,2.1295553,0.0219555,9.8008662,NaN,114.6863311,NaN,1303.703774,16.7654761,0.279597,0.6444709,0.3630517,0.1613124,0.1201068,0.6444709,NaN,NaN,NaN,NaN,NaN,NaN,NaN,NaN,0,0,6.0280647,858.2929003,0.001071,334.9519072,0.0286621,1.03E+06,10.5791,87.8996865,0.01,0.1216452,0.0010106
0.08,0.401448,1380.401448,11.1419356,11.1419356,153.8243635,153.8243635,-2.48E-07,0,2.48E-07,269.999956,4.36E-06,0,43.8,-120.63,2.24E-05,0,0,0,90,0,7927.514093,2145.791829,2.1287234,0.0219531,9.8008659,NaN,114.6610505,NaN,1297.512032,16.6997482,0.3707203,0.6344248,0.3525796,0.1617014,0.1201438,0.6344248,NaN,NaN,NaN,NaN,NaN,NaN,NaN,NaN,0,0,6.0273906,858.2818678,0.001071,334.9514987,0.0332643,1.19E+06,10.5791,87.8996865,0.01,0.135584,0.0011728
0.09,0.5205476,1380.520548,12.6768899,12.6768899,153.1660635,153.1660635,-2.92E-07,0,2.92E-07,269.9999557,4.36E-06,0,43.8,-120.63,1.97E-05,0,0,0,90,0,7920.911748,2139.189484,2.1278905,0.0219507,9.8008656,NaN,114.6357278,NaN,1291.32029,16.6339108,0.4736274,0.6261402,0.3438626,0.1620915,0.1201862,0.6261402,NaN,NaN,NaN,NaN,NaN,NaN,NaN,NaN,0,0,6.0266164,858.269199,0.001071,334.9510296,0.037847,1.36E+06,10.5791,87.8996865,0.01,0.1451435,0.0013344
0.1,0.6549638,1380.654964,14.2052478,14.2052478,152.5050187,152.5050187,-3.35E-07,0,3.35E-07,269.9999556,4.36E-06,0,43.8,-120.63,1.76E-05,0,0,0,90,0,7914.309403,2132.587139,2.1270566,0.0219483,9.8008651,NaN,114.6103629,NaN,1285.128548,16.5679637,0.5895658,0.6207272,0.3380107,0.1624826,0.1202338,0.6207272,NaN,NaN,NaN,NaN,NaN,NaN,NaN,NaN,0,0,6.0257427,858.254901,0.001071,334.9505001,0.04241,1.52E+06,10.5791,87.8996865,0.01,0.1557753,0.0014953
0.11,0.8046305,1380.804631,15.7269814,15.7269814,151.8412697,151.8412697,-3.79E-07,0,3.79E-07,269.9999554,4.36E-06,0,43.8,-120.63,1.59E-05,0,0,0,90,0,7907.707057,2125.984793,2.1262216,0.0219459,9.8008647,NaN,114.5849556,NaN,1278.936807,16.5019064,0.7181597,0.6168832,0.3337218,0.1628748,0.1202866,0.6168832,NaN,NaN,NaN,NaN,NaN,NaN,NaN,NaN,0,0,6.0247699,858.2389807,0.001071,334.9499106,0.0469532,1.68E+06,10.5791,87.8996865,0.01,0.1655843,0.0016555
0.12,0.9694813,1380.969481,17.2420645,17.2420645,151.1749064,151.1749064,-4.22E-07,0,4.22E-07,269.9999553,4.36E-06,0,43.8,-120.63,1.45E-05,0,0,0,90,0,7901.104712,2119.382448,2.1253856,0.0219435,9.8008642,NaN,114.5595058,NaN,1272.745065,16.4357389,0.8586448,0.6136418,0.3299478,0.1633495,0.1203445,0.6136418,NaN,NaN,NaN,NaN,NaN,NaN,NaN,NaN,0,0,6.0236984,858.2214453,0.0010709,334.9492612,0.0514766,1.85E+06,10.5791,87.8996865,0.01,0.1757793,0.001815
0.13,1.1494495,1381.14945,18.7504708,18.7504708,150.5059199,150.5059199,-4.66E-07,0,4.66E-07,269.9999552,4.36E-06,0,43.8,-120.63,1.33E-05,0,0,0,90,0,7894.502367,2112.780103,2.1245486,0.0219411,9.8008636,NaN,114.5340134,NaN,1266.553323,16.3694608,1.011041,0.6109873,0.3265879,0.163992,0.1204074,0.6109873,NaN,NaN,NaN,NaN,NaN,NaN,NaN,NaN,0,0,6.0225286,858.2023018,0.0010709,334.9485523,0.0559802,2.01E+06,10.5791,87.8996865,0.01,0.1838711,0.0019737
0.14,1.3444684,1381.344468,20.2521743,20.2521743,149.8343489,149.8343489,-5.09E-07,0,5.09E-07,269.9999552,4.36E-06,0,43.8,-120.63,1.23E-05,0,0,0,90,0,7887.900021,2106.177757,2.1237106,0.0219387,9.800863,NaN,114.5084784,NaN,1260.361581,16.3030717,1.1749891,0.6086769,0.3235672,0.1646344,0.1204753,0.6086769,NaN,NaN,NaN,NaN,NaN,NaN,NaN,NaN,0,0,6.021261,858.1815574,0.0010709,334.9477841,0.0604637,2.17E+06,10.5791,87.8996865,0.01,0.1928213,0.0021318
0.15,1.5544706,1381.554471,21.7471492,21.7471492,149.1602072,149.1602072,-5.53E-07,0,5.53E-07,269.9999551,4.36E-06,0,43.8,-120.63,1.15E-05,0,0,0,90,0,7881.297676,2099.575412,2.1228715,0.0219363,9.8008624,NaN,114.4829006,NaN,1254.169839,16.2365715,1.3503302,0.6066536,0.320829,0.1652765,0.120548,0.6066536,NaN,NaN,NaN,NaN,NaN,NaN,NaN,NaN,0,0,6.0198959,858.1592192,0.0010709,334.9469569,0.0649271,2.33E+06,10.5791,87.8996865,0.01,0.2003625,0.0022892
0.16,1.7793888,1381.779389,23.2353699,23.2353699,148.4835081,148.4835081,-5.97E-07,0,5.97E-07,269.9999551,4.36E-06,0,43.8,-120.63,1.07E-05,0,0,0,90,0,7874.695331,2092.973067,2.1220314,0.0219339,9.8008617,NaN,114.4572799,NaN,1247.978097,16.1699599,1.5369095,0.6048733,0.3183293,0.1659184,0.1206256,0.6048733,NaN,NaN,NaN,NaN,NaN,NaN,NaN,NaN,0,0,6.018434,858.1352944,0.0010708,334.946071,0.0693705,2.49E+06,10.5791,87.8996865,0.01,0.2102826,0.0024458
0.17,2.0191554,1382.019155,24.7168109,24.7168109,147.8042642,147.8042642,-6.40E-07,0,6.40E-07,269.999955,4.36E-06,0,43.8,-120.63,1.01E-05,0,0,0,90,0,7868.092985,2086.370721,2.1211903,0.0219315,9.8008609,NaN,114.4316162,NaN,1241.786355,16.1032365,1.7345753,0.603301,0.3160333,0.1665599,0.1207079,0.603301,NaN,NaN,NaN,NaN,NaN,NaN,NaN,NaN,0,0,6.0168755,858.1097901,0.0010708,334.9451265,0.0737936,2.65E+06,10.5791,87.8996865,0.01,0.2176126,0.0026018
0.18,2.2737024,1382.273702,26.1914467,26.1914467,147.1224882,147.1224882,-6.84E-07,0,6.84E-07,269.999955,4.36E-06,0,43.8,-120.63,9.55E-06,0,0,0,90,0,7861.49064,2079.768376,2.1203481,0.0219291,9.8008602,NaN,114.4059094,NaN,1235.594613,16.0364011,1.9431786,0.6019088,0.3139129,0.167201,0.1207949,0.6019088,NaN,NaN,NaN,NaN,NaN,NaN,NaN,NaN,0,0,6.0152209,858.0827136,0.0010708,334.9441239,0.0781965,2.81E+06,10.5791,87.8996865,0.01,0.2273379,0.002757
0.19,2.5429616,1382.542962,27.6592522,27.6592522,146.4381923,146.4381923,-7.27E-07,0,7.27E-07,269.9999549,4.36E-06,0,43.8,-120.63,9.04E-06,0,0,0,90,0,7854.888295,2073.166031,2.1195049,0.0219267,9.8008593,NaN,114.3801594,NaN,1229.402871,15.9694535,2.1625729,0.6006736,0.3119455,0.1678416,0.1208865,0.6006736,NaN,NaN,NaN,NaN,NaN,NaN,NaN,NaN,0,0,6.0134707,858.0540721,0.0010708,334.9430633,0.082579,2.96E+06,10.5791,87.8996865,0.005,0.2336866,0.0029115
0.195,2.6830869,1382.683087,28.3905857,28.3905857,146.0951032,146.0951032,-7.49E-07,0,7.49E-07,269.9999549,4.36E-06,0,43.8,-120.63,8.79E-06,0,0,0,90,0,7851.587122,2069.864858,2.1190829,0.0219255,9.8008589,NaN,114.3672682,NaN,1226.307,15.9359374,2.2762713,0.600109,0.3110132,0.1681618,0.120934,0.600109,NaN,NaN,NaN,NaN,NaN,NaN,NaN,NaN,0,0,6.0125599,858.0391668,0.0010707,334.9425113,0.0847626,3.04E+06,10.5791,87.8996865,0.0075,0.2398972,0.0029885
0.2025,2.900133,1382.900133,29.4894071,29.4894071,146.9239391,146.9239391,-7.82E-07,0,7.82E-07,269.9999549,4.36E-06,0,43.8,-120.63,8.49E-06,0,0,0,90,0,7846.738957,2065.016693,2.1184627,0.0219237,9.8008582,NaN,114.3483162,NaN,1232.231167,16.0228172,2.4525941,0.5993188,0.3096671,0.168644,0.1210077,0.5993188,NaN,NaN,NaN,NaN,NaN,NaN,NaN,NaN,0,0,6.0111491,858.0160793,0.0010707,334.9416564,0.0880434,3.16E+06,10.5791,87.8996865,0.01,0.2462793,0.0031041
0.2125,3.2023916,1383.202392,30.9641724,30.9641724,148.0291258,148.0291258,-8.26E-07,0,8.26E-07,269.9999549,4.36E-06,0.0032605,43.8,-120.63,8.05E-06,0,0,0,90,0,7840.274737,2058.552473,2.1176348,0.0219213,9.8008573,142.4758934,114.3230104,2.6611794,1240.130056,16.138824,2.6996266,0.5983596,0.3079551,0.1692935,0.121111,0.5983596,2.00E-06,1.67E-04,1.82E-04,0,0,0,0,0,0,0,6.0091845,857.9839277,0.0010707,334.9404658,0.0924468,3.32E+06,10.5791,87.8996865,0.015,0.2524736,0.0032594
0.2275,3.6835697,1383.68357,33.1970431,33.1970431,149.6869838,149.6869839,-1.27E-06,0,1.27E-06,269.9999575,5.51E-05,0.0035101,43.8,-120.63,9.52E-05,0,0,0,90,0,7830.578406,2048.856142,2.1163912,0.0219178,9.8008558,142.4796042,114.2849734,2.6651257,1251.978389,16.3131936,3.0963556,0.5971049,0.3055462,0.1702816,0.1212771,0.5971049,2.36E-05,5.03E-04,4.45E-04,0,0,0,0,0,0,0,6.0060568,857.9327441,0.0010706,334.9385704,0.0991138,3.56E+06,10.5791,87.8996865,0.0215,0.2579053,0.0034944
0.249,4.4320856,1384.432086,36.4408555,36.4408555,152.0629387,152.0629387,-3.29E-06,0,3.29E-06,269.9999328,1.34E-04,0.003794,43.8,-120.63,2.11E-04,0,0,0,90,0,7816.680333,2034.958069,2.1146046,0.0219127,9.8008535,142.4854907,114.2302891,2.6708512,1268.961,16.5638781,3.723479,0.5959408,0.3023802,0.1720217,0.1215389,0.5959408,5.24E-05,-1.66E-05,-2.47E-04,0,0,0,0,0,0,0,6.0011914,857.8531235,0.0010706,334.935622,0.1087996,3.90E+06,10.5791,87.8996865,0.03225,0.2630362,0.0038359
0.28125,5.6860271,1385.686027,41.3119665,41.3119665,150.0170808,150.0170808,-9.67E-06,0,9.67E-06,269.9998746,2.64E-04,0.0042549,43.8,-120.63,3.66E-04,0,0,0,90,0,7795.699582,2013.977318,2.1118987,0.0219051,9.8008497,142.4954278,114.1473675,2.6796287,1250.669075,16.3690543,4.7765011,0.5949005,0.2982202,0.1747025,0.1219778,0.5949005,9.10E-05,2.05E-04,-2.36E-04,0,0,0,0,0,0,0,5.9930408,857.71974,0.0010704,334.9306827,0.1233448,4.42E+06,10.5791,87.8996865,0.01475,0.2701976,0.0043486
0.296,6.3116635,1386.311664,43.5177599,43.5177599,149.0726332,149.0726333,-1.40E-05,0,1.40E-05,269.9998474,3.28E-04,0.0044579,43.8,-120.63,4.32E-04,0,0,0,90,0,7786.103734,2004.38147,2.1106576,0.0219016,9.8008477,142.5003572,114.1092932,2.6836937,1242.303,16.2795991,5.2975971,0.5946472,0.2965269,0.1759257,0.1221947,0.5946472,1.07E-04,1.21E-04,3.65E-04,0,0,0,0,0,0,0,5.9889742,857.6531903,0.0010704,334.9282184,0.1299316,4.66E+06,10.5791,87.8996865,0.022125,0.2794753,0.0045808
0.318125,7.3110284,1387.311028,46.822471,46.822471,149.6572612,149.6572612,-2.24E-05,0,2.24E-05,269.999807,4.30E-04,0.004755,43.8,-120.63,5.27E-04,0,0,0,90,0,7771.801641,1990.079378,2.1088035,0.0218964,9.8008447,142.5082447,114.052371,2.6898199,1245.407196,16.3503162,6.1304275,0.5944829,0.2941732,0.177769,0.1225407,0.5944829,1.31E-04,4.75E-04,-2.69E-04,0,0,0,0,0,0,0,5.9824783,857.5468865,0.0010703,334.9242819,0.1398002,5.01E+06,10.5791,87.8996865,0.0331875,0.2847371,0.0049287
0.3513125,8.9475256,1388.947526,51.8036115,51.8036115,150.5218661,150.5218662,-3.94E-05,0,3.94E-05,269.9997479,5.95E-04,0.0051863,43.8,-120.63,6.58E-04,0,0,0,90,0,7750.348502,1968.626238,2.1060129,0.0218886,9.8008396,142.5212737,113.9665938,2.6991597,1250.063489,16.456882,7.5066478,0.5947779,0.2909736,0.1806942,0.1231102,0.5947779,1.64E-04,2.44E-04,-3.13E-06,0,0,0,0,0,0,0,5.9718411,857.3728101,0.0010701,334.9178357,0.1546756,5.55E+06,10.5791,87.8996865,0.0206875,0.2891841,0.005453
0.372,10.0514605,1390.051461,54.9230352,54.9230352,151.0528283,151.0528284,-5.28E-05,0,5.28E-05,269.9997118,7.05E-04,0.0054457,43.8,-120.63,7.36E-04,0,0,0,90,0,7736.975641,1955.253377,2.1042675,0.0218837,9.8008362,142.530132,113.9128837,2.705074,1252.966,16.5236095,8.4451165,0.5953519,0.2891477,0.1827082,0.1234961,0.5953519,1.83E-04,4.48E-04,1.99E-04,0,0,0,0,0,0,0,5.9646655,857.2553831,0.00107,334.9134873,0.1639917,5.88E+06,10.5791,87.8996865,0.0310313,0.2960151,0.0057814
0.4030313,11.8280071,1391.828007,59.560943,59.560943,147.8608547,147.8608549,-7.74E-05,0,7.74E-05,269.9996588,8.80E-04,0.0058139,43.8,-120.63,8.47E-04,0,0,0,90,0,7717.13066,1935.408396,2.1016693,0.0218764,9.8008308,142.5442964,113.8328362,2.7139795,1226.644447,16.2180992,9.948621,0.5964784,0.2866428,0.185724,0.1241117,0.5964784,2.11E-04,1.96E-04,4.25E-04,0,0,0,0,0,0,0,5.953118,857.0664094,0.0010698,334.9064895,0.1778435,6.38E+06,10.5791,87.8996865,0.0129687,0.3060778,0.0062696
0.416,12.6128347,1392.612835,61.4698131,61.4698131,146.5182849,146.518285,-8.93E-05,0,8.93E-05,269.9996369,9.56E-04,0.0059588,43.8,-120.63,8.91E-04,0,0,0,90,0,7708.836936,1927.114673,2.1005804,0.0218734,9.8008284,142.5504716,113.7992602,2.717737,1215.644,16.0899527,10.6054467,0.5970278,0.2856756,0.1869726,0.1243795,0.5970278,2.22E-04,4.60E-04,3.36E-04,0,0,0,0,0,0,0,5.9480166,856.9829263,0.0010697,334.903398,0.1835449,6.58E+06,10.5791,87.8996865,0.0194531,0.3148231,0.0064705
0.4354531,13.8363544,1393.836354,64.3226236,64.3226236,146.7817323,146.7817324,-1.09E-04,0,1.09E-04,269.9996046,0.0010744,0.0061682,43.8,-120.63,9.57E-04,0,8.19E-06,1.51E-07,90,0,7696.5307,1914.808436,2.0989616,0.0218689,9.8008246,142.5600781,113.7493068,2.723367,1216.77133,16.1306306,11.6288744,0.5979338,0.2842913,0.1888469,0.1247956,0.5979338,2.38E-04,9.35E-04,-4.94E-04,0,0,0,0,0,0,0,5.9400637,856.8527788,0.0010695,334.8985786,0.192066,6.88E+06,10.5791,87.8996865,0.0291797,0.3192564,0.0067708
0.4646328,15.7758124,1395.775812,68.6113014,68.6113014,147.1653196,147.1653198,-1.43E-04,0,1.43E-04,269.9995568,0.0012605,0.0068325,43.8,-120.63,9.47E-04,0,1.21E-05,-2.40E-07,89.999894,270.8116041,7678.071345,1896.349081,2.0965261,0.0218622,9.8008186,142.5755319,113.6740764,2.731939,1218.462324,16.1918924,13.2651172,0.5995807,0.2823335,0.1917906,0.1254567,0.5995807,2.36E-04,6.08E-04,2.29E-04,0,0,0,0,0,0,0,5.9274572,856.6464761,0.0010693,334.8909391,0.2048766,7.34E+06,10.5791,87.8996865,0.0437695,0.3243313,0.0072222
0.5084023,18.9200421,1398.920042,75.0647716,75.0647716,147.7133942,147.7133944,-2.05E-04,-9.77E-09,2.05E-04,269.9972711,0.0015851,0.0080398,43.8,-120.63,8.82E-04,0,1.65E-05,-3.94E-08,89.9996724,268.6872774,7650.382312,1868.660048,2.0928565,0.0218521,9.800809,142.6007913,113.56055,2.7450578,1220.998816,16.2843407,15.9549442,0.6026826,0.2796253,0.1965253,0.1265319,0.6026826,2.20E-04,8.96E-04,-2.60E-04,0,0,0,0,0,0,0,5.9070197,856.3120202,0.001069,334.878554,0.2241552,8.03E+06,10.5791,87.8996865,0.05,0.3289123,0.0079016
0.5584023,22.8581708,1402.858171,82.465256,82.465256,148.2985264,148.2985267,-2.95E-04,-2.39E-08,2.95E-04,269.9953704,0.0020312,0.009944,43.8,-120.63,6.91E-04,0,0,0,89.9992796,270.8171684,7618.751824,1837.02956,2.0886403,0.0218406,9.8007968,142.6328125,113.4298538,2.7604389,1223.896371,16.3907729,19.376865,0.6067081,0.2768075,0.2020166,0.1278841,0.6067082,1.73E-04,6.90E-04,1.64E-05,0,0,0,0,0,0,0,5.8814219,855.8931162,0.0010686,334.8630417,0.2462656,8.82E+06,10.5791,87.8996865,0.0415977,0.3339489,0.0086806
0.6,26.4169699,1406.41697,88.6436143,88.6436143,148.7489614,148.7489619,-3.89E-04,1.68E-08,3.89E-04,270.0024713,0.0024867,0.0120272,43.8,-120.63,4.42E-04,0,0,0,89.9988319,272.0545209,7592.43674,1810.714477,2.0851125,0.021831,9.8007859,142.6620574,113.3202908,2.7735598,1226.307,16.4799968,22.5280751,0.610694,0.2746462,0.2069373,0.1291105,0.610694,1.11E-04,3.65E-04,-4.11E-04,0,0,0,0,0,0,0,5.8582897,855.514562,0.0010682,334.8490236,0.2647271,9.48E+06,10.5791,87.8996865,0.05,0.3383641,0.0093309
0.65,31.0349837,1411.034984,96.074767,96.074767,148.488247,148.4882477,-5.29E-04,4.53E-07,5.29E-04,270.049014,0.0031588,0.0149807,43.8,-120.63,1.10E-04,0,0,0,89.9981954,272.6398678,7560.806252,1779.083989,2.0808479,0.0218195,9.8007717,142.7001758,113.1875879,2.7897069,1223.471096,16.5106941,26.6784958,0.615942,0.2722346,0.2130043,0.1307031,0.615942,2.77E-05,-2.42E-04,3.42E-05,0,0,0,0,0,0,0,5.8282726,855.0233376,0.0010677,334.8308332,0.2869352,1.03E+07,10.5791,87.8996865,0.05,0.3427337,0.0101131
0.7,36.0242068,1416.024207,103.491522,103.4915221,148.1720317,148.1720328,-7.07E-04,1.71E-06,7.07E-04,270.1385085,0.0039846,0.0179424,43.8,-120.63,2.50E-04,0,0,0,89.997574,273.5035104,7529.175764,1747.453501,2.0765565,0.0218079,9.8007563,142.7407103,113.0537699,2.8061877,1220.635192,16.5416512,31.230306,0.6217031,0.2699965,0.2192857,0.1324209,0.6217031,6.28E-05,-3.02E-05,7.82E-05,0,0,0,0,0,0,0,5.7958427,854.4926273,0.0010672,334.8111806,0.3091041,1.11E+07,10.5791,87.8996865,0.05,0.3472458,0.0108938
0.75,41.3838479,1421.383848,110.8909997,110.8909999,147.7974134,147.7974148,-9.30E-04,4.64E-06,9.30E-04,270.2855467,0.0049446,0.020337,43.8,-120.63,3.81E-04,0,0,0,89.997093,273.935573,7497.545276,1715.823012,2.0722378,0.0217964,9.8007399,142.7843828,112.9188228,2.8230719,1217.799287,16.5728713,36.1999995,0.628012,0.2679024,0.2258472,0.1342623,0.628012,9.58E-05,-9.48E-05,4.85E-04,0,0,0,0,0,0,0,5.761005,853.9225151,0.0010666,334.790069,0.3312255,1.18E+07,10.5791,87.8996865,0.038,0.3514231,0.0116727
0.788,45.7043397,1425.70434,116.5012527,116.5012528,147.4733151,147.4733167,-0.001133,8.25E-06,0.001133,270.4171542,0.0057416,0.0215303,43.8,-120.63,3.37E-04,0,0,0,89.9968638,273.5292549,7473.506105,1691.783842,2.0689373,0.0217876,9.8007266,142.8198788,112.8154991,2.836194,1215.644,16.5967764,40.2554919,0.6330033,0.2663925,0.2308672,0.1357436,0.6330033,8.50E-05,6.06E-04,1.58E-04,0,0,0,0,0,0,0,5.7329218,853.4629387,0.0010661,334.7730506,0.3480007,1.24E+07,10.5791,87.8996865,0.05,0.3568371,0.0122633
0.838,51.7133817,1431.713382,123.8530483,123.8530485,146.5878053,146.587807,-0.0014471,1.48E-05,0.0014472,270.5847509,0.0068378,0.0224848,43.8,-120.63,1.81E-04,0,0,0,89.9966776,272.803904,7442.428113,1660.705849,2.0646464,0.0217763,9.8007081,142.8694144,112.6809323,2.8535964,1209.890223,16.5872299,45.9799577,0.6401205,0.2645004,0.2378243,0.1377958,0.6401205,4.58E-05,-2.77E-05,1.26E-04,0,0,0,0,0,0,0,5.693863,852.8237488,0.0010655,334.749381,0.3699874,1.32E+07,10.5791,87.8996865,0.05,0.3618975,0.0130371
0.888,58.0888799,1438.08888,131.1589643,131.1589646,145.6380866,145.6380885,-0.0018173,2.31E-05,0.0018175,270.7285775,0.0079795,0.0233021,43.8,-120.63,1.06E-04,0,0,0,89.996505,273.0658877,7411.35012,1629.627856,2.0603284,0.021765,9.8006885,142.9218015,112.5452369,2.8713751,1204.136446,16.577605,52.1252655,0.6475001,0.2627032,0.2448367,0.1399602,0.6475001,2.68E-05,-2.65E-04,3.42E-04,0,0,0,0,0,0,0,5.6524223,852.1455786,0.0010648,334.7242679,0.3918418,1.40E+07,10.5791,87.8996865,0.05,0.3656531,0.0138062
0.938,64.8284593,1444.828459,138.4157326,138.4157329,144.6206759,144.6206779,-0.0022455,3.37E-05,0.0022458,270.8600761,0.0091572,0.0239047,43.8,-120.63,2.71E-04,0,0,0,89.9963574,274.9913069,7380.272128,1598.549864,2.0559829,0.0217537,9.8006677,142.9767704,112.4083987,2.8895059,1198.382669,16.5679005,58.7111353,0.6552912,0.2609876,0.2520701,0.1422335,0.6552912,6.89E-05,-1.98E-04,4.73E-04,0,0,0,0,0,0,0,5.608615,851.4286805,0.001064,334.6977207,0.4135545,1.48E+07,10.5791,87.8996865,0.05,0.3707419,0.0145701
0.988,71.9295764,1451.929576,145.6198992,145.6198996,143.5347114,143.5347135,-0.0027332,4.76E-05,0.0027336,270.9978593,0.0103661,0.0249574,43.8,-120.63,3.84E-04,0,0,0,89.9961246,276.4872339,7349.194135,1567.471871,2.0516095,0.0217423,9.8006459,143.0347223,112.2704032,2.908028,1192.628892,16.5581155,65.7375896,0.6633926,0.2593428,0.2594376,0.1446123,0.6633926,9.77E-05,2.04E-04,1.05E-04,0,0,0,0,0,0,0,5.5624578,850.6733252,0.0010633,334.6697494,0.4351152,1.55E+07,10.5791,87.8996865,0.05,0.3747426,0.0153284
1.038,79.3895159,1459.389516,152.7680525,152.7680529,142.3790658,142.3790684,-0.0032829,6.68E-05,0.0032835,271.1654519,0.01165,0.0268612,43.8,-120.63,3.47E-04,0,0,0,89.9957506,276.5037245,7318.116142,1536.393879,2.0472079,0.021731,9.800623,143.0957578,112.1312357,2.9269524,1186.875115,16.5482489,73.2064842,0.6717575,0.2577597,0.2669051,0.1470927,0.6717575,8.86E-05,2.90E-04,3.14E-05,0,0,0,0,0,0,0,5.5139681,849.8798015,0.0010625,334.6403647,0.4565141,1.63E+07,10.5791,87.8996865,0.028,0.3795614,0.0160808
1.066,83.722746,1463.722746,156.7452076,156.7452081,141.69978,141.6997828,-0.0036195,8.01E-05,0.0036204,271.2673043,0.0124196,0.0281957,43.8,-120.63,2.58E-04,0,0,0,89.9954999,275.5785534,7300.712467,1518.990203,2.0447305,0.0217247,9.8006096,143.1312729,112.0527843,2.9377252,1183.653,16.5426876,77.5922232,0.6766272,0.2568974,0.2712052,0.1485246,0.6766272,6.60E-05,-2.11E-04,-4.35E-04,0,0,0,0,0,0,0,5.4858022,849.41887,0.001062,334.6232961,0.4684229,1.67E+07,10.5791,87.8996865,0.042,0.38406,0.0164994
1.108,90.4307685,1470.430769,162.6782705,162.6782711,140.8187463,140.8187495,-0.0041662,1.03E-04,0.0041675,271.4181293,0.0136479,0.0303426,43.8,-120.6300001,1.89E-04,0,0,0,89.995105,274.4371799,7275.129064,1493.4068,2.0410724,0.0217153,9.800589,143.1861253,111.9367794,2.9538757,1180.207923,16.5525781,84.4328258,0.6840203,0.2556327,0.2776579,0.1507297,0.6840203,4.84E-05,2.11E-04,3.77E-05,0,0,0,0,0,0,0,5.4422,848.7053287,0.0010613,334.5968732,0.4861918,1.73E+07,10.5791,87.8996865,0.05,0.3889617,0.017124
1.158,98.7402487,1478.740249,169.6916348,169.6916355,139.7027346,139.7027384,-0.0048868,1.34E-04,0.0048886,271.5765379,0.0152223,0.0324357,43.8,-120.6300001,1.70E-04,0,0,0,89.9947003,273.0978513,7244.672632,1462.950368,2.0366917,0.0217042,9.8005634,143.2545412,111.79761,2.9734979,1176.106641,16.5644451,93.0041955,0.6930535,0.2541672,0.2854433,0.153443,0.6930535,4.36E-05,2.75E-04,-8.07E-05,0,0,0,0,0,0,0,5.3881884,847.8214382,0.0010604,334.5641422,0.5072021,1.80E+07,10.5791,87.8996865,0.05,0.3957515,0.0178622
1.208,107.3989698,1487.39897,176.6472792,176.64728,138.5109126,138.5109169,-0.0056885,1.68E-04,0.005691,271.6904155,0.0168841,0.0343621,43.8,-120.6300001,2.21E-04,0,0,0,89.9943203,271.4182848,7214.2162,1432.493936,2.0322827,0.0216931,9.8005368,143.3329369,111.6572656,2.9941745,1172.005359,16.5764138,102.0545048,0.7024051,0.2527411,0.2934158,0.1562482,0.7024051,5.71E-05,-9.37E-05,2.28E-04,0,0,0,0,0,0,0,5.3319067,846.9003984,0.0010594,334.5300355,0.5280461,1.88E+07,10.5791,87.8996865,0.05,0.4044236,0.0185944
1.258,116.403953,1496.403953,183.5415043,183.5415053,137.245878,137.2458828,-0.0065758,2.02E-04,0.0065789,271.7565297,0.018651,0.0361013,43.8,-120.6300001,2.69E-04,0,0,0,89.9939569,270.5505529,7183.759768,1402.037504,2.0278451,0.021682,9.8005091,143.4225673,111.5157311,3.0160256,1167.904077,16.5884855,111.5581642,0.7118728,0.2513504,0.3013812,0.1591412,0.7118728,6.97E-05,5.71E-04,1.62E-04,0,0,0,0,0,0,0,5.2733743,845.9425263,0.0010585,334.4945648,0.548713,1.95E+07,10.5791,87.8996865,0.003,0.4123534,0.0193201
1.261,116.955195,1496.955195,183.9531247,183.9531256,137.1676381,137.1676429,-0.0066319,2.04E-04,0.006635,271.758819,0.018759,0.0360253,43.8,-120.6300001,2.52E-04,0,0,0,89.9939569,270.5505529,7181.932382,1400.210118,2.0275779,0.0216814,9.8005074,143.4283107,111.5072009,3.0173748,1167.658,16.5892131,112.1427239,0.7124442,0.251268,0.3018588,0.1593174,0.7124442,6.51E-05,3.25E-04,1.23E-04,0,0,0,0,0,0,0,5.2697912,845.88389,0.0010584,334.4923935,0.5499471,1.95E+07,10.5791,87.8996865,0.0045,0.4208031,0.0193634
1.2655,117.7843723,1497.784372,184.5699809,184.5699819,136.9905932,136.9905979,-0.0067166,2.07E-04,0.0067198,271.7619227,0.0189206,0.0359045,43.8,-120.6300001,2.26E-04,0,0,0,89.9939569,270.5505529,7179.259674,1397.53741,2.027187,0.0216804,9.8005049,143.4369909,111.4947169,3.0193754,1166.877744,16.5843039,113.0263407,0.7133268,0.2511447,0.3025997,0.1595823,0.7133268,5.86E-05,-1.62E-04,-4.37E-04,0,0,0,0,0,0,0,5.2644016,845.7956893,0.0010583,334.4891274,0.5517967,1.96E+07,10.5791,87.8996865,0.00675,0.4296603,0.0194284
1.27225,119.0333384,1499.033338,185.4937681,185.4937691,136.7238938,136.7238984,-0.006845,2.11E-04,0.0068483,271.7658645,0.019162,0.0357219,43.8,-120.6300001,1.92E-04,0,0,0,89.9939569,270.5505529,7175.250612,1393.528348,2.0266001,0.0216789,9.800501,143.4501522,111.4759734,3.0223912,1165.70736,16.5769331,114.3581145,0.7146524,0.2509602,0.3037115,0.1599807,0.7146524,4.97E-05,-2.05E-04,3.29E-04,0,0,0,0,0,0,0,5.2562833,845.6628351,0.0010582,334.4842077,0.5545666,1.97E+07,10.5791,87.8996865,0.010125,0.4383192,0.0195256
1.282375,120.9184641,1500.918464,186.876062,186.876063,136.3212679,136.3212725,-0.0070408,2.18E-04,0.0070441,271.770267,0.0195218,0.0354454,43.8,-120.6300001,1.53E-04,0,0,0,89.9939569,270.5505529,7169.23702,1387.514756,2.0257189,0.0216767,9.8004952,143.4702,111.4478189,3.0269476,1163.951784,16.5658617,116.370239,0.7166425,0.2506848,0.3053771,0.1605806,0.7166425,3.96E-05,-4.81E-06,4.23E-04,0,0,0,0,0,0,0,5.24403,845.4670469,0.001058,334.4767822,0.5587116,1.98E+07,10.5791,87.8996865,0.0151875,0.4426897,0.0196711
1.2975625,123.7723429,1503.772343,188.9418199,188.941821,135.7115945,135.7115993,-0.0073412,2.27E-04,0.0073447,271.7737738,0.0200578,0.0357494,43.8,-120.6300001,1.27E-04,0,0,0,89.9938713,270.7100511,7160.216631,1378.494367,2.0243949,0.0216735,9.8004864,143.500933,111.4054984,3.033853,1161.318419,16.5492196,119.4204059,0.7196309,0.2502742,0.3078711,0.1614855,0.7196309,3.29E-05,5.37E-05,3.68E-04,0,0,0,0,0,0,0,5.2254798,845.1781893,0.0010577,334.4655407,0.5649067,2.00E+07,10.5791,87.8996865,0.0227813,0.4529,0.0198886
1.3203438,128.11181,1508.11181,192.0229684,192.0229695,134.784548,134.7845529,-0.0078072,2.42E-04,0.007811,271.7735082,0.0208803,0.0365708,43.8,-120.6300001,9.90E-05,0,0,0,89.993698,271.1004753,7146.686047,1364.963783,2.0224041,0.0216685,9.8004731,143.5485552,111.3418175,3.0443741,1157.368373,16.524178,124.0646293,0.7241205,0.2496647,0.3116018,0.162854,0.7241205,2.57E-05,1.03E-04,-4.08E-04,0,0,0,0,0,0,0,5.1972732,844.7389666,0.0010572,334.4484476,0.5741482,2.04E+07,10.5791,87.8996865,0.0341719,0.4702264,0.0202129
1.3545156,134.7520156,1514.752016,196.6046666,196.6046678,133.3659902,133.3659954,-0.0085419,2.63E-04,0.008546,271.7649218,0.0221405,0.0369752,43.8,-120.6300001,4.88E-05,0,0,0,89.9935307,271.2178241,7126.390172,1344.667908,2.019407,0.0216611,9.8004527,143.6232695,111.2458426,3.0605086,1151.443303,16.4864377,131.1833813,0.7308676,0.248764,0.3171732,0.1649304,0.7308676,1.27E-05,2.42E-04,-4.84E-04,0,0,0,0,0,0,0,5.1541119,844.0668729,0.0010566,334.4222918,0.5878934,2.08E+07,10.5791,87.8996865,0.05,0.4712932,0.0206952
1.4045156,144.748074,1524.748074,203.2198492,203.2198507,131.2275537,131.2275587,-0.0096938,2.95E-04,0.0096983,271.7425622,0.0239783,0.036226,43.8,-120.6300001,2.31E-04,0,0,0,89.9934277,272.6939411,7096.693418,1314.971154,2.0149978,0.0216503,9.8004219,143.7386888,111.1044237,3.0847865,1142.773791,16.4308282,141.941497,0.7408736,0.2474742,0.3253833,0.1680162,0.7408736,6.04E-05,-2.32E-04,2.62E-04,0,0,0,0,0,0,0,5.0891375,843.0551137,0.0010555,334.3829173,0.6077459,2.15E+07,10.5791,87.8996865,0.05,0.4723353,0.0213915
1.4545156,155.0721859,1535.072186,209.7261819,209.7261835,129.014208,129.0142126,-0.0109365,3.30E-04,0.0109415,271.7276314,0.0257146,0.0345547,43.8,-120.6300001,4.68E-04,0,7.36E-06,-3.12E-08,89.9934277,272.6939411,7066.996664,1285.2744,2.01056,0.0216395,9.8003902,143.8608648,110.9618163,3.1098154,1134.104279,16.3747522,153.1019917,0.7510631,0.246216,0.3336947,0.1711524,0.7510631,1.23E-04,3.47E-04,1.69E-04,0,0,0,0,0,0,0,5.0220308,842.0101504,0.0010545,334.3422507,0.6272799,2.22E+07,10.5791,87.8996865,0.0524844,0.4734408,0.0220764
1.507,166.2561335,1546.256134,216.4348352,216.434837,126.6172914,126.6172965,-0.0123335,3.71E-04,0.012339,271.7225673,0.027545,0.0360143,43.8,-120.6300002,4.14E-04,0,2.79E-05,-1.71E-05,89.993104,270.6175814,7035.824353,1254.102089,2.0058705,0.0216281,9.8003558,143.9959325,110.810828,3.1368552,1125.004,16.3153816,165.193412,0.7617457,0.2449275,0.3423266,0.1744916,0.7617457,1.09E-04,6.42E-05,-4.73E-04,0,0,0,0,0,0,0,4.9493351,840.8781582,0.0010533,334.2981971,0.6474305,2.29E+07,10.5791,87.8996865,0.05,0.4748128,0.0227825
1.557,177.2352134,1557.235213,222.7095434,222.7095453,124.3591877,124.3591947,-0.0137567,4.09E-04,0.0137628,271.7014279,0.0294922,0.041647,43.8,-120.6300002,2.54E-04,0,0,0,89.9923804,269.5066067,7007.163537,1225.441274,2.0015303,0.0216177,9.800322,144.130026,110.6708192,3.162765,1117.195841,16.26847,177.1182295,0.7721828,0.2437289,0.350742,0.1777119,0.7721828,6.73E-05,6.26E-04,2.25E-04,0,0,0,0,0,0,0,4.8779711,839.7669017,0.0010522,334.2549505,0.6662865,2.35E+07,10.5791,87.8996865,0.05,0.476019,0.023443
1.607,188.5251778,1568.525178,228.8696658,228.869668,122.035217,122.0352262,-0.0152855,4.42E-04,0.0152919,271.6576262,0.0317098,0.0475532,43.8,-120.6300002,4.97E-04,0,-3.28E-05,-1.53E-05,89.9916157,269.6108661,6978.502722,1196.780458,1.9971623,0.0216072,9.8002873,144.2679438,110.5296604,3.189145,1109.387682,16.2211739,189.373266,0.7826245,0.2425569,0.3591026,0.1809649,0.7826245,1.32E-04,4.85E-04,2.13E-04,0,0,0,0,0,0,0,4.8045863,838.6241789,0.0010511,334.2104793,0.684807,2.41E+07,10.5791,87.8996865,0.05,0.4772103,0.0240915
1.657,200.1202174,1580.120217,234.9120134,234.9120158,119.6470415,119.6470511,-0.0169312,4.72E-04,0.0169378,271.598048,0.0340824,0.0478812,43.8,-120.6300002,3.67E-04,0,-4.74E-06,-1.94E-05,89.9913235,271.3274197,6949.841907,1168.119643,1.9927664,0.0215968,9.8002516,144.4100992,110.3873372,3.2160356,1101.579523,16.1734885,201.9413116,0.7930788,0.2414109,0.3674239,0.184244,0.7930788,9.79E-05,5.69E-04,-1.43E-05,0,0,0,0,0,0,0,4.7292186,837.4505776,0.0010499,334.1648065,0.7029825,2.48E+07,10.5791,87.8996865,0.05,0.478519,0.0247275
1.707,212.0143579,1592.014358,240.8331096,240.8331123,117.18715,117.1871574,-0.0186923,5.05E-04,0.0186991,271.5482137,0.0362946,0.0416974,43.8,-120.6300002,4.63E-04,0,-2.23E-05,-9.72E-06,89.9915967,273.8255883,6921.181092,1139.458828,1.988342,0.0215863,9.800215,144.5549543,110.2438354,3.2432928,1093.771364,16.1254087,214.8688337,0.8037974,0.2402902,0.3759648,0.1875423,0.8037974,1.24E-04,8.03E-04,4.78E-04,0,0,0,0,0,0,0,4.6519067,836.2467026,0.0010487,334.1179554,0.7208027,2.54E+07,10.5791,87.8996865,0.039,0.4799167,0.0253508
1.746,221.4954758,1601.495476,245.3653343,245.3653372,115.2290777,115.2290838,-0.0201376,5.37E-04,0.0201447,271.5266716,0.0378108,0.037495,43.8,-120.6300003,5.99E-04,0,9.33E-06,-4.09E-05,89.9917553,272.225695,6898.825656,1117.103392,1.9848711,0.0215782,9.8001859,144.6695522,110.1310762,3.264784,1087.681,16.0876297,225.1259333,0.8120953,0.2394335,0.3825377,0.1901241,0.8120953,1.61E-04,4.09E-04,8.05E-05,0,0,0,0,0,0,0,4.5902794,835.2870636,0.0010477,334.0806093,0.7344495,2.58E+07,10.5791,87.8996865,0.05,0.4811524,0.0258278
1.796,233.9062369,1613.906237,251.0341679,251.034171,111.5163789,111.516387,-0.0220745,5.79E-04,0.0220821,271.5019176,0.0397704,0.0426965,43.8,-120.6300003,5.33E-04,0,9.83E-07,-6.32E-05,89.9911688,268.0833442,6871.131714,1089.40945,1.9805468,0.0215681,9.8001477,144.8177594,109.9903726,3.2920935,1071.999487,15.9196562,238.417676,0.8226367,0.2383626,0.3908509,0.1934233,0.8226367,1.44E-04,3.85E-04,-3.21E-04,0,0,0,0,0,0,0,4.5096095,834.0308984,0.0010464,334.0317233,0.7515279,2.64E+07,10.5791,87.8996865,0.05,0.4822455,0.0264246
1.846,246.5957736,1626.595774,256.515852,256.5158555,107.7429193,107.7429322,-0.0241194,6.09E-04,0.0241271,271.4457989,0.0420811,0.0528951,43.8,-120.6300003,6.22E-04,0,-2.52E-05,-6.35E-05,89.9901476,267.9977308,6843.437772,1061.715508,1.9761951,0.021558,9.8001087,144.9655317,109.8485301,3.3194697,1056.317975,15.7503227,251.9195895,0.8335068,0.23741,0.399409,0.1966878,0.8335068,1.69E-04,8.35E-04,-9.55E-05,0,0,0,0,0,0,0,4.4271275,832.7465167,0.0010451,333.9817392,0.7680535,2.69E+07,10.5791,87.8996865,0.019,0.4833119,0.0270016
1.865,251.4889353,1631.488935,258.5492226,258.5492262,106.2953936,106.295408,-0.0249286,6.15E-04,0.0249362,271.4141805,0.0431108,0.0553346,43.8,-120.6300003,6.35E-04,0,-1.96E-05,-4.94E-05,89.9898341,269.4380008,6832.914074,1051.191811,1.9745342,0.0215542,9.8000936,145.0215241,109.7943285,3.3298859,1050.359,15.6856159,257.0885212,0.8376844,0.2371714,0.4025956,0.1979174,0.8376844,1.73E-04,9.42E-04,1.38E-05,0,0,0,0,0,0,0,4.3953219,832.2512514,0.0010446,333.9624651,0.7741865,2.71E+07,10.5791,87.8996865,0.0285,0.4845156,0.0272157
1.8935,258.9006157,1638.900616,261.5637057,261.5637096,105.2446438,105.2446574,-0.0261797,6.25E-04,0.0261871,271.3665292,0.044678,0.0534208,43.8,-120.6300003,4.74E-04,0,-1.87E-06,-3.51E-05,89.9897879,271.6456918,6817.44345,1035.721186,1.9720852,0.0215485,9.8000708,145.1059182,109.7143443,3.3454239,1049.190062,15.7037513,264.8792382,0.8439047,0.236814,0.4073319,0.1997589,0.8439047,1.29E-04,5.64E-04,8.17E-05,0,0,0,0,0,0,0,4.347146,831.5010722,0.0010439,333.9332705,0.7832814,2.74E+07,10.5791,87.8996865,0.04275,0.4856125,0.027533
1.93625,270.1781483,1650.178148,266.0287211,266.0287252,103.639267,103.6392755,-0.0281352,6.44E-04,0.0281425,271.3111804,0.0467431,0.041917,43.8,-120.6300004,4.34E-04,0,-2.39E-05,-4.11E-05,89.9903348,271.5970308,6794.237514,1012.51525,1.9683953,0.0215401,9.8000361,145.2330785,109.593685,3.3688493,1047.436654,15.7311099,276.7031135,0.8531773,0.2362767,0.4143735,0.2025271,0.8531773,1.19E-04,2.27E-04,4.26E-04,0,0,0,0,0,0,0,4.273842,830.3596076,0.0010427,333.8888483,0.7967583,2.79E+07,10.5791,87.8996865,0.05,0.4867943,0.028003
1.98625,283.6083296,1663.60833,271.1622956,271.1623,101.6913441,101.6913505,-0.0305192,6.68E-04,0.0305265,271.254577,0.0485767,0.0361145,43.8,-120.6300004,8.25E-04,0,3.17E-05,-2.75E-06,89.9905373,269.3749885,6767.096067,985.3738034,1.9640543,0.0215302,9.7999948,145.3822105,109.451513,3.3963851,1045.385885,15.7633473,290.9133199,0.8644944,0.2356474,0.4230769,0.2057701,0.8644944,2.27E-04,5.21E-04,4.45E-04,0,0,0,0,0,0,0,4.1865459,829.000261,0.0010413,333.8359468,0.8122621,2.84E+07,10.5791,87.8996865,0.00875,0.4878916,0.0285434
1.995,285.9848881,1665.984888,272.0505788,272.0505831,101.3445834,101.3445903,-0.0309456,6.72E-04,0.0309529,271.2442019,0.0488949,0.0374514,43.8,-120.6300004,7.36E-04,0,4.69E-05,-4.78E-07,89.9904179,269.4987519,6762.346314,980.6240503,1.9632918,0.0215284,9.7999875,145.4086229,109.4265156,3.4012447,1045.027,15.7690155,293.4289561,0.8664883,0.2355372,0.4246133,0.2063378,0.8664883,2.02E-04,0.0010066,2.86E-04,0,0,0,0,0,0,0,4.1710982,828.7597157,0.0010411,333.8265855,0.8149458,2.85E+07,10.5791,87.8996865,0.013125,0.4891094,0.0286369
2.008125,289.5641924,1669.564192,273.3604682,273.3604726,98.25875,98.2587582,-0.0315907,6.77E-04,0.0315979,271.2283171,0.0494026,0.04006,43.8,-120.6300004,5.31E-04,0,6.17E-05,1.15E-05,89.990168,269.9293011,6755.693034,973.9707701,1.9622223,0.021526,9.7999765,145.4478851,109.391441,3.4082714,1027.175125,15.5149204,297.163572,0.869434,0.235374,0.4268814,0.2071785,0.869434,1.46E-04,6.39E-04,3.40E-05,0,0,0,0,0,0,0,4.1478327,828.3974335,0.0010407,333.8124866,0.8189043,2.86E+07,10.5791,87.8996865,0.0196875,0.4917775,0.0287748
2.0278125,294.9647206,1674.964721,275.2494758,275.2494804,93.6431762,93.6431874,-0.0325714,6.85E-04,0.0325786,271.2046251,0.0502407,0.0458435,43.8,-120.6300004,1.28E-04,0,0,0,89.9896678,270.571437,6745.713114,963.9908497,1.9606149,0.0215224,9.7999599,145.505104,109.3386994,3.4186655,1000.397313,15.1328369,302.5996196,0.8736944,0.2351372,0.4301583,0.2083988,0.8736944,3.54E-05,1.24E-04,3.33E-04,0,0,0,0,0,0,0,4.1127293,827.8508147,0.0010402,333.791214,0.8246157,2.88E+07,10.5791,87.8996865,0.0295313,0.4928884,0.0289736
2.0573438,303.1330115,1683.133012,277.913025,277.9130298,86.7521148,86.7521325,-0.0340764,6.96E-04,0.0340835,271.1708414,0.0517322,0.0553339,43.8,-120.6300004,5.03E-04,0,-6.69E-05,1.65E-08,89.9888337,270.642771,6730.743233,949.0209691,1.9581968,0.0215169,9.7999348,145.5853427,109.2592937,3.4337561,960.2305937,14.5575849,310.3635539,0.8797268,0.2348002,0.4347913,0.2101353,0.8797268,1.39E-04,3.47E-04,-3.81E-04,0,0,0,0,0,0,0,4.0596354,827.0240545,0.0010393,333.7590391,0.8326757,2.91E+07,10.5791,87.8996865,0.0356562,0.4940971,0.029254
2.093,313.0957404,1693.09574,280.8587664,280.8587715,78.488867,78.4888884,-0.0359575,7.11E-04,0.0359645,271.1323531,0.0538049,0.0579731,43.8,-120.6300004,7.12E-04,0,-1.67E-05,-5.68E-06,89.9883248,271.1616298,6712.668488,930.9462244,1.9552657,0.0215103,9.7999041,145.6756213,109.1629467,3.4513971,911.733,13.8595984,319.0797597,0.8864344,0.2344232,0.4399333,0.2120779,0.8864344,1.98E-04,0.0010201,3.98E-04,0,0,0,0,0,0,0,3.9948777,826.0156689,0.0010383,333.7197959,0.8416006,2.93E+07,10.5791,87.8996865,0.05,0.4951655,0.029564
2.143,327.2283209,1707.228321,284.2756441,284.2756496,58.2328625,58.2328777,-0.0387126,7.38E-04,0.0387196,271.0916075,0.0562404,0.0419908,43.8,-120.6300005,2.51E-04,0,-1.23E-05,-1.61E-05,89.9887555,271.8194712,6691.19014,909.467876,1.9517665,0.0215025,9.7998607,145.7831249,109.0477802,3.4724452,784.5906923,11.9651977,329.3708383,0.8944126,0.2339797,0.4460695,0.2143634,0.8944126,7.00E-05,4.00E-04,2.36E-04,0,0,0,0,0,0,0,3.9030159,824.5852284,0.0010368,333.6641276,0.8519815,2.97E+07,10.5791,87.8996865,0.015,0.4962684,0.0299237
2.158,331.4987806,1711.498781,285.103929,285.1039347,52.2101849,52.2101989,-0.0395607,7.47E-04,0.0395678,271.0822464,0.0568415,0.0382241,43.8,-120.6300005,3.47E-04,0,-4.62E-06,-7.47E-06,89.988835,271.8573366,6684.746635,903.0243715,1.9507132,0.0215001,9.7998475,145.8092259,109.0130859,3.4781919,746.448,11.3945004,331.9266818,0.8965036,0.2338709,0.447709,0.2149237,0.8965036,9.67E-05,5.95E-05,3.87E-04,0,0,0,0,0,0,0,3.8752579,824.1529903,0.0010364,333.6473063,0.8545069,2.97E+07,10.5791,87.8996865,0.0225,0.4973209,0.0300109
2.1805,337.9262769,1717.926277,286.2043327,286.2043385,45.6125174,45.6125304,-0.0408488,7.63E-04,0.040856,271.0706789,0.0576598,0.0343943,43.8,-120.6300005,4.28E-04,0,9.83E-06,-2.11E-05,89.9888745,271.2184136,6677.163606,895.4413422,1.9494716,0.0214974,9.7998278,145.8441972,108.9721702,3.4853652,705.3171429,10.7788885,335.3198903,0.8992918,0.2337256,0.4498938,0.2156724,0.8992918,1.19E-04,1.15E-04,2.45E-04,0,0,0,0,0,0,0,3.8334792,823.5024261,0.0010357,333.6219884,0.8578701,2.98E+07,10.5791,87.8996865,0.03375,0.4985025,0.0301267
2.21425,347.6097857,1727.609786,287.5781342,287.5781403,35.8187126,35.8187292,-0.0428137,7.88E-04,0.0428209,271.0547081,0.0587737,0.0344843,43.8,-120.6300005,3.44E-04,0,3.73E-05,-3.35E-05,89.9886042,270.0002981,6665.789062,884.0667983,1.947605,0.0214932,9.799798,145.8885414,108.9106221,3.4953748,643.6208571,9.8528398,339.5375303,0.9027932,0.2335427,0.4526354,0.2166151,0.9027932,9.61E-05,4.68E-04,3.39E-05,0,0,0,0,0,0,0,3.7705364,822.522302,0.0010347,333.5838451,0.8620865,3.00E+07,10.5791,87.8996865,0.04875,0.4999852,0.0302713
2.263,361.6662409,1741.666241,288.9838091,288.9838155,21.8941518,21.8941956,-0.0457242,8.20E-04,0.0457316,271.027093,0.0606548,0.0438014,43.8,-120.6300006,4.95E-04,0,-5.82E-05,-3.72E-05,89.9875824,269.0789512,6649.359165,867.6369014,1.9448999,0.0214872,9.7997548,145.9343121,108.8213476,3.5081401,554.504,8.5096105,343.7598602,0.9064188,0.2333526,0.4554719,0.2175943,0.9064188,1.38E-04,2.24E-04,4.12E-04,0,0,0,0,0,0,0,3.6791694,821.0995665,0.0010333,333.5284767,0.8664442,3.01E+07,10.5791,87.8996865,0.05,0.5010252,0.0304193
2.313,376.138932,1756.138932,289.8468958,289.8469026,12.6620374,12.6620902,-0.0488166,8.42E-04,0.0488238,270.9877426,0.0628559,0.0365471,43.8,-120.6300006,7.16E-05,0,0,0,89.987504,270.3848493,6636.927966,855.2057018,1.942846,0.0214827,9.7997102,145.9639305,108.7535069,3.5173525,495.2623333,7.6147379,346.1853709,0.908699,0.2332328,0.4572545,0.2182117,0.908699,2.01E-05,3.06E-04,-6.88E-05,0,0,0,0,0,0,0,3.5850969,819.6347014,0.0010318,333.4714687,0.8691805,3.01E+07,10.5791,87.8996865,0.05,0.5021282,0.0305102
2.363,390.6433189,1770.643319,290.2532646,290.2532717,3.6251232,3.6252116,-0.051995,8.62E-04,0.0520021,270.9498512,0.0641948,0.0253188,43.8,-120.6300006,6.22E-04,0,3.16E-05,2.73E-05,89.9878557,271.9818249,6624.496766,842.7745022,1.9407861,0.0214782,9.7996656,145.9776968,108.6854116,3.5250905,436.0206667,6.7164985,347.0882512,0.9098398,0.2331728,0.458146,0.2185211,0.9098398,1.74E-04,4.81E-04,-4.97E-04,0,0,0,0,0,0,0,3.4908184,818.1666282,0.0010303,333.414336,0.8705483,3.01E+07,10.5791,87.8996865,0.026,0.5032994,0.0305529
2.389,398.1906067,1778.190607,290.2873072,290.2873145,-0.9978089,0.9982898,-0.053673,8.77E-04,0.0536801,270.9364522,0.0649017,0.0309826,43.8,-120.6300007,4.22E-04,0,8.97E-06,6.69E-05,89.9873168,272.3940377,6618.032542,836.3102784,1.9397125,0.0214758,9.7996424,145.9798938,108.649901,3.5286549,405.215,6.2480772,346.9642263,0.9099898,0.2331649,0.4582631,0.2185617,0.9099898,1.18E-04,-6.66E-05,3.21E-04,0,0,0,0,0,0,0,3.4417611,817.4027234,0.0010295,333.3846072,0.870728,3.01E+07,10.5791,87.8996865,0.039,0.5045647,0.0305565
2.428,409.5093864,1789.509386,290.1203879,290.1203955,-7.5426596,7.5427635,-0.0562288,9.08E-04,0.0562362,270.9256377,0.0662723,0.0396047,43.8,-120.6300007,6.25E-04,0,-2.35E-05,4.62E-05,89.9864012,272.350399,6611.999262,830.2769976,1.9387089,0.0214736,9.7996076,145.9755157,108.616695,3.5313799,360.9726117,5.570995,346.0497055,0.9096691,0.2331818,0.4580126,0.2184748,0.9096691,1.75E-04,6.82E-04,-9.93E-05,0,0,0,0,0,0,0,3.368189,816.2570839,0.0010284,333.3400225,0.8703437,3.01E+07,10.5791,87.8996865,0.05,0.5056775,0.0305389
2.478,424.002532,1804.002532,289.5369101,289.5369181,-15.7654143,15.7654415,-0.0595906,9.57E-04,0.0595982,270.9200197,0.0680512,0.0292769,43.8,-120.6300007,4.40E-05,0,0,0,89.9865219,270.6167816,6604.264286,822.5420224,1.9374202,0.0214708,9.799563,145.9593129,108.5740345,3.5338808,304.2516011,4.7011241,343.6517078,0.9083335,0.233252,0.4569688,0.2181127,0.9083335,1.23E-05,-9.46E-05,1.62E-04,0,0,0,0,0,0,0,3.2739835,814.7901485,0.0010269,333.282934,0.8687421,3.00E+07,10.5791,87.8996865,0.05,0.506775,0.0304775
2.528,438.456302,1818.456302,288.546877,288.5468853,-23.806221,23.806231,-0.0630243,0.0010014,0.0630323,270.9103375,0.0691913,0.021853,43.8,-120.6300008,5.06E-04,0,1.51E-05,-3.89E-05,89.9866333,269.2111241,6596.529311,814.8070471,1.936129,0.021468,9.7995186,145.9287446,108.531274,3.5350333,247.5305904,3.8292052,339.9262731,0.9059819,0.2333756,0.4551302,0.2174762,0.9059819,1.41E-04,9.86E-04,-2.56E-04,0,0,0,0,0,0,0,3.180034,813.3271985,0.0010254,333.2260006,0.8659195,2.98E+07,10.5791,87.8996865,0.049,0.5079167,0.0303733
2.577,452.5634174,1832.563417,287.1907691,287.1907777,-31.5180867,31.5180965,-0.0664439,0.001036,0.066452,270.8932742,0.0703774,0.0248914,43.8,-120.6300008,1.42E-04,0,0,0,89.9859676,269.9319953,6588.949035,807.2267713,1.9348613,0.0214652,9.7994752,145.88785,108.4892713,3.535138,191.944,2.9727307,335.0468775,0.902716,0.2335467,0.452575,0.2165943,0.902716,3.98E-05,3.00E-04,-3.93E-05,0,0,0,0,0,0,0,3.0883378,811.8993355,0.0010239,333.1704327,0.8619936,2.97E+07,10.5791,87.8996865,0.05,0.5091242,0.0302305
2.627,466.8810133,1846.881013,285.4624369,285.4624459,-37.5934627,37.593472,-0.0699952,0.0010689,0.0700034,270.8748952,0.0716977,0.0264557,43.8,-120.6300009,3.73E-04,0,-2.67E-05,-1.10E-05,89.9854055,271.7394265,6585.357802,803.6355379,1.9342599,0.0214639,9.7994312,145.8346713,108.4693383,3.5319954,145.9802069,2.2621101,329.0138994,0.8985295,0.2337654,0.4492966,0.2154675,0.8985295,1.04E-04,8.47E-04,8.34E-05,0,0,0,0,0,0,0,2.9952734,810.4501684,0.0010224,333.1140357,0.8569511,2.94E+07,10.5791,87.8996865,0.05,0.5101354,0.0300486
2.677,481.1046517,1861.104652,283.4335149,283.4335243,-43.5431801,43.5431866,-0.0736078,0.0011061,0.0736161,270.8608777,0.0728401,0.0239244,43.8,-120.6300009,2.79E-04,0,-5.89E-06,2.90E-05,89.9850967,271.4622252,6581.766568,800.0443045,1.933658,0.0214626,9.7993874,145.7729508,108.4493836,3.5280475,100.0164138,1.5507075,322.1102334,0.8936035,0.2340217,0.4454349,0.2141469,0.8936035,7.77E-05,6.38E-04,-1.24E-04,0,0,0,0,0,0,0,2.9028198,809.0105114,0.0010209,333.0580088,0.8510035,2.92E+07,10.5791,87.8996865,0.016,0.5110684,0.029835
2.693,485.6339341,1865.633934,282.7217649,282.7217744,-45.4262163,45.426222,-0.0747762,0.0011192,0.0747845,270.857516,0.0732154,0.0227843,43.8,-120.6300009,1.74E-04,0,0,0,89.9850081,270.9645999,6580.617374,798.8951098,1.9334653,0.0214622,9.7993735,145.7514743,108.4429935,3.5266214,85.308,1.3228933,319.7546751,0.891951,0.2341114,0.444155,0.2136847,0.891951,4.84E-05,5.08E-04,-4.46E-04,0,0,0,0,0,0,0,2.8733794,808.5520764,0.0010205,333.0401679,0.8489119,2.91E+07,10.5791,87.8996865,0.024,0.5120946,0.0297601
2.717,492.4060059,1872.406006,281.6105732,281.6105829,-47.17066,47.1706641,-0.0765395,0.0011392,0.076548,270.8527038,0.073727,0.0195277,43.8,-120.630001,1.94E-04,0,0,0,89.9850382,269.903188,6579.82178,798.0995163,1.9333318,0.0214619,9.7993527,145.7177773,108.4385683,3.5238545,70.2536471,1.0895756,316.1502497,0.8894822,0.2342511,0.4422665,0.2129646,0.8894822,5.39E-05,-2.40E-04,-4.06E-04,0,0,0,0,0,0,0,2.829361,807.8666357,0.0010198,333.0134927,0.8456432,2.90E+07,10.5791,87.8996865,0.036,0.5130152,0.0296431
2.753,502.5128588,1882.512859,279.8657106,279.8657204,-49.7609889,49.760991,-0.0792044,0.0011655,0.0792129,270.8430407,0.0742793,0.0144568,43.8,-120.630001,5.73E-04,0,5.56E-06,-8.18E-07,89.9851919,268.9261214,6578.62839,796.9061261,1.9331316,0.0214615,9.7993216,145.6646259,108.4319284,3.5194579,47.6721176,0.7394913,310.5651466,0.8856087,0.2344697,0.4393009,0.2118381,0.8856087,1.59E-04,8.61E-04,7.43E-05,0,0,0,0,0,0,0,2.7636664,806.8436625,0.0010187,332.9736818,0.840504,2.88E+07,10.5791,87.8996865,0.008,0.5139722,0.0294595
2.761,504.750186,1884.750186,279.4653356,279.4653455,-50.3325005,50.3325023,-0.079799,0.0011705,0.0798076,270.8403454,0.0743814,0.0136618,43.8,-120.630001,5.98E-04,0,2.18E-05,-4.65E-06,89.9851919,268.9261214,6578.363192,796.6409283,1.9330871,0.0214614,9.7993147,145.6525645,108.4304526,3.5184573,42.654,0.6616773,309.2960887,0.8847205,0.2345198,0.4386204,0.2115804,0.8847205,1.66E-04,1.41E-04,4.67E-04,0,0,0,0,0,0,0,2.7491238,806.6172096,0.0010185,332.964869,0.8393238,2.87E+07,10.5791,87.8996865,0.012,0.5149729,0.0294173
2.773,508.1001453,1888.100145,278.8611281,278.8611381,-50.3689305,50.3689325,-0.0806924,0.0011773,0.080701,270.83588,0.0745319,0.0141541,43.8,-120.630001,4.89E-04,0,4.86E-05,-1.39E-05,89.9850526,269.1844324,6578.230593,796.5083294,1.9330649,0.0214613,9.7993044,145.6346053,108.4297146,3.5168295,40.5123766,0.6284683,307.3888021,0.8833808,0.2345951,0.4375937,0.211192,0.8833808,1.36E-04,7.66E-04,5.85E-05,0,0,0,0,0,0,0,2.7273491,806.2781408,0.0010181,332.9516735,0.8375424,2.87E+07,10.5791,87.8996865,0.018,0.516017,0.0293538
2.791,513.1114828,1893.111483,277.9539802,277.9539903,-50.4256827,50.4256853,-0.0820363,0.0011864,0.0820449,270.828525,0.0747993,0.016157,43.8,-120.630001,1.94E-04,0,0,0,89.9847439,269.9691826,6578.031695,796.309431,1.9330315,0.0214612,9.799289,145.6079139,108.4286076,3.5144111,37.2999414,0.5786522,304.5417122,0.8813713,0.234708,0.4360528,0.2106104,0.8813713,5.38E-05,5.27E-04,4.28E-04,0,0,0,0,0,0,0,2.6947754,805.7709142,0.0010176,332.9319339,0.8348673,2.86E+07,10.5791,87.8996865,0.027,0.5170143,0.0292583
2.818,520.5978493,1900.597849,276.5912865,276.5912968,-50.5155008,50.515505,-0.0840624,0.0011993,0.084071,270.8173684,0.075303,0.0204913,43.8,-120.630001,2.10E-04,0,-4.99E-05,1.96E-05,89.9842235,270.78194,6577.733347,796.0110835,1.9329814,0.0214611,9.799266,145.5673576,108.426947,3.5107344,32.4812887,0.5039221,300.3018822,0.8783568,0.2348769,0.4337398,0.2097401,0.8783568,5.80E-05,7.35E-05,-3.48E-04,0,0,0,0,0,0,0,2.646114,805.0131756,0.0010168,332.9024451,0.8308479,2.84E+07,10.5791,87.8996865,0.0405,0.5180895,0.0291148
2.8585,531.7583286,1911.758329,274.5425112,274.5425218,-50.6606151,50.6606211,-0.0871307,0.0012204,0.0871392,270.8024488,0.0762147,0.0246009,43.8,-120.6300011,5.60E-04,0,-2.46E-05,1.22E-06,89.9835785,271.1966523,6577.285826,795.5635621,1.9329063,0.021461,9.7992317,145.5063496,108.4244557,3.5052031,25.2533096,0.3918137,294.010358,0.8738339,0.2351294,0.4302656,0.2084389,0.8738339,1.54E-04,7.18E-04,1.72E-04,0,0,0,0,0,0,0,2.5735709,803.8835586,0.0010157,332.8584839,0.8248025,2.82E+07,10.5791,87.8996865,0.05,0.5195522,0.0288992
2.9085,545.4220486,1925.422049,272.0046563,272.0046672,-50.8566051,50.8566078,-0.0909689,0.0012525,0.0909776,270.7888471,0.0772867,0.0164182,43.8,-120.6300011,1.01E-04,0,0,0,89.9837637,270.7897182,6576.733331,795.0110667,1.9328135,0.0214608,9.7991896,145.432778,108.4213797,3.4985394,16.3298787,0.253386,286.3536169,0.8682471,0.2354398,0.4259678,0.2068395,0.8682471,2.78E-05,7.28E-05,4.85E-04,0,0,0,0,0,0,0,2.4847567,802.5005742,0.0010143,332.8046626,0.8173103,2.79E+07,10.5791,87.8996865,0.05,0.5208591,0.028632
2.9585,558.9586233,1938.958623,269.4565457,269.456557,-51.0707673,51.0707684,-0.0948471,0.0012847,0.0948558,270.7760198,0.0778272,0.0107229,43.8,-120.6300012,4.50E-04,0,2.98E-05,-1.51E-05,89.9839004,270.3563484,6576.180835,794.4585712,1.9327208,0.0214606,9.799148,145.3585674,108.4183031,3.4918154,7.4064477,0.1149338,278.8161553,0.8626552,0.2357488,0.421659,0.2052474,0.8626552,1.24E-04,5.11E-05,1.05E-04,0,0,0,0,0,0,0,2.3967689,801.1304589,0.0010129,332.751342,0.8097835,2.76E+07,10.5791,87.8996865,0.0415,0.5219515,0.0283638
3,570.0970376,1950.097038,267.3331816,267.3331931,-51.2620151,51.2620179,-0.0980869,0.0013103,0.0980956,270.7653155,0.0783882,0.0169631,43.8,-120.6300012,8.50E-05,0,0,0,89.9831222,270.2980202,6575.722264,794,1.9326438,0.0214604,9.7991138,145.2982953,108.4157491,3.4863595,0,0,272.6485876,0.8580089,0.2360042,0.4180733,0.2039313,0.8580089,2.33E-05,-7.06E-05,4.46E-04,0,0,0,0,0,0,0,2.3243693,800.0030753,0.0010117,332.7074678,0.8035082,2.73E+07,10.5791,87.8996865,0.05,0.5260033,0.0281403
3.05,583.4000818,1963.400082,264.7976825,264.7976944,-50.1703565,50.1703613,-0.1020321,0.0013401,0.1020409,270.7524984,0.0794892,0.021948,43.8,-120.6300013,5.06E-04,0,4.71E-06,-4.82E-06,89.9822947,270.5002982,6575.722264,794,1.9326438,0.0214604,9.7990728,145.2258696,108.4157491,3.4795134,0,0,265.4704029,0.8526626,0.2363067,0.4139832,0.2023727,0.8526627,1.39E-04,4.70E-04,-4.31E-04,0,0,0,0,0,0,0,2.2378995,798.6565969,0.0010103,332.6550671,0.7960128,2.71E+07,10.5791,87.8996865,0.05,0.5271429,0.0278734
3.1,596.5776913,1976.577691,262.3153636,262.315376,-49.1304376,49.1304393,-0.1060299,0.0013681,0.1060388,270.7392571,0.080395,0.01294,43.8,-120.6300013,2.20E-04,0,-2.23E-05,4.42E-06,89.9826584,270.4493986,6575.722264,794,1.9326438,0.0214604,9.7990323,145.1567979,108.4157491,3.4729844,0,0,258.6324701,0.8476486,0.2366419,0.410146,0.2008608,0.8476486,6.01E-05,-6.41E-05,-2.76E-05,0,0,0,0,0,0,0,2.152245,797.3228146,0.0010089,332.6031605,0.7886737,2.68E+07,10.5791,87.8996865,0.05,0.5280801,0.0276121
3.15,609.6324641,1989.632464,259.8838272,259.8838398,-48.1373158,48.1373173,-0.1100623,0.0013941,0.1100711,270.7257122,0.0809106,0.0116637,43.8,-120.6300014,3.68E-04,0,3.74E-05,1.60E-05,89.9824922,270.9155542,6575.722264,794,1.9326438,0.0214604,9.7989922,145.0893337,108.4157491,3.4666072,0,0,252.1022445,0.8429172,0.2371292,0.4063948,0.1993932,0.8429172,1.00E-04,2.28E-04,-1.72E-04,0,0,0,0,0,0,0,2.067389,796.0014652,0.0010076,332.5517377,0.7814839,2.65E+07,10.5791,87.8996865,0.05,0.5290306,0.0273561
3.2,622.566886,2002.566886,257.5010084,257.5010214,-47.1817863,47.1817901,-0.1141249,0.0014237,0.1141338,270.7147034,0.0816523,0.0188271,43.8,-120.6300014,4.05E-04,0,-3.92E-05,2.43E-05,89.9815389,271.3326616,6575.722264,794,1.9326438,0.0214604,9.7989524,145.0241587,108.4157491,3.4604465,0,0,245.8191952,0.8383008,0.2376068,0.4027261,0.1979679,0.8383008,1.10E-04,1.56E-04,3.68E-04,0,0,0,0,0,0,0,1.9833152,794.7050345,0.0010062,332.500789,0.7744373,2.62E+07,10.5791,87.8996865,0.05,0.5299966,0.0271053
3.25,635.3833453,2015.383345,255.1650152,255.1650286,-46.2635641,46.2635681,-0.1182315,0.0014613,0.1182405,270.7081232,0.082634,0.0191304,43.8,-120.6300015,4.33E-04,0,1.96E-06,2.22E-06,89.9810962,271.3350687,6575.722264,794,1.9326438,0.0214604,9.798913,144.9610351,108.4157491,3.4544797,0,0,239.7814795,0.8337934,0.2380741,0.3991363,0.196583,0.8337934,1.18E-04,5.59E-04,3.27E-04,0,0,0,0,0,0,0,1.9000083,793.4714035,0.001005,332.450305,0.7675283,2.60E+07,10.5791,87.8996865,0.05,0.5309339,0.0268594
3.3,648.0841387,2028.084139,252.8740986,252.8741123,-45.378435,45.3784364,-0.1223831,0.001504,0.1223924,270.7040833,0.083352,0.0112302,43.8,-120.6300015,4.47E-04,0,-3.53E-05,-3.50E-05,89.9814833,269.8228687,6575.722264,794,1.9326438,0.0214604,9.7988739,144.8998866,108.4157491,3.4486996,0,0,233.9613908,0.829392,0.2385329,0.3956225,0.1952366,0.829392,1.21E-04,1.61E-04,-3.71E-04,0,0,0,0,0,0,0,1.8174531,792.2489057,0.0010037,332.4002766,0.7607518,2.57E+07,10.5791,87.8996865,0.05,0.5318509,0.0266182
3.35,660.6714795,2040.67148,250.6266458,250.6266598,-44.5247467,44.5247486,-0.1265618,0.0015411,0.1265712,270.6976369,0.0838409,0.0132152,43.8,-120.6300016,5.83E-04,0,4.60E-05,-4.39E-05,89.9810934,268.8354218,6575.722264,794,1.9326438,0.0214604,9.7988352,144.8404402,108.4157491,3.4430803,0,0,228.3480259,0.8250923,0.2389834,0.3921817,0.1939273,0.8250923,1.58E-04,4.29E-04,-2.72E-04,0,0,0,0,0,0,0,1.7356354,791.0373282,0.0010025,332.350695,0.754103,2.54E+07,10.5791,87.8996865,0.05,0.5327667,0.0263817
3.4,673.1475021,2053.147502,248.4210978,248.4211122,-43.7040748,43.7040787,-0.1307719,0.001567,0.1307812,270.686504,0.0846336,0.0184578,43.8,-120.6300016,3.79E-04,0,-5.33E-05,-2.08E-05,89.9801166,270.6392774,6575.722264,794,1.9326438,0.0214604,9.7987969,144.7832873,108.4157491,3.4376779,0,0,222.9517539,0.8209664,0.2394259,0.3888871,0.1926533,0.8209664,1.02E-04,2.20E-04,3.00E-04,0,0,0,0,0,0,0,1.6545412,789.8364654,0.0010013,332.301552,0.7475773,2.52E+07,10.5791,87.8996865,0.05,0.5337267,0.0261495
3.45,685.5142578,2065.514258,246.2556913,246.2557062,-42.916668,42.9166727,-0.1350275,0.0015957,0.1350369,270.6770856,0.0855908,0.0200885,43.8,-120.6300017,6.76E-04,0,-1.71E-07,1.36E-05,89.9795806,271.7489487,6575.722264,794,1.9326438,0.0214604,9.7987588,144.7271388,108.4157491,3.4323704,0,0,217.7742329,0.8170588,0.2398609,0.3857847,0.1914132,0.8170588,1.82E-04,4.72E-04,1.99E-04,0,0,0,0,0,0,0,1.5741573,788.64612,0.0010001,332.2528393,0.7411696,2.50E+07,10.5791,87.8996865,0.05,0.5348818,0.0259216
3.5,697.7737162,2077.773716,244.1289875,244.1290028,-42.1557613,42.1557641,-0.1393292,0.0016356,0.1393388,270.672552,0.0864379,0.0155447,43.8,-120.6300017,1.35E-04,0,0,0,89.9795848,270.6943038,6575.722264,794,1.9326438,0.0214604,9.7987211,144.6738561,108.4157491,3.4273338,0,0,212.7709792,0.8132375,0.2402887,0.3827433,0.1902055,0.8132375,3.64E-05,-3.55E-04,-1.56E-04,0,0,0,0,0,0,0,1.4944708,787.4661023,9.99E-04,332.2045493,0.7348756,2.47E+07,10.5791,87.8996865,0.05,0.5358432,0.0256977
3.55,709.92778,2089.92778,242.0396923,242.039708,-41.4201173,41.4201192,-0.14367,0.0016773,0.1436798,270.6688919,0.0871392,0.0127486,43.8,-120.6300018,2.43E-04,0,-2.15E-06,-5.30E-06,89.9795246,270.0048517,6575.722264,794,1.9326438,0.0214604,9.7986838,144.6212384,108.4157491,3.4223601,0,0,207.9338418,0.8094992,0.2407094,0.3797609,0.1890288,0.8094992,6.54E-05,1.59E-04,4.90E-04,0,0,0,0,0,0,0,1.4154694,786.2962292,9.98E-04,332.1566745,0.7286914,2.45E+07,10.5791,87.8996865,0.05,0.536819,0.0254778
3.6,721.9782884,2101.978288,239.9865723,239.9865883,-40.7085708,40.7085725,-0.1480423,0.001715,0.1480522,270.6637221,0.0877606,0.0116051,43.8,-120.6300018,3.25E-04,0,1.34E-05,-2.08E-06,89.9793076,269.9234759,6575.722264,794,1.9326438,0.0214604,9.7986467,144.5702004,108.4157491,3.4175356,0,0,203.2551566,0.8058409,0.2411234,0.3768354,0.1878821,0.8058409,8.72E-05,3.72E-04,2.93E-05,0,0,0,0,0,0,0,1.3371411,785.1363238,9.96E-04,332.1092075,0.7226135,2.42E+07,10.5791,87.8996865,0.05,0.5380361,0.0252617
3.65,733.9270205,2113.927021,237.9684501,237.9684665,-40.0200257,40.0200279,-0.1524447,0.0017487,0.1524547,270.6572078,0.0883246,0.013222,43.8,-120.6300019,1.09E-04,0,0,0,89.9788017,270.1769572,6575.722264,794,1.9326438,0.0214604,9.79861,144.5210784,108.4157491,3.4128923,0,0,198.727713,0.8022598,0.241531,0.3739647,0.1867642,0.8022598,2.93E-05,2.18E-04,2.68E-04,0,0,0,0,0,0,0,1.2594744,783.9862146,9.95E-04,332.0621415,0.7166384,2.40E+07,10.5791,87.8996865,0.05,0.5390021,0.0250493
3.7,745.7756979,2125.775698,235.9842017,235.9842186,-39.3534494,39.3534533,-0.1568797,0.0017793,0.1568898,270.6497943,0.0891021,0.0175244,43.8,-120.630002,4.39E-04,0,-4.47E-05,-9.58E-06,89.9779623,270.8527815,6575.722264,794,1.9326438,0.0214604,9.7985735,144.4726042,108.4157491,3.4083103,0,0,194.3447211,0.7987532,0.2419323,0.371147,0.1856739,0.7987532,1.17E-04,-6.89E-05,-1.55E-04,0,0,0,0,0,0,0,1.182458,782.8457361,9.94E-04,332.0154695,0.7107627,2.38E+07,10.5791,87.8996865,0.05,0.5405493,0.0248404
3.75,757.5259873,2137.525987,234.0327535,234.0327708,-38.7078665,38.7078713,-0.1613577,0.001814,0.1613679,270.6440924,0.090025,0.0192651,43.8,-120.630002,7.00E-04,0,-1.17E-05,7.55E-06,89.9773601,271.4084582,6575.722264,794,1.9326438,0.0214604,9.7985374,144.425616,108.4157491,3.4038687,0,0,190.099781,0.7953183,0.2423276,0.3683806,0.1846102,0.7953183,1.87E-04,9.91E-04,2.24E-04,0,0,0,0,0,0,0,1.1060811,781.7147278,9.93E-04,331.9691851,0.7049834,2.36E+07,10.5791,87.8996865,0.05,0.5429949,0.024635
