# Time (s),Altitude (m),Altitude above sea level (m),Vertical velocity (m/s),Total velocity (m/s),Vertical acceleration (m/s²),Total acceleration (m/s²),Position East of launch (m),Position North of launch (m),Lateral distance (m),Lateral direction (°),Lateral velocity (m/s),Lateral acceleration (m/s²),Latitude (° N),Longitude (° E),Angle of attack (°),Roll rate (r/s),Pitch rate (r/s),Yaw rate (r/s),Vertical orientation (zenith) (°),Lateral orientation (azimuth) (°),Mass (g),Motor mass (g),Longitudinal moment of inertia (kg·m²),Rotational moment of inertia (kg·m²),Gravitational acceleration (m/s²),CP location (cm),CG location (cm),Stability margin calibers (​),Thrust (N),Thrust-to-weight ratio (​),Drag force (N),Drag coefficient (​),Friction drag coefficient (​),Pressure drag coefficient (​),Base drag coefficient (​),Axial drag coefficient (​),Normal force coefficient (​),Pitch moment coefficient (​),Yaw moment coefficient (​),Side force coefficient (​),Roll moment coefficient (​),Roll forcing coefficient (​),Roll damping coefficient (​),Pitch damping coefficient (​),Wind velocity (m/s),Wind direction (°),Air temperature (°C),Air pressure (mbar),Air density (g/cm³),Speed of sound (m/s),Mach number (​),Reynolds number (​),Reference length (cm),Reference area (cm²),Simulation time step (s),Computation time (s),Coriolis acceleration (m/s²)
0,0,0,0,0,0,0,0,0,0,0,0,0,28.61,-80.6,90.0116696,0,0,0,90.0116696,0,9637,3856,2.364,0.024,9.792,NaN,121.6,NaN,0,0,0,0.778,0.499,0.159,0.12,0,NaN,NaN,NaN,NaN,NaN,NaN,NaN,NaN,1.951,90.0116696,15,1013,0.001225,340.389,0.006,2.332e5,10.6,90,0.01,0.001,0
0.01,0,0,0,0,0,0,0,0,0,0,0,0,28.61,-80.6,90.0116696,0,0,0,90.0116696,0,9637,3855,2.364,0.024,9.792,NaN,121.6,NaN,24.069,0.255,0,0.776,0.497,0.159,0.12,0,NaN,NaN,NaN,NaN,NaN,NaN,NaN,NaN,1.981,90.0116696,15,1013,0.001225,340.389,0.006,2.368e5,10.6,90,0.01,0.002,0
0.02,0,0,0,0,0,0,0,0,0,0,0,0,28.61,-80.6,90.0116696,0,0,0,90.0116696,0,9637,3855,2.364,0.024,9.792,NaN,121.6,NaN,48.137,0.51,0,0.775,0.495,0.159,0.12,0,NaN,NaN,NaN,NaN,NaN,NaN,NaN,NaN,2.011,90.0116696,15,1013,0.001225,340.389,0.006,2.403e5,10.6,90,0.01,0.003,0
0.03,0.002,0.002,0.494,0.494,102.093,102.093,-5.072e-7,0,5.072e-7,269.9777131,1.283e-4,0.016,28.61,-80.6,76.3752741,0,0,0,90.0116696,0,9632,3851,2.364,0.024,9.792,NaN,121.5,NaN,1077.735,11.426,5.307e-4,0.77,0.49,0.159,0.12,0.022,NaN,NaN,NaN,NaN,NaN,NaN,NaN,NaN,2.041,90.0116696,15,1013,0.001225,340.389,0.006,2.509e5,10.6,90,0.01,0.003,6.33e-5
0.04,0.013,0.013,2.05,2.05,209.083,209.083,-2.72e-6,0,2.72e-6,269.9777131,3.353e-4,0.029,28.61,-80.6,45.2636658,0,0,0,90.0116696,0,9628,3846,2.363,0.024,9.792,NaN,121.5,NaN,2107.333,22.352,0.022,0.735,0.455,0.16,0.12,0.475,NaN,NaN,NaN,NaN,NaN,NaN,NaN,NaN,2.07,90.0116696,15,1013,0.001225,340.389,0.009,3.482e5,10.6,90,0.01,0.003,2.625e-4
0.05,0.045,0.045,4.205,4.205,221.89,221.89,-9.845e-6,0,9.845e-6,269.9777131,0.001,0,28.61,-80.6,26.5279459,0,0,0,90.0116696,0,9619,3837,2.362,0.024,9.792,NaN,121.5,NaN,2228.567,23.661,0.098,0.691,0.411,0.16,0.12,0.822,NaN,NaN,NaN,NaN,NaN,NaN,NaN,NaN,2.1,90.0116696,15,1013,0.001225,340.389,0.014,5.617e5,10.6,90,0.005,0.004,5.384e-4
0.055,0.068,0.068,5.331,5.331,228.301,228.301,-1.606e-5,0,1.606e-5,269.9777131,0.001,0,28.61,-80.6,21.31403,0,0,0,90.0116696,0,9614,3832,2.362,0.024,9.792,NaN,121.5,NaN,2289.184,24.316,0.152,0.675,0.394,0.16,0.12,0.86,NaN,NaN,NaN,NaN,NaN,NaN,NaN,NaN,2.079,90.0116696,15,1013,0.001225,340.389,0.017,6.838e5,10.6,90,0.007,0.004,6.825e-4
0.063,0.115,0.115,7.021,7.021,222.435,222.435,-2.539e-5,0,2.539e-5,269.9777131,0.001,0,28.61,-80.6,16.2147056,0,0,0,90.0116696,0,9607,3825,2.361,0.024,9.792,NaN,121.5,NaN,2231.242,23.718,0.245,0.656,0.375,0.161,0.12,0.851,NaN,NaN,NaN,NaN,NaN,NaN,NaN,NaN,2.046,90.0116696,14.999,1013,0.001225,340.388,0.021,8.74e5,10.6,90,0.01,0.005,8.989e-4
0.073,0.201,0.201,9.313,9.313,214.206,214.206,-3.845e-5,0,3.845e-5,269.9777131,0.001,0,28.61,-80.6,12.0894095,0,0,0,90.0116696,0,9597,3815,2.36,0.024,9.792,NaN,121.4,NaN,2150.122,22.879,0.386,0.637,0.356,0.161,0.12,0.79,NaN,NaN,NaN,NaN,NaN,NaN,NaN,NaN,2.001,90.0116696,14.999,1013,0.001225,340.388,0.028,1.138e6,10.6,90,0.01,0.005,0.001
0.083,0.304,0.304,11.453,11.453,213.795,213.795,-5.089e-5,0,5.089e-5,269.9777131,0.001,0,28.61,-80.6,9.6829867,0,0,0,90.0116696,0,9588,3806,2.359,0.024,9.792,NaN,121.4,NaN,2144.322,22.839,0.536,0.624,0.342,0.162,0.12,0.738,NaN,NaN,NaN,NaN,NaN,NaN,NaN,NaN,1.958,90.0116696,14.998,1013,0.001225,340.388,0.034,1.389e6,10.6,90,0.009,0.005,0.001
0.092,0.413,0.413,13.318,13.318,213.434,213.434,-6.174e-5,0,6.174e-5,269.9777131,0.001,0,28.61,-80.6,8.1932965,0,0,0,90.0116696,0,9580,3799,2.358,0.024,9.792,NaN,121.4,NaN,2139.259,22.804,0.688,0.618,0.336,0.162,0.12,0.706,NaN,NaN,NaN,NaN,NaN,NaN,NaN,NaN,1.92,90.0116696,14.997,1013,0.001225,340.387,0.04,1.608e6,10.6,90,0.008,0.006,0.002
0.099,0.519,0.519,14.92,14.92,213.121,213.121,-7.108e-5,0,7.108e-5,269.9777131,0.001,0,28.61,-80.6,7.2192682,0,0,0,90.0116696,0,9574,3792,2.358,0.024,9.792,NaN,121.4,NaN,2134.904,22.773,0.834,0.614,0.331,0.163,0.12,0.685,NaN,NaN,NaN,NaN,NaN,NaN,NaN,NaN,1.887,90.0116696,14.997,1013,0.001225,340.387,0.044,1.797e6,10.6,90,0.007,0.006,0.002
0.106,0.623,0.623,16.347,16.347,212.84,212.84,-7.942e-5,0,7.942e-5,269.9777131,0.001,0,28.61,-80.6,6.5317189,0,0,0,90.0116696,0,9568,3786,2.357,0.024,9.792,NaN,121.4,NaN,2131.017,22.746,0.978,0.611,0.327,0.163,0.12,0.671,NaN,NaN,NaN,NaN,NaN,NaN,NaN,NaN,1.872,90.0116696,14.996,1013,0.001225,340.386,0.048,1.966e6,10.6,90,0.006,0.007,0.002
0.112,0.727,0.727,17.648,17.648,212.582,212.582,-8.702e-5,0,8.702e-5,269.9777131,0.001,0,28.61,-80.6,6.0160568,0,0,0,90.0116696,0,9562,3780,2.356,0.024,9.792,NaN,121.3,NaN,2127.469,22.721,1.12,0.608,0.324,0.163,0.12,0.661,NaN,NaN,NaN,NaN,NaN,NaN,NaN,NaN,1.86,90.0116696,14.995,1013,0.001225,340.386,0.052,2.121e6,10.6,90,0.006,0.007,0.002
0.118,0.831,0.831,18.852,18.852,212.341,212.341,-9.407e-5,0,9.407e-5,269.9777131,0.001,0,28.61,-80.6,5.6149864,0,0,0,90.0116696,0,9557,3775,2.356,0.024,9.792,NaN,121.3,NaN,2124.183,22.698,1.26,0.606,0.322,0.164,0.12,0.652,NaN,NaN,NaN,NaN,NaN,NaN,NaN,NaN,1.848,90.0116696,14.995,1013,0.001225,340.386,0.056,2.264e6,10.6,90,0.005,0.008,0.002
0.123,0.934,0.934,19.978,19.978,212.116,212.116,-1.007e-4,0,1.007e-4,269.9777131,0.001,0,28.61,-80.6,5.2712117,0,0,0,90.0116696,0,9552,3770,2.355,0.024,9.792,NaN,121.3,NaN,2121.106,22.677,1.399,0.605,0.32,0.164,0.12,0.646,NaN,NaN,NaN,NaN,NaN,NaN,NaN,NaN,1.838,90.0116696,14.994,1013,0.001225,340.385,0.059,2.398e6,10.6,90,0.005,0.008,0.003
0.128,1.036,1.036,21.039,21.039,211.902,211.902,-1.069e-4,0,1.069e-4,269.9777131,0.001,0.356,28.61,-80.6,4.9847328,0,0,0,90.0116696,0,9548,3766,2.355,0.024,9.792,136,121.3,1.387,2118.203,22.656,1.538,0.603,0.318,0.165,0.121,0.64,1.403,1.946,2.238e-4,0,0,0,0,0,1.827,90.0116696,14.993,1013,0.001225,340.385,0.062,2.524e6,10.6,90,0.008,0.008,0.003
0.136,1.2,1.2,22.629,22.629,211.579,211.579,-1.264e-4,0,1.264e-4,269.9777131,0.004,0.374,28.61,-80.6,4.5836624,0,3.1830989e-4,-1.7809438e-8,90.0116696,90.0116696,9541,3759,2.354,0.024,9.792,136.4,121.3,1.431,2113.849,22.626,1.757,0.601,0.315,0.166,0.121,0.633,1.28,1.832,-2.961e-4,0,0,0,0,8.033e-6,1.812,90.0116696,14.992,1013,0.001225,340.384,0.067,2.713e6,10.6,90,0.011,0.009,0.003
0.147,1.469,1.469,25.009,25.009,211.091,211.091,-1.955e-4,0,1.955e-4,269.9777131,0.008,0.394,28.61,-80.6,4.0680003,0,6.3661977e-4,0,90.0116696,90.0116696,9531,3749,2.353,0.024,9.792,137,121.3,1.49,2107.317,22.58,2.114,0.599,0.312,0.167,0.121,0.625,1.127,1.678,7.825e-6,0,0,0,0,4.645e-5,1.789,90.0116696,14.99,1013,0.001225,340.383,0.074,2.996e6,10.6,90,0.009,0.009,0.003
0.156,1.707,1.707,26.948,26.948,210.689,210.689,-2.888e-4,0,2.888e-4,269.9777131,0.012,0.414,28.61,-80.6,3.7815214,0,0.0011141,-4.7539582e-8,90.0116696,90.0116696,9523,3741,2.352,0.024,9.792,137.3,121.2,1.523,2101.985,22.542,2.434,0.597,0.309,0.167,0.121,0.62,1.044,1.589,-1.642e-4,0,0,0,0,9.773e-5,1.803,90.0116696,14.989,1013,0.001225,340.382,0.079,3.227e6,10.6,90,0.014,0.01,0.003
0.17,2.099,2.099,29.857,29.857,211.21,211.211,-4.949e-4,0,4.949e-4,269.9777131,0.018,0.44,28.61,-80.6,3.4950426,0,0.0017507,1.6217889e-8,90.0116696,90.0116696,9510,3728,2.351,0.024,9.792,137.7,121.2,1.562,2104.739,22.601,2.96,0.595,0.305,0.169,0.121,0.615,0.955,1.49,-4.842e-4,0,0,0,0,2.063e-4,1.85,90.0116696,14.986,1013,0.001225,340.381,0.088,3.575e6,10.6,90,0.021,0.01,0.004
0.19,2.762,2.762,34.234,34.234,211.985,211.985,-9.615e-4,0,9.615e-4,269.9777131,0.027,0.455,28.61,-80.6,3.1512679,0,0.0028648,7.986395e-8,89.9543738,90.0116696,9492,3710,2.349,0.024,9.792,138.2,121.1,1.61,2108.871,22.69,3.851,0.593,0.301,0.171,0.121,0.609,0.848,1.365,2.829e-4,0,0,0,0,4.378e-4,1.92,90.0116696,14.982,1013,0.001225,340.378,0.101,4.097e6,10.6,90,0.031,0.011,0.004
0.222,3.926,3.926,40.83,40.83,213.128,213.128,-0.002,0,0.002,269.9777131,0.04,0.355,28.61,-80.6,2.5210143,0,0.005093,3.2292538e-7,89.9543738,90.0116696,9464,3682,2.346,0.024,9.792,139,121.1,1.694,2115.069,22.823,5.409,0.591,0.295,0.174,0.122,0.602,0.67,1.133,3.114e-4,0,0,0,0,9.177e-4,1.887,90.0116696,14.974,1013,0.001225,340.373,0.12,4.883e6,10.6,90,0.047,0.011,0.005
0.268,6.058,6.058,50.788,50.788,214.799,214.799,-0.004,-2.922e-8,0.004,269.9777131,0.048,0.044,28.61,-80.6,1.7761692,0,0.0087535,-3.4075073e-8,89.8397823,90.0116696,9422,3640,2.342,0.024,9.792,140,120.9,1.8,2124.365,23.025,8.285,0.591,0.288,0.18,0.123,0.596,0.465,0.836,-7.182e-5,0,0,0,0,0.002,1.794,90.0116696,14.961,1013,0.001224,340.365,0.149,6.071e6,10.6,90,0.05,0.012,0.007
0.318,8.867,8.867,61.572,61.572,216.524,216.526,-0.006,-9.299e-8,0.006,269.9777131,0.029,0.802,28.61,-80.6,1.2605071,0,0.0130507,1.5094255e-6,89.6105992,90.0116696,9377,3595,2.337,0.024,9.792,140.7,120.8,1.885,2134.352,23.245,12.164,0.593,0.283,0.186,0.124,0.596,0.323,0.606,-3.187e-4,0,0,0,0,0.003,1.787,90.0116696,14.942,1012,0.001224,340.354,0.181,7.357e6,10.6,90,0.05,0.013,0.008
0.368,12.217,12.217,72.439,72.439,218.168,218.177,-0.006,-3.397e-7,0.006,269.9777131,0.039,2.002,28.61,-80.6,0.8021409,0,0.0173479,3.46162e-6,89.3241203,90.0116696,9332,3550,2.333,0.024,9.792,141.4,120.7,1.964,2144.339,23.466,16.9,0.597,0.278,0.194,0.126,0.598,0.199,0.389,1.901e-4,0,0,0,0,0.003,1.781,90.0116696,14.921,1012,0.001224,340.341,0.213,8.652e6,10.6,90,0.029,0.013,0.009
0.397,14.406,14.406,78.769,78.769,219.076,219.096,-0.004,-6.806e-7,0.004,269.9777131,0.11,2.919,28.61,-80.6,0.515662,0,0.0194169,4.8701413e-6,89.1522329,90.0116696,9306,3524,2.33,0.024,9.792,141.9,120.6,2.011,2150.122,23.595,20.063,0.601,0.275,0.198,0.127,0.601,0.129,0.255,-4.736e-5,0,0,0,0,0.004,1.758,90.0116696,14.906,1012,0.001223,340.332,0.232,9.407e6,10.6,90,0.043,0.014,0.01
0.44,18.033,18.033,88.293,88.294,219.533,219.579,0.004,-1.772e-6,0.004,90.0116696,0.27,4.489,28.61,-80.6,0.1718873,0,0.0213268,1.3827381e-5,88.8084582,90.0116696,9267,3485,2.326,0.024,9.792,142.4,120.5,2.075,2150.912,23.704,25.418,0.606,0.272,0.206,0.129,0.606,0.04,0.08,-4.637e-4,0,0,0,0,0.004,1.779,90.0116696,14.883,1011,0.001223,340.318,0.26,1.054e7,10.6,90,0.05,0.015,0.011
0.49,22.722,22.722,99.281,99.282,219.94,220.039,0.024,-4.3e-6,0.024,90.0116696,0.546,6.595,28.61,-80.6,0.2864789,0,-0.0206901,6.2547893e-6,88.4646836,90.0116696,9221,3439,2.321,0.024,9.792,142.3,120.3,2.079,2151.822,23.831,32.536,0.614,0.269,0.214,0.131,0.614,0.065,0.138,-1.723e-4,0,0,0,0,-0.003,1.699,90.0116696,14.852,1011,0.001222,340.299,0.292,1.185e7,10.6,90,0.05,0.015,0.013
0.54,27.962,27.962,110.285,110.289,220.219,220.387,0.06,-8.64e-6,0.06,90.0116696,0.928,8.619,28.61,-80.6,0.5729578,0,-0.0157563,2.0674227e-6,88.1209089,90.0116696,9176,3394,2.316,0.024,9.792,141.9,120.2,2.055,2152.731,23.959,40.743,0.623,0.265,0.224,0.134,0.623,0.146,0.302,2.665e-4,0,0,0,0,-0.001,1.608,90.0116696,14.818,1010,0.001222,340.279,0.324,1.316e7,10.6,90,0.05,0.015,0.014
0.59,33.751,33.751,121.301,121.309,220.398,220.617,0.118,-1.553e-5,0.118,90.0116696,1.393,9.826,28.61,-80.6,0.6302536,5.1613948e-9,-0.007162,6.3805217e-7,87.8917258,90.0116696,9130,3349,2.311,0.024,9.792,141.9,120,2.068,2153.641,24.089,50.057,0.633,0.263,0.234,0.137,0.633,0.161,0.334,2.402e-4,0,0,0,0,-2.128e-4,1.724,90.0116696,14.781,1009,0.001221,340.256,0.357,1.447e7,10.6,90,0.05,0.016,0.016
0.64,40.092,40.092,132.324,132.337,220.489,220.716,0.2,-2.555e-5,0.2,90.0116696,1.894,10.014,28.61,-80.6,0.515662,0,0.0027056,-6.0844935e-6,87.83443,90.0116696,9085,3303,2.306,0.023,9.792,142.1,119.9,2.102,2154.55,24.22,60.543,0.644,0.26,0.244,0.14,0.644,0.137,0.288,6.526e-5,0,0,0,0,2.618e-5,1.818,90.0116696,14.739,1009,0.00122,340.231,0.389,1.577e7,10.6,90,0.051,0.016,0.017
0.691,47.066,47.066,143.474,143.494,220.484,220.674,0.309,-4.02e-5,0.309,90.0116696,2.383,9.155,28.61,-80.6,0.3437747,0,0.0119366,-6.8611696e-6,88.0063173,90.0116696,9039,3257,2.301,0.023,9.792,142.5,119.8,2.148,2155.47,24.353,72.414,0.655,0.257,0.255,0.143,0.656,0.091,0.196,2.297e-4,0,0,0,0,4.206e-4,1.745,90.0116696,14.694,1008,0.00122,340.204,0.422,1.709e7,10.6,90,0.05,0.017,0.018
0.741,54.515,54.515,154.476,154.501,219.543,219.659,0.438,-5.994e-5,0.438,90.0116696,2.794,7.123,28.61,-80.6,0.0555769,-7.0266907e-9,0.0170296,-6.8054654e-5,88.2927962,90.0116696,8994,3212,2.296,0.023,9.792,143,119.6,2.212,2149.037,24.402,85.457,0.668,0.255,0.266,0.147,0.668,0.014,0.031,-1.759e-4,0,0,0,0,7.321e-4,1.732,90.0116696,14.646,1007,0.001219,340.174,0.454,1.839e7,10.6,90,0.05,0.017,0.02
0.791,62.512,62.512,165.426,165.455,218.431,218.483,0.586,-8.504e-5,0.586,90.0116696,3.089,4.752,28.61,-80.6,0.2291831,-6.9423386e-9,-0.0141648,-1.452448e-5,88.5792751,90.0116696,8949,3167,2.291,0.023,9.792,142.9,119.5,2.211,2142.604,24.452,99.9,0.681,0.253,0.278,0.151,0.681,0.059,0.131,3.36e-4,0,0,0,0,-4.432e-4,1.732,90.0116696,14.594,1006,0.001218,340.143,0.487,1.969e7,10.6,90,0.05,0.018,0.021
0.841,71.056,71.056,176.315,176.346,217.117,217.14,0.745,-1.149e-4,0.745,90.0116696,3.281,3.14,28.61,-80.6,0.4010705,-1.3838522e-8,-0.0035014,-2.1851974e-5,88.7511625,90.0116696,8903,3122,2.286,0.023,9.792,142.7,119.3,2.214,2136.171,24.502,115.761,0.695,0.251,0.29,0.155,0.696,0.1,0.222,2.334e-4,0,0,0,0,-2.34e-5,1.825,90.0116696,14.538,1005,0.001217,340.109,0.519,2.097e7,10.6,90,0.041,0.018,0.023
0.882,78.435,78.435,185.154,185.186,215.888,215.915,0.882,-1.392e-4,0.882,90.0116696,3.41,3.427,28.61,-80.6,0.2864789,-2.3268453e-8,0.0076394,-2.7295073e-5,88.6938667,90.0116696,8867,3085,2.281,0.023,9.792,142.9,119.2,2.246,2130.919,24.544,129.724,0.707,0.249,0.3,0.159,0.707,0.082,0.183,1.356e-5,0,0,0,0,1.029e-4,1.82,90.0116696,14.49,1004,0.001216,340.08,0.545,2.201e7,10.6,90,0.045,0.018,0.024
0.927,86.94,86.94,194.786,194.819,214.363,214.427,1.039,-1.604e-4,1.039,90.0116696,3.6,5.244,28.61,-80.6,0.1145916,-3.2324369e-8,0.015438,-7.9275077e-5,88.5219793,90.0116696,8826,3044,2.277,0.023,9.792,143.4,119.1,2.301,2125.159,24.59,146.175,0.721,0.247,0.311,0.163,0.721,0.026,0.06,-3.568e-4,0,0,0,0,3.823e-4,1.845,90.0116696,14.435,1003,0.001215,340.046,0.573,2.314e7,10.6,90,0.05,0.019,0.025
0.977,96.946,96.946,205.457,205.495,212.442,212.593,1.226,-1.736e-4,1.226,90.0116696,3.931,8.021,28.61,-80.6,0.1718873,-3.1608172e-8,-0.0136873,-4.1571271e-5,88.2355005,90.0116696,8781,2999,2.272,0.023,9.792,143.5,118.9,2.323,2118.726,24.641,166.015,0.737,0.245,0.324,0.168,0.737,0.044,0.103,-4.354e-4,0,0,0,0,-2.673e-4,1.855,90.0116696,14.37,1002,0.001214,340.007,0.605,2.439e7,10.6,90,0.005,0.019,0.026
0.982,98.06,98.06,206.605,206.643,212.221,212.383,1.248,-1.745e-4,1.248,90.0116696,3.975,8.291,28.61,-80.6,0.1718873,-3.1608172e-8,-0.0127324,-3.6462397e-5,88.1782047,90.0116696,8776,2994,2.271,0.023,9.792,143.5,118.9,2.323,2118.03,24.647,168.262,0.738,0.245,0.325,0.168,0.738,0.051,0.117,-3.054e-4,0,0,0,0,-2.27e-4,1.85,90.0116696,14.363,1002,0.001214,340.003,0.608,2.452e7,10.6,90,0.008,0.02,0.026
0.99,99.743,99.743,208.324,208.364,211.745,211.922,1.28,-1.758e-4,1.28,90.0116696,4.044,8.65,28.61,-80.6,0.2291831,-3.1576341e-8,-0.0109817,-2.9427749e-5,88.1782047,90.0116696,8769,2987,2.27,0.023,9.792,143.4,118.9,2.324,2115.8,24.641,171.665,0.741,0.244,0.328,0.169,0.741,0.059,0.137,9.212e-5,0,0,0,0,-1.655e-4,1.842,90.0116696,14.352,1002,0.001214,339.996,0.613,2.472e7,10.6,90,0.012,0.02,0.027
1.002,102.293,102.293,210.896,210.937,211.025,211.22,1.33,-1.773e-4,1.33,90.0116696,4.152,9.075,28.61,-80.6,0.2291831,-3.1369439e-8,-0.0077986,-2.7183664e-5,88.1209089,90.0116696,8759,2977,2.269,0.023,9.792,143.4,118.8,2.327,2112.456,24.631,176.837,0.745,0.244,0.331,0.17,0.745,0.068,0.158,2.194e-4,0,0,0,0,-8.184e-5,1.832,90.0116696,14.335,1001,0.001213,339.986,0.621,2.502e7,10.6,90,0.018,0.021,0.027
1.021,106.176,106.176,214.737,214.78,209.936,210.145,1.407,-1.791e-4,1.407,90.0116696,4.321,9.39,28.61,-80.6,0.2864789,-3.1783242e-8,-0.0023873,-1.8270987e-5,88.0636131,90.0116696,8743,2961,2.267,0.023,9.792,143.5,118.8,2.337,2107.439,24.618,184.746,0.751,0.243,0.336,0.172,0.751,0.073,0.172,-2.714e-5,0,0,0,0,-6.976e-6,1.823,90.0116696,14.31,1001,0.001213,339.971,0.632,2.547e7,10.6,90,0.027,0.021,0.028
1.048,112.132,112.132,220.46,220.508,208.285,208.482,1.529,-1.818e-4,1.529,90.0116696,4.576,9.069,28.61,-80.6,0.2291831,-3.5077749e-8,0.0060479,-2.3936903e-5,88.1209089,90.0116696,8719,2937,2.264,0.023,9.792,143.7,118.7,2.361,2099.914,24.597,196.938,0.76,0.242,0.343,0.175,0.76,0.063,0.148,-8.963e-5,0,0,0,0,4.645e-5,1.81,90.0116696,14.271,1000,0.001212,339.947,0.649,2.614e7,10.6,90,0.039,0.021,0.028
1.087,120.86,120.86,228.512,228.564,205.879,205.996,1.713,-1.884e-4,1.713,90.0116696,4.891,6.941,28.61,-80.6,0.0443126,-3.6414651e-8,0.0132099,-4.7046201e-5,88.2355005,90.0116696,8685,2903,2.26,0.023,9.792,144.1,118.6,2.414,2089.225,24.567,215.124,0.773,0.241,0.354,0.179,0.773,0.012,0.028,3.49e-4,0,0,0,0,2.038e-4,1.918,90.0116696,14.214,999.1,0.001211,339.913,0.673,2.707e7,10.6,90,0.05,0.022,0.029
1.137,132.542,132.542,238.724,238.78,202.572,202.613,1.965,-2.017e-4,1.965,90.0116696,5.159,4.07,28.61,-80.6,0.1718873,-4.1252961e-8,-0.0076394,-1.4293705e-5,88.4646836,90.0116696,8642,2860,2.255,0.023,9.792,144.2,118.4,2.433,2075.479,24.528,240.026,0.791,0.24,0.367,0.184,0.791,0.046,0.113,2.605e-4,0,0,0,0,-6.119e-5,1.988,90.0116696,14.138,997.7,0.00121,339.867,0.703,2.826e7,10.6,90,0.044,0.022,0.031
1.18,143.144,143.144,247.491,247.548,199.447,199.484,2.194,-2.092e-4,2.194,90.0116696,5.322,3.818,28.61,-80.6,0.1718873,-3.4568454e-8,0.0049338,-1.6122396e-5,88.4646836,90.0116696,8604,2822,2.251,0.023,9.792,144.4,118.3,2.467,2063.49,24.494,263.021,0.808,0.239,0.38,0.189,0.808,0.045,0.111,1.399e-4,0,0,0,0,2.438e-5,1.983,90.0116696,14.07,996.5,0.001209,339.825,0.729,2.927e7,10.6,90,0.041,0.023,0.032
1.221,153.473,153.473,255.616,255.676,196.309,196.396,2.416,-2.08e-4,2.416,90.0116696,5.515,5.873,28.61,-80.6,0.0053761,-3.1130707e-8,0.0114592,-6.3661977e-4,88.350092,90.0116696,8568,2786,2.246,0.023,9.792,144.8,118.2,2.52,2052.202,24.462,285.615,0.823,0.238,0.391,0.194,0.823,0.001,0.003,2.719e-4,0,0,0,0,1.217e-4,1.906,90.0116696,14.002,995.3,0.001207,339.784,0.753,3.021e7,10.6,90,0.05,0.023,0.033
1.271,166.497,166.497,265.331,265.396,192.274,192.437,2.7,-1.954e-4,2.7,90.0116696,5.876,7.928,28.61,-80.6,0.1145916,-4.2892257e-8,-0.0031831,-7.0028175e-6,88.1782047,90.0116696,8524,2743,2.241,0.023,9.792,144.9,118,2.542,2038.456,24.422,314.666,0.843,0.237,0.406,0.199,0.843,0.036,0.093,7.328e-5,0,0,0,0,-8.597e-6,1.865,90.0116696,13.918,993.7,0.001206,339.733,0.781,3.132e7,10.6,90,0.043,0.024,0.034
1.314,177.958,177.958,273.437,273.507,188.767,188.895,2.957,-1.8e-4,2.957,90.0116696,6.199,6.942,28.61,-80.6,0.0572958,-3.9931975e-8,0.006207,-8.0866627e-6,88.2355005,90.0116696,8487,2706,2.237,0.023,9.792,145.2,117.9,2.586,2026.759,24.388,340.469,0.859,0.236,0.419,0.204,0.859,0.018,0.046,4.341e-4,0,0,0,0,3.054e-5,1.96,90.0116696,13.843,992.4,0.001205,339.688,0.805,3.225e7,10.6,90,0.05,0.024,0.035
1.364,191.864,191.864,282.768,282.843,184.454,184.514,3.275,-1.619e-4,3.275,90.0116696,6.482,4.721,28.61,-80.6,0.0572958,-3.3008735e-8,-0.0047746,-1.0415099e-5,88.350092,90.0116696,8444,2662,2.231,0.023,9.792,145.5,117.7,2.627,2013.013,24.347,372.33,0.88,0.235,0.435,0.21,0.88,0.017,0.045,2.36e-4,0,0,0,0,-1.747e-5,2.004,90.0116696,13.753,990.7,0.001203,339.633,0.833,3.332e7,10.6,90,0.046,0.024,0.036
1.41,205.07,205.07,291.16,291.237,180.237,180.297,3.578,-1.612e-4,3.578,90.0116696,6.692,4.675,28.61,-80.6,0.0486613,-3.5793947e-8,0.0022282,2.1294931e-5,88.350092,90.0116696,8404,2622,2.226,0.023,9.792,145.8,117.6,2.667,2000.362,24.309,402.887,0.899,0.234,0.45,0.216,0.899,0.014,0.036,4.721e-4,0,0,0,0,3.293e-6,1.885,90.0116696,13.667,989.2,0.001201,339.581,0.858,3.427e7,10.6,90,0.05,0.025,0.037
1.46,219.851,219.851,300.038,300.119,174.855,174.954,3.919,-1.781e-4,3.919,90.0116696,6.958,5.873,28.61,-80.6,0.0270665,-3.0573665e-8,-0.0030239,2.1390424e-5,88.2927962,90.0116696,8363,2581,2.221,0.023,9.792,146.1,117.4,2.711,1982.596,24.212,437.643,0.921,0.233,0.467,0.222,0.921,0.008,0.021,-3.558e-4,0,0,0,0,-6.274e-6,1.803,90.0116696,13.571,987.5,0.0012,339.523,0.884,3.527e7,10.6,90,0.05,0.025,0.038
1.51,235.069,235.069,308.644,308.729,169.338,169.438,4.274,-1.744e-4,4.274,90.0116696,7.258,5.81,28.61,-80.6,0.0303553,-3.3629439e-8,0.0022282,4.6966624e-5,88.2927962,89.9543738,8322,2540,2.216,0.023,9.791,146.4,117.3,2.752,1964.829,24.114,473.389,0.943,0.231,0.485,0.228,0.943,0.009,0.024,3.639e-4,0,0,0,0,3.014e-6,1.76,90.0116696,13.472,985.7,0.001198,339.463,0.91,3.624e7,10.6,90,0.05,0.026,0.04
1.56,250.711,250.711,316.97,317.059,163.689,163.75,4.644,-1.417e-4,4.644,90.0116696,7.514,4.501,28.61,-80.6,0.0253075,-2.9364087e-8,-0.0022282,5.6245357e-5,88.350092,90.0116696,8280,2499,2.211,0.023,9.791,146.6,117.1,2.793,1947.063,24.015,510.08,0.965,0.228,0.504,0.233,0.965,0.007,0.02,3.328e-4,0,0,0,0,-2.851e-6,1.771,90.0116696,13.37,983.8,0.001196,339.401,0.934,3.718e7,10.6,90,0.05,0.026,0.041
1.61,266.762,266.762,325.009,325.101,157.787,157.851,5.025,-1.181e-4,5.025,90.0116696,7.729,4.509,28.61,-80.6,0.0168163,-2.2472678e-8,0.0028648,1.5915494e-4,88.350092,90.0116696,8239,2458,2.206,0.023,9.791,146.9,116.9,2.833,1929.297,23.915,548.065,0.988,0.225,0.524,0.239,0.988,0.005,0.014,1.275e-4,0,0,0,0,4.725e-6,1.826,90.0116696,13.266,982,0.001194,339.338,0.958,3.807e7,10.6,90,0.05,0.026,0.042
1.66,283.207,283.207,332.744,332.839,151.581,151.678,5.418,-1.381e-4,5.418,90.0116696,7.985,5.425,28.61,-80.6,0.0322403,0,-1.5915494e-4,7.5009725e-5,88.2927962,90.0116696,8198,2416,2.2,0.023,9.791,147.1,116.8,2.868,1911.531,23.814,587.829,1.012,0.222,0.545,0.245,1.012,0.009,0.026,4.654e-4,0,0,0,0,-2.529e-8,1.728,90.0116696,13.159,980,0.001192,339.273,0.981,3.893e7,10.6,90,0.036,0.027,0.043
1.696,295.283,295.283,338.12,338.219,147.093,147.176,5.709,-1.481e-4,5.709,90.0116696,8.175,4.944,28.61,-80.6,0.0180883,0,0.0036606,1.4284156e-4,88.2927962,89.9543738,8168,2387,2.196,0.023,9.791,147.3,116.7,2.894,1898.739,23.74,616.588,1.029,0.22,0.56,0.249,1.029,0.005,0.015,-1.226e-4,0,0,0,0,6.986e-6,1.631,90.0116696,13.081,978.6,0.001191,339.226,0.997,3.952e7,10.6,90,0.05,0.027,0.043
1.746,312.37,312.37,345.349,345.45,142.144,142.185,6.122,-1.355e-4,6.122,90.0116696,8.37,3.404,28.61,-80.6,0.0402847,1.0972142e-8,7.9577472e-4,2.7852115e-5,88.350092,90.0116696,8129,2347,2.191,0.023,9.791,147.4,116.5,2.921,1886.431,23.701,651.048,1.044,0.217,0.581,0.245,1.044,0.012,0.034,-3.752e-5,0,0,0,0,2.998e-7,1.778,90.0116696,12.97,976.6,0.001189,339.158,1.019,4.031e7,10.6,90,0.05,0.028,0.044
1.796,329.814,329.814,352.338,352.442,137.406,137.491,6.546,-1.176e-4,6.546,90.0116696,8.581,4.838,28.61,-80.6,0.0231188,5.1582117e-9,-0.0015915,-2.4048312e-5,88.2927962,90.0116696,8089,2308,2.186,0.023,9.791,147.6,116.3,2.951,1874.122,23.662,682.721,1.053,0.215,0.598,0.24,1.053,0.007,0.02,-3.493e-4,0,0,0,0,-1.335e-6,1.656,90.0116696,12.856,974.6,0.001187,339.09,1.04,4.107e7,10.6,90,0.05,0.028,0.045
1.846,347.6,347.6,359.094,359.202,132.855,132.918,6.981,-1.047e-4,6.981,90.0116696,8.809,4.103,28.61,-80.6,8.4511275e-4,1.7602537e-8,-0.0014324,-4.7746483e-4,88.350092,90.0116696,8050,2268,2.181,0.023,9.791,147.7,116.2,2.977,1861.814,23.622,713.018,1.061,0.214,0.611,0.236,1.061,2.496e-4,8.467e-4,1.5e-4,0,0,0,0,-8.882e-7,1.689,90.0116696,12.741,972.5,0.001185,339.02,1.06,4.179e7,10.6,90,0.05,0.028,0.046
1.896,365.719,365.719,365.627,365.738,128.447,128.502,7.426,-9.419e-5,7.426,90.0116696,9,3.785,28.61,-80.6,0.0076089,1.2698973e-8,4.7746483e-4,-2.8488735e-5,88.350092,90.0116696,8011,2229,2.176,0.023,9.791,147.7,116,2.997,1849.506,23.581,741.717,1.066,0.212,0.623,0.232,1.066,0.002,0.007,-4.973e-4,0,0,0,0,1.384e-7,1.699,90.0116696,12.623,970.4,0.001183,338.948,1.079,4.249e7,10.6,90,0.039,0.029,0.047
1.935,380.076,380.076,370.571,370.684,125.108,125.17,7.78,-8.757e-5,7.78,90.0116696,9.151,3.953,28.61,-80.6,0.0014387,1.1920705e-8,-0.0011141,1.3539311e-4,88.2927962,90.0116696,7980,2198,2.172,0.023,9.791,147.8,115.9,3.011,1839.905,23.549,762.969,1.069,0.211,0.63,0.229,1.069,4.24e-4,0.002,-7.263e-5,0,0,0,0,-5.823e-7,1.725,90.0116696,12.53,968.7,0.001181,338.892,1.094,4.302e7,10.6,90,0.05,0.029,0.047
1.985,398.759,398.759,376.732,376.848,121.371,121.432,8.243,-9.281e-5,8.243,90.0116696,9.349,3.871,28.61,-80.6,0.0015986,1.3440635e-8,-3.1830989e-4,-4.3417468e-6,88.2927962,90.0116696,7941,2159,2.166,0.023,9.791,147.7,115.7,3.026,1831.347,23.554,789.306,1.072,0.21,0.638,0.225,1.072,4.695e-4,0.001,3.721e-4,0,0,0,0,-2.958e-8,1.775,90.0116696,12.408,966.5,0.001179,338.818,1.112,4.367e7,10.6,90,0.05,0.03,0.048
2.035,417.746,417.746,382.709,382.828,117.736,117.799,8.715,-7.281e-5,8.715,90.0116696,9.54,3.828,28.61,-80.6,0.0035581,1.078593e-8,-7.1333245e-5,3.2228876e-6,88.2927962,90.0116696,7902,2121,2.161,0.023,9.791,147.7,115.6,3.037,1822.79,23.559,814.535,1.074,0.209,0.644,0.221,1.074,0.001,0.004,-4.534e-5,0,0,0,0,0,1.772,90.0116696,12.285,964.3,0.001177,338.743,1.13,4.429e7,10.6,90,0.025,0.03,0.049
2.06,427.35,427.35,385.63,385.751,115.944,116.01,8.955,-5.804e-5,8.955,90.0116696,9.635,3.901,28.61,-80.6,0.008073,1.0628367e-8,4.7746483e-4,-1.1694705e-5,88.2927962,90.0116696,7883,2101,2.158,0.023,9.791,147.7,115.5,3.04,1818.511,23.561,826.824,1.075,0.208,0.647,0.219,1.075,0.002,0.007,2.156e-4,0,0,0,0,1.069e-7,1.721,90.0116696,12.222,963.1,0.001176,338.706,1.139,4.46e7,10.6,90,0.037,0.031,0.049
2.098,441.888,441.888,389.602,389.724,95.91,95.964,9.319,-3.225e-5,9.319,90.0116696,9.771,3.24,28.61,-80.6,0.0069614,5.104099e-9,0.0025465,-1.5915494e-4,88.350092,90.0116696,7856,2074,2.155,0.023,9.791,147.6,115.4,3.046,1673.913,21.764,843.155,1.076,0.207,0.651,0.217,1.076,0.002,0.006,3.597e-4,0,0,0,0,2.428e-6,1.564,90.0116696,12.128,961.4,0.001174,338.648,1.151,4.5e7,10.6,90,0.006,0.031,0.05
2.103,444.032,444.032,390.121,390.244,92.997,93.045,9.372,-2.97e-5,9.372,90.0116696,9.789,3.01,28.61,-80.6,0.0023004,5.1104652e-9,0.0025465,-4.7746483e-4,88.350092,90.0116696,7852,2070,2.154,0.023,9.791,147.6,115.4,3.047,1652.705,21.499,845.29,1.076,0.207,0.651,0.217,1.076,6.665e-4,0.002,-8.789e-5,0,0,0,0,2.649e-6,1.559,90.0116696,12.114,961.2,0.001174,338.64,1.153,4.505e7,10.6,90,0.008,0.032,0.05
2.111,447.254,447.254,390.795,390.918,70.24,70.27,9.453,-2.658e-5,9.453,90.0116696,9.81,2.04,28.61,-80.6,0.0079297,5.1247892e-9,-0.0025465,-1.4024734e-4,88.350092,90.0116696,7846,2065,2.153,0.023,9.791,147.6,115.3,3.047,1476.203,19.216,848.029,1.076,0.207,0.652,0.217,1.076,0.002,0.007,4.644e-4,0,0,0,0,-2.463e-6,1.574,90.0116696,12.093,960.8,0.001173,338.627,1.155,4.512e7,10.6,90,0.005,0.032,0.05
2.116,449.111,449.111,391.097,391.22,57.172,57.192,9.5,-2.518e-5,9.5,90.0116696,9.818,1.501,28.61,-80.6,0.0132296,5.1279723e-9,-0.0022282,-8.096212e-5,88.350092,90.0116696,7843,2062,2.153,0.023,9.791,147.6,115.3,3.047,1374.58,17.9,849.228,1.076,0.207,0.652,0.216,1.076,0.004,0.012,4.366e-4,0,0,0,0,-1.953e-6,1.583,90.0116696,12.081,960.6,0.001173,338.62,1.155,4.515e7,10.6,90,0.007,0.033,0.05
2.123,451.899,451.899,391.42,391.544,33.615,33.621,9.57,-2.357e-5,9.57,90.0116696,9.826,0.623,28.61,-80.6,0.0198243,5.1598033e-9,-0.0015915,-4.892423e-5,88.350092,90.0116696,7840,2058,2.152,0.023,9.791,147.5,115.3,3.047,1190.763,15.513,850.444,1.076,0.207,0.653,0.216,1.076,0.006,0.017,3.097e-5,0,0,0,0,-9.754e-7,1.597,90.0116696,12.063,960.2,0.001173,338.609,1.156,4.518e7,10.6,90,0.01,0.034,0.05
2.133,455.765,455.765,391.592,391.715,1.087,1.187,9.667,-2.217e-5,9.667,90.0116696,9.826,0.478,28.61,-80.6,0.0253477,5.1757187e-9,-3.1830989e-4,-6.2102259e-5,88.350092,90.0116696,7835,2053,2.152,0.023,9.791,147.5,115.3,3.048,935.998,12.202,850.892,1.076,0.207,0.653,0.216,1.076,0.007,0.022,-1.968e-4,0,0,0,0,-4.235e-8,1.615,90.0116696,12.038,959.8,0.001172,338.594,1.157,4.518e7,10.6,90,0.015,0.035,0.05
2.148,461.565,461.565,391.422,391.545,-24.033,24.062,9.812,-2.089e-5,9.812,90.0116696,9.814,1.175,28.61,-80.6,0.0244538,0,0.0017507,-5.5688315e-5,88.350092,90.0116696,7830,2049,2.151,0.023,9.791,147.5,115.3,3.05,737.934,9.625,849.654,1.076,0.207,0.653,0.216,1.076,0.007,0.022,-4.728e-4,0,0,0,0,1.215e-6,1.643,90.0116696,12,959.1,0.001172,338.571,1.157,4.514e7,10.6,90,0.015,0.035,0.05
2.163,467.506,467.506,390.862,390.985,-49.61,49.634,9.961,-1.896e-5,9.961,90.0116696,9.793,1.536,28.61,-80.6,0.0112472,0,0.0033423,-8.8442402e-5,88.350092,90.0116696,7826,2044,2.15,0.023,9.791,147.6,115.3,3.055,534.856,6.981,846.668,1.076,0.207,0.652,0.216,1.076,0.003,0.009,2.782e-4,0,0,0,0,4.263e-6,1.655,90.0116696,11.961,958.4,0.001171,338.547,1.155,4.505e7,10.6,90,0.023,0.036,0.05
2.186,476.396,476.396,389.549,389.672,-65.603,65.616,10.184,-1.277e-5,10.184,90.0116696,9.761,1.306,28.61,-80.6,0.0136307,0,-0.0030239,-6.2484231e-5,88.2927962,90.0116696,7822,2040,2.15,0.023,9.791,147.6,115.2,3.058,403.452,5.268,840.107,1.076,0.207,0.651,0.217,1.076,0.004,0.012,-8.829e-5,0,0,0,0,-3.676e-6,1.669,90.0116696,11.903,957.4,0.00117,338.512,1.151,4.487e7,10.6,90,0.028,0.037,0.05
2.214,487.36,487.36,387.422,387.544,-85.145,85.161,10.459,-1.195e-6,10.459,90.0116696,9.721,1.671,28.61,-80.6,0.0218641,8.1057613e-9,1.2055987e-4,-5.4383244e-5,88.2927962,90.0116696,7817,2036,2.149,0.023,9.791,147.6,115.2,3.062,240.685,3.145,829.858,1.075,0.208,0.649,0.218,1.075,0.006,0.02,3.621e-4,0,0,0,0,5.841e-9,1.694,90.0116696,11.832,956.1,0.001169,338.469,1.145,4.459e7,10.6,90,0.03,0.038,0.05
2.244,498.942,498.942,384.646,384.767,-99.886,99.923,10.75,8.424e-6,10.75,90.0116696,9.656,2.728,28.61,-80.6,5.6149864e-4,0,-0.0015915,-0.0011141,88.2927962,90.0116696,7815,2033,2.149,0.023,9.791,147.7,115.2,3.07,112.32,1.468,816.727,1.075,0.208,0.647,0.22,1.075,1.637e-4,9.743e-4,4.385e-4,0,0,0,0,-1.032e-6,1.728,90.0116696,11.757,954.7,0.001167,338.424,1.137,4.422e7,10.6,90,0.045,0.038,0.049
2.289,516.146,516.146,379.947,380.066,-108.922,108.97,11.181,2.151e-5,11.181,90.0116696,9.515,3.232,28.61,-80.6,0.0097059,-5.5863385e-9,4.7746483e-4,6.5699161e-5,88.2927962,90.0116696,7814,2032,2.149,0.023,9.791,147.7,115.2,3.073,19.749,0.258,794.751,1.074,0.209,0.642,0.223,1.074,0.003,0.008,4.178e-5,0,0,0,0,8.801e-8,1.718,90.0116696,11.645,952.8,0.001165,338.356,1.123,4.363e7,10.6,90,0.007,0.039,0.049
2.296,518.803,518.803,379.18,379.298,-110.315,110.362,11.247,2.456e-5,11.247,90.0116696,9.493,3.218,28.61,-80.6,0.0076662,-5.5783808e-9,7.9577472e-4,8.2649162e-5,88.2927962,90.0116696,7814,2032,2.149,0.023,9.791,147.7,115.2,3.074,5.349,0.07,791.212,1.074,0.209,0.641,0.223,1.074,0.002,0.007,-1.91e-5,0,0,0,0,2.594e-7,1.714,90.0116696,11.628,952.5,0.001165,338.345,1.121,4.353e7,10.6,90,0.01,0.04,0.049
2.306,522.779,522.779,378.022,378.14,-110.178,110.222,11.347,2.844e-5,11.347,90.0116696,9.459,3.128,28.61,-80.6,0.0043573,-5.5481413e-9,0.0011141,1.4327128e-4,88.2927962,90.0116696,7814,2032,2.149,0.023,9.791,147.7,115.2,3.075,1.029,0.013,785.793,1.073,0.21,0.64,0.224,1.073,0.001,0.004,-1.884e-4,0,0,0,0,5.103e-7,1.716,90.0116696,11.602,952.1,0.001165,338.33,1.118,4.338e7,10.6,90,0.003,0.041,0.048
2.309,523.723,523.723,377.747,377.865,-110.144,110.188,11.371,2.92e-5,11.371,90.0116696,9.452,3.106,28.61,-80.6,0.0035655,-5.5481413e-9,0.0011141,1.5915494e-4,88.2927962,90.0116696,7814,2032,2.149,0.023,9.791,147.7,115.2,3.076,0,0,784.494,1.073,0.21,0.64,0.224,1.073,0.001,0.003,3.756e-4,0,0,0,0,5.567e-7,1.717,90.0116696,11.596,952,0.001165,338.326,1.117,4.335e7,10.6,90,0.004,0.041,0.048
2.313,525.139,525.139,377.334,377.452,-109.896,109.939,11.406,3.021e-5,11.406,90.0116696,9.44,3.067,28.61,-80.6,0.0023291,-5.5481413e-9,0.0011141,3.1830989e-4,88.2927962,90.0116696,7814,2032,2.149,0.023,9.791,147.7,115.2,3.076,0,0,782.552,1.073,0.21,0.639,0.224,1.073,6.835e-4,0.003,-3.537e-5,0,0,0,0,5.957e-7,1.718,90.0116696,11.587,951.8,0.001165,338.32,1.116,4.33e7,10.6,90,0.006,0.042,0.048
2.318,527.26,527.26,376.717,376.835,-109.527,109.568,11.459,3.142e-5,11.459,90.0116696,9.423,3.007,28.61,-80.6,5.8957357e-4,-5.5497329e-9,6.3661977e-4,9.5492966e-4,88.2927962,90.0116696,7814,2032,2.149,0.023,9.791,147.7,115.2,3.077,0,0,779.652,1.073,0.21,0.638,0.224,1.073,1.732e-4,8.792e-4,2.856e-4,0,0,0,0,2.113e-7,1.721,90.0116696,11.573,951.6,0.001164,338.312,1.114,4.322e7,10.6,90,0.008,0.043,0.048
2.327,530.435,530.435,375.795,375.913,-108.976,109.016,11.538,3.254e-5,11.538,90.0116696,9.398,2.92,28.61,-80.6,0.0025405,-5.5592822e-9,-0.0011141,1.5915494e-4,88.2927962,90.0116696,7814,2032,2.149,0.023,9.791,147.7,115.2,3.077,0,0,775.335,1.072,0.21,0.637,0.225,1.072,7.464e-4,0.002,-3.472e-4,0,0,0,0,-6.017e-7,1.725,90.0116696,11.552,951.2,0.001164,338.3,1.111,4.31e7,10.6,90,0.013,0.043,0.048
2.339,535.182,535.182,374.421,374.538,-108.159,108.196,11.657,3.289e-5,11.657,90.0116696,9.362,2.812,28.61,-80.6,0.0059187,-5.5879301e-9,-9.5492966e-4,8.5498035e-5,88.2927962,90.0116696,7814,2032,2.149,0.023,9.791,147.7,115.2,3.077,0,0,768.929,1.072,0.21,0.636,0.226,1.072,0.002,0.005,8.278e-5,0,0,0,0,-3.728e-7,1.73,90.0116696,11.521,950.7,0.001163,338.281,1.107,4.293e7,10.6,90,0.019,0.044,0.048
2.358,542.271,542.271,372.379,372.495,-106.95,106.986,11.834,3.186e-5,11.834,90.0116696,9.309,2.793,28.61,-80.6,0.0056104,-5.0993244e-9,-3.1830989e-4,3.2467608e-5,88.2927962,90.0116696,7814,2032,2.149,0.023,9.791,147.8,115.2,3.077,0,0,759.476,1.071,0.211,0.633,0.227,1.071,0.002,0.006,2.172e-4,0,0,0,0,-3.671e-8,1.752,90.0116696,11.475,949.9,0.001163,338.253,1.101,4.267e7,10.6,90,0.028,0.045,0.048
2.387,552.832,552.832,369.36,369.475,-105.131,105.173,12.098,3.194e-5,12.098,90.0116696,9.227,2.977,28.61,-80.6,0.0033272,0,8.9986205e-5,4.0855074e-6,88.2927962,90.0116696,7814,2032,2.149,0.023,9.79,147.8,115.2,3.077,0,0,745.313,1.069,0.211,0.629,0.229,1.069,9.808e-4,0.003,2.505e-4,0,0,0,0,0,1.807,90.0116696,11.407,948.7,0.001161,338.211,1.093,4.229e7,10.6,90,0.043,0.046,0.047
2.43,568.514,568.514,364.926,365.039,-102.5,102.539,12.49,3.82e-5,12.49,90.0116696,9.1,2.845,28.61,-80.6,7.3338598e-4,-5.5942962e-9,9.5492966e-4,1.4621565e-4,88.2927962,90.0116696,7814,2032,2.149,0.023,9.79,147.7,115.2,3.076,0,0,724.735,1.067,0.212,0.623,0.232,1.067,2.164e-4,0.001,2.872e-4,0,0,0,0,3.584e-7,1.845,90.0116696,11.305,947,0.00116,338.15,1.08,4.173e7,10.6,90,0.05,0.046,0.047
2.48,586.633,586.633,359.877,359.989,-99.456,99.49,12.941,4.262e-5,12.941,90.0116696,8.966,2.586,28.61,-80.6,0.0064916,-6.1401977e-9,9.9487755e-5,1.4261874e-5,88.2927962,90.0116696,7814,2032,2.149,0.023,9.79,147.7,115.2,3.072,0,0,700.904,1.063,0.214,0.614,0.235,1.063,0.002,0.006,-1.949e-4,0,0,0,0,0,1.837,90.0116696,11.187,944.9,0.001158,338.078,1.065,4.11e7,10.6,90,0.05,0.047,0.046
2.53,604.504,604.504,354.979,355.089,-96.477,96.516,13.386,4.229e-5,13.386,90.0116696,8.833,2.748,28.61,-80.6,0.0043195,0,-3.1830989e-4,3.9947891e-5,88.2927962,90.0116696,7814,2032,2.149,0.023,9.79,147.6,115.2,3.067,0,0,677.674,1.058,0.215,0.605,0.238,1.058,0.001,0.004,1.5e-4,0,0,0,0,-5.525e-8,1.835,90.0116696,11.071,942.9,0.001156,338.008,1.051,4.048e7,10.6,90,0.05,0.048,0.045
2.58,622.134,622.134,350.227,350.335,-93.605,93.637,13.825,5.443e-5,13.825,90.0116696,8.7,2.457,28.61,-80.6,0.0045521,0,-3.1830989e-4,1.1403452e-5,88.2927962,90.0116696,7814,2032,2.149,0.023,9.79,147.6,115.2,3.06,0,0,655.174,1.052,0.216,0.596,0.241,1.052,0.001,0.004,2.375e-4,0,0,0,0,-4.404e-8,1.799,90.0116696,10.956,941,0.001154,337.938,1.037,3.989e7,10.6,90,0.05,0.048,0.045
2.63,639.529,639.529,345.618,345.724,-90.773,90.814,14.257,5.695e-5,14.257,90.0116696,8.575,2.761,28.61,-80.6,0.0127025,0,-7.6458035e-6,-1.9480565e-5,88.2927962,90.0116696,7814,2032,2.149,0.023,9.79,147.5,115.2,3.051,0,0,633.123,1.046,0.217,0.585,0.244,1.046,0.004,0.011,-1.113e-4,0,0,0,0,0,1.858,90.0116696,10.843,939,0.001152,337.87,1.023,3.931e7,10.6,90,0.05,0.049,0.044
2.68,656.698,656.698,341.148,341.253,-88.05,88.073,14.682,4.968e-5,14.682,90.0116696,8.446,2.019,28.61,-80.6,0.0182831,0,-0.0012732,-2.9841552e-6,88.2355005,90.0116696,7814,2032,2.149,0.023,9.79,147.4,115.2,3.042,0,0,611.683,1.039,0.218,0.573,0.247,1.039,0.005,0.016,4.737e-4,0,0,0,0,-8.499e-7,1.817,90.0116696,10.731,937.1,0.00115,337.802,1.01,3.875e7,10.6,90,0.05,0.05,0.044
2.73,673.646,673.646,336.813,336.916,-85.275,85.315,15.102,5.562e-5,15.102,90.0116696,8.343,2.628,28.61,-80.6,0.0147651,0,-0.0017507,-5.8059723e-6,88.2927962,90.0116696,7814,2032,2.149,0.023,9.79,147.3,115.2,3.033,0,0,590.154,1.03,0.22,0.561,0.249,1.03,0.004,0.013,-2.092e-4,0,0,0,0,-1.599e-6,1.861,90.0116696,10.621,935.2,0.001148,337.735,0.998,3.821e7,10.6,90,0.05,0.051,0.043
2.78,690.381,690.381,332.623,332.724,-82.35,82.389,15.515,4.779e-5,15.515,90.0116696,8.204,2.557,28.61,-80.6,0.0147995,-1.3489973e-8,0.0031831,-1.4612015e-4,88.2355005,90.0116696,7814,2032,2.149,0.023,9.79,147.2,115.2,3.023,0,0,567.293,1.017,0.221,0.549,0.246,1.017,0.004,0.013,3.554e-4,0,0,0,0,5.335e-6,1.994,90.0116696,10.513,933.3,0.001146,337.669,0.986,3.768e7,10.6,90,0.05,0.051,0.043
2.83,706.911,706.911,328.575,328.674,-79.624,79.641,15.923,6.135e-5,15.923,90.0116696,8.101,1.66,28.61,-80.6,0.0279833,-2.7549721e-8,-0.0014324,-4.1173384e-5,88.2355005,90.0116696,7814,2032,2.149,0.023,9.79,147,115.2,3.011,0,0,545.791,1.004,0.223,0.538,0.243,1.004,0.008,0.025,-4.744e-4,0,0,0,0,-1.07e-6,2.017,90.0116696,10.405,931.5,0.001144,337.604,0.974,3.717e7,10.6,90,0.05,0.052,0.042
2.88,723.241,723.241,324.659,324.758,-77.023,77.047,16.326,8.848e-5,16.326,90.0116696,8.014,1.903,28.61,-80.6,0.0110294,-2.3507185e-8,0.0027056,3.6430566e-5,88.2355005,90.0116696,7814,2032,2.149,0.023,9.79,147,115.2,3.002,0,0,525.538,0.992,0.224,0.527,0.24,0.992,0.003,0.009,1.398e-4,0,0,0,0,4.113e-6,1.957,90.0116696,10.299,929.7,0.001143,337.54,0.962,3.668e7,10.6,90,0.05,0.053,0.042
2.93,739.379,739.379,320.87,320.967,-74.566,74.602,16.724,1.234e-4,16.724,90.0116696,7.904,2.311,28.61,-80.6,0.0165298,-1.9225917e-8,-0.0014324,-2.3777748e-6,88.2927962,90.0116696,7814,2032,2.149,0.023,9.79,146.8,115.2,2.991,0,0,506.444,0.98,0.226,0.517,0.238,0.98,0.005,0.014,-4.084e-4,0,0,0,0,-1.089e-6,1.871,90.0116696,10.194,927.9,0.001141,337.476,0.951,3.621e7,10.6,90,0.05,0.053,0.041
2.98,755.33,755.33,317.197,317.293,-72.367,72.395,17.116,1.442e-4,17.116,90.0116696,7.795,2.03,28.61,-80.6,0.0055302,-1.4004043e-8,7.9577472e-4,7.5009725e-5,88.2927962,90.0116696,7814,2032,2.149,0.023,9.79,146.7,115.2,2.981,0,0,489.204,0.97,0.227,0.509,0.235,0.97,0.002,0.004,-4.809e-4,0,0,0,0,3.297e-7,1.804,90.0116696,10.09,926.1,0.001139,337.414,0.941,3.575e7,10.6,90,0.05,0.054,0.041
3.03,771.1,771.1,313.631,313.726,-70.294,70.319,17.504,1.425e-4,17.504,90.0116696,7.702,1.865,28.61,-80.6,6.9843555e-4,-1.2348832e-8,-4.7746483e-4,1.1094691e-4,88.2355005,90.0116696,7814,2032,2.149,0.023,9.79,146.6,115.2,2.971,0,0,472.974,0.961,0.228,0.501,0.232,0.961,1.999e-4,5.757e-4,-4.671e-4,0,0,0,0,-1.237e-7,1.819,90.0116696,9.988,924.3,0.001137,337.352,0.93,3.53e7,10.6,90,0.05,0.055,0.04
3.08,786.695,786.695,310.166,310.259,-68.319,68.349,17.886,1.383e-4,17.886,90.0116696,7.606,2.031,28.61,-80.6,0.0114935,-1.1392311e-8,0.0011141,2.2806903e-5,88.2355005,90.0116696,7814,2032,2.149,0.023,9.79,146.5,115.2,2.959,0,0,457.588,0.952,0.229,0.493,0.23,0.952,0.003,0.009,-3.405e-4,0,0,0,0,7.677e-7,1.939,90.0116696,9.886,922.6,0.001136,337.29,0.92,3.487e7,10.6,90,0.05,0.056,0.04
3.13,802.119,802.119,306.797,306.889,-66.461,66.479,18.264,1.35e-4,18.264,90.0116696,7.511,1.529,28.61,-80.6,0.016123,-9.0479585e-9,-0.0017507,4.8892399e-5,88.2355005,90.0116696,7814,2032,2.149,0.023,9.79,146.4,115.2,2.948,0,0,442.959,0.944,0.231,0.485,0.228,0.944,0.005,0.014,4.258e-4,0,0,0,0,-2.026e-6,1.961,90.0116696,9.786,920.9,0.001134,337.229,0.91,3.445e7,10.6,90,0.05,0.056,0.039
3.18,817.376,817.376,303.519,303.61,-64.68,64.697,18.638,1.131e-4,18.638,90.0116696,7.441,1.487,28.61,-80.6,0.0156131,-1.6154227e-8,0.0015915,7.8940852e-5,88.2355005,90.0116696,7814,2032,2.149,0.023,9.79,146.3,115.2,2.938,0,0,429.039,0.935,0.232,0.478,0.225,0.935,0.004,0.013,-2.403e-4,0,0,0,0,1.726e-6,1.92,90.0116696,9.687,919.1,0.001132,337.169,0.901,3.404e7,10.6,90,0.05,0.057,0.039
3.23,832.472,832.472,300.328,300.418,-62.984,63.015,19.008,9.573e-5,19.008,90.0116696,7.353,1.968,28.61,-80.6,0.0187013,-1.1518043e-8,-0.0011141,7.4468598e-5,88.2355005,90.0116696,7814,2032,2.149,0.023,9.79,146.2,115.2,2.928,0,0,415.909,0.927,0.232,0.472,0.223,0.927,0.005,0.015,1.342e-4,0,0,0,0,-8.309e-7,1.925,90.0116696,9.589,917.5,0.00113,337.11,0.891,3.364e7,10.6,90,0.05,0.058,0.038
3.28,847.41,847.41,297.219,297.307,-61.39,61.413,19.373,9.325e-5,19.373,90.0116696,7.257,1.681,28.61,-80.6,0.003785,-5.263254e-9,0.0012732,1.5915494e-4,88.2355005,90.0116696,7814,2032,2.149,0.023,9.79,146.1,115.2,2.921,0,0,403.392,0.92,0.233,0.466,0.221,0.92,0.001,0.003,-3.713e-4,0,0,0,0,1.076e-6,1.882,90.0116696,9.492,915.8,0.001129,337.051,0.882,3.325e7,10.6,90,0.05,0.058,0.038
3.33,862.195,862.195,294.188,294.275,-59.869,59.886,19.734,7.385e-5,19.734,90.0116696,7.185,1.41,28.61,-80.6,0.0114248,0,3.5539299e-5,3.7465074e-5,88.2355005,90.0116696,7814,2032,2.149,0.023,9.79,146,115.2,2.911,0,0,391.448,0.912,0.233,0.46,0.219,0.912,0.003,0.01,-1.649e-4,0,0,0,0,0,1.85,90.0116696,9.396,914.1,0.001127,336.993,0.873,3.287e7,10.6,90,0.05,0.059,0.038
3.38,876.83,876.83,291.231,291.318,-58.408,58.425,20.092,5.151e-5,20.092,90.0116696,7.112,1.412,28.61,-80.6,0.0079297,0,0.0011141,1.1863409e-4,88.2355005,90.0116696,7814,2032,2.149,0.023,9.789,145.9,115.2,2.903,0,0,380.037,0.905,0.233,0.454,0.217,0.905,0.002,0.007,-2.164e-4,0,0,0,0,8.069e-7,1.794,90.0116696,9.301,912.5,0.001125,336.935,0.865,3.25e7,10.6,90,0.05,0.06,0.037
3.43,891.319,891.319,288.346,288.432,-57.003,57.028,20.445,4.714e-5,20.445,90.0116696,7.037,1.691,28.61,-80.6,0.0152349,0,-9.5492966e-4,7.7540288e-5,88.2355005,89.9543738,7814,2032,2.149,0.023,9.789,145.8,115.2,2.893,0,0,369.132,0.898,0.234,0.449,0.215,0.898,0.004,0.012,3.137e-4,0,0,0,0,-7.466e-7,1.779,90.0116696,9.206,910.9,0.001124,336.878,0.856,3.214e7,10.6,90,0.05,0.06,0.037
3.48,905.666,905.666,285.529,285.614,-55.673,55.701,20.795,6.084e-5,20.795,90.0116696,6.949,1.759,28.61,-80.6,0.0227579,0,0.0017507,1.0427832e-4,88.2355005,90.0116696,7814,2032,2.149,0.023,9.789,145.7,115.2,2.884,0,0,358.761,0.891,0.234,0.444,0.214,0.891,0.006,0.019,-4.331e-4,0,0,0,0,2.146e-6,1.852,90.0116696,9.113,909.3,0.001122,336.821,0.848,3.179e7,10.6,90,0.05,0.061,0.037
3.53,919.873,919.873,282.777,282.86,-54.435,54.452,21.14,6.037e-5,21.14,90.0116696,6.871,1.344,28.61,-80.6,0.0062223,6.5142118e-9,-0.0028648,3.1830989e-4,88.2355005,90.0116696,7814,2032,2.149,0.023,9.789,145.7,115.2,2.879,0,0,348.998,0.885,0.234,0.439,0.212,0.885,0.002,0.005,-4.73e-4,0,0,0,0,-6.067e-6,1.933,90.0116696,9.021,907.7,0.001121,336.766,0.84,3.145e7,10.6,90,0.05,0.062,0.036
3.58,933.945,933.945,280.085,280.168,-53.243,53.255,21.482,5.326e-5,21.482,90.0116696,6.812,1.127,28.61,-80.6,0.0213255,1.3623663e-8,-7.9577472e-4,-1.3095269e-5,88.1782047,89.9543738,7814,2032,2.149,0.023,9.789,145.6,115.2,2.869,0,0,339.632,0.879,0.235,0.435,0.21,0.879,0.006,0.016,-2.175e-4,0,0,0,0,-4.382e-7,1.999,90.0116696,8.929,906.1,0.001119,336.71,0.832,3.112e7,10.6,90,0.05,0.063,0.036
3.63,947.883,947.883,277.452,277.534,-52.087,52.102,21.822,6.443e-5,21.822,90.0116696,6.751,1.273,28.61,-80.6,0.0079355,1.2465015e-8,9.5492966e-4,3.34862e-6,88.1782047,90.0116696,7814,2032,2.149,0.023,9.789,145.5,115.2,2.864,0,0,330.637,0.874,0.235,0.43,0.208,0.874,0.002,0.007,-6.159e-5,0,0,0,0,6.243e-7,2.022,90.0116696,8.839,904.6,0.001118,336.655,0.825,3.079e7,10.6,90,0.05,0.063,0.036
3.68,961.691,961.691,274.876,274.957,-50.972,50.995,22.157,8.362e-5,22.157,90.0116696,6.681,1.523,28.61,-80.6,0.0146104,1.4096353e-8,-4.7746483e-4,4.2478454e-5,88.1782047,90.0116696,7814,2032,2.149,0.023,9.789,145.4,115.2,2.856,0,0,321.998,0.868,0.235,0.426,0.207,0.868,0.004,0.012,3.524e-4,0,0,0,0,-1.822e-7,2.043,90.0116696,8.749,903,0.001116,336.601,0.817,3.047e7,10.6,90,0.05,0.064,0.035
3.73,975.371,975.371,272.354,272.434,-49.916,49.932,22.49,8.618e-5,22.49,90.0116696,6.608,1.262,28.61,-80.6,0.0033759,1.5019452e-8,-7.9577472e-4,3.1830989e-4,88.1782047,90.0116696,7814,2032,2.149,0.023,9.789,145.4,115.2,2.85,0,0,313.686,0.863,0.236,0.422,0.205,0.863,9.272e-4,0.003,1.21e-4,0,0,0,0,-5.488e-7,1.987,90.0116696,8.66,901.5,0.001114,336.547,0.81,3.015e7,10.6,90,0.05,0.065,0.035
3.78,988.927,988.927,269.884,269.963,-48.897,48.91,22.819,6.404e-5,22.819,90.0116696,6.552,1.137,28.61,-80.6,0.0108117,1.6058734e-8,6.3661977e-4,7.9657049e-5,88.1782047,90.0116696,7814,2032,2.149,0.023,9.789,145.3,115.2,2.843,0,0,305.693,0.857,0.236,0.417,0.204,0.857,0.003,0.009,4.923e-4,0,0,0,0,2.912e-7,1.941,90.0116696,8.572,900,0.001113,336.494,0.802,2.985e7,10.6,90,0.05,0.065,0.035
3.83,1002.361,1002.361,267.463,267.542,-47.916,47.935,23.145,4.332e-5,23.145,90.0116696,6.49,1.33,28.61,-80.6,0.0081131,1.6536199e-8,-7.9577472e-4,6.390071e-5,88.1782047,89.9543738,7814,2032,2.149,0.023,9.789,145.2,115.2,2.837,0,0,298.084,0.852,0.236,0.414,0.202,0.852,0.002,0.006,1.303e-4,0,0,0,0,-4.378e-7,1.946,90.0116696,8.485,898.5,0.001111,336.441,0.795,2.955e7,10.6,90,0.05,0.066,0.034
3.88,1015.674,1015.674,265.091,265.169,-46.987,47.004,23.467,4.671e-5,23.467,90.0116696,6.423,1.251,28.61,-80.6,0.0042628,1.7586621e-8,3.1830989e-4,-6.6033386e-6,88.1782047,89.9543738,7814,2032,2.149,0.023,9.789,145.1,115.2,2.831,0,0,290.807,0.847,0.237,0.41,0.201,0.847,0.001,0.003,-9.328e-5,0,0,0,0,7.293e-8,1.908,90.0116696,8.398,897.1,0.00111,336.388,0.788,2.925e7,10.6,90,0.05,0.067,0.034
3.93,1028.87,1028.87,262.764,262.841,-46.089,46.106,23.787,6.365e-5,23.787,90.0116696,6.363,1.264,28.61,-80.6,0.0075459,1.6233804e-8,3.1830989e-4,6.3470991e-5,88.1782047,90.0116696,7814,2032,2.149,0.023,9.789,145.1,115.2,2.825,0,0,283.796,0.843,0.237,0.406,0.199,0.843,0.002,0.006,1.468e-4,0,0,0,0,1.358e-7,1.934,90.0116696,8.312,895.7,0.001109,336.336,0.782,2.897e7,10.6,90,0.05,0.068,0.034
3.98,1041.951,1041.951,260.482,260.558,-45.224,45.241,24.104,7.593e-5,24.104,90.0116696,6.299,1.257,28.61,-80.6,0.0086058,1.6170142e-8,0.0014324,5.7709582e-5,88.1782047,90.0116696,7814,2032,2.149,0.023,9.789,145,115.2,2.819,0,0,277.037,0.838,0.237,0.403,0.198,0.838,0.002,0.007,-4.964e-4,0,0,0,0,1.883e-6,2.008,90.0116696,8.227,894.3,0.001107,336.285,0.775,2.869e7,10.6,90,0.05,0.068,0.033
4.03,1054.919,1054.919,258.241,258.317,-44.396,44.407,24.417,7.807e-5,24.417,90.0116696,6.241,0.987,28.61,-80.6,0.0143812,1.7586621e-8,-0.0014324,1.2797649e-5,88.1782047,90.0116696,7814,2032,2.149,0.023,9.789,144.9,115.2,2.812,0,0,270.508,0.834,0.237,0.4,0.197,0.834,0.004,0.01,-1.119e-4,0,0,0,0,-1.666e-6,2.02,90.0116696,8.143,892.9,0.001106,336.234,0.768,2.841e7,10.6,90,0.05,0.069,0.033
4.08,1067.776,1067.776,256.042,256.117,-43.591,43.6,24.728,8.449e-5,24.728,90.0116696,6.196,0.927,28.61,-80.6,0.0181055,1.7045494e-8,6.3661977e-4,7.2320006e-6,88.1209089,90.0116696,7814,2032,2.149,0.023,9.789,144.9,115.2,2.806,0,0,264.202,0.829,0.238,0.396,0.195,0.829,0.005,0.013,1.29e-4,0,0,0,0,2.864e-7,2.01,90.0116696,8.059,891.5,0.001104,336.183,0.762,2.814e7,10.6,90,0.05,0.07,0.033
4.13,1080.524,1080.524,253.882,253.956,-42.8,42.819,25.036,9.751e-5,25.036,90.0116696,6.142,1.262,28.61,-80.6,0.0158308,1.5963241e-8,-9.5492966e-4,1.2162621e-5,88.1782047,90.0116696,7814,2032,2.149,0.023,9.789,144.8,115.2,2.801,0,0,258.114,0.825,0.238,0.393,0.194,0.825,0.004,0.012,2.904e-4,0,0,0,0,-7.985e-7,2.066,90.0116696,7.977,890.2,0.001103,336.133,0.756,2.788e7,10.6,90,0.05,0.07,0.033
4.18,1093.165,1093.165,251.761,251.834,-42.047,42.066,25.342,1.175e-4,25.342,90.0116696,6.076,1.25,28.61,-80.6,0.0170512,1.4360551e-8,0.0012732,2.0403664e-5,88.1782047,90.0116696,7814,2032,2.149,0.023,9.789,144.8,115.2,2.796,0,0,252.232,0.821,0.238,0.39,0.193,0.821,0.005,0.012,-1.794e-4,0,0,0,0,1.494e-6,2.086,90.0116696,7.894,888.8,0.001102,336.083,0.749,2.762e7,10.6,90,0.05,0.071,0.032
4.23,1105.701,1105.701,249.677,249.749,-41.333,41.346,25.644,1.39e-4,25.644,90.0116696,6.021,1.016,28.61,-80.6,0.0042909,1.6377044e-8,-0.0015915,9.6495642e-5,88.1209089,90.0116696,7814,2032,2.149,0.023,9.789,144.7,115.2,2.792,0,0,246.595,0.817,0.238,0.387,0.192,0.817,0.001,0.003,-4.039e-5,0,0,0,0,-2.355e-6,2.102,90.0116696,7.813,887.5,0.0011,336.034,0.743,2.736e7,10.6,90,0.05,0.072,0.032
4.28,1118.133,1118.133,247.627,247.699,-40.635,40.648,25.944,1.539e-4,25.944,90.0116696,5.971,1.019,28.61,-80.6,0.0030275,1.610648e-8,-9.5492966e-4,1.2447508e-4,88.1209089,90.0116696,7814,2032,2.149,0.023,9.789,144.7,115.2,2.788,0,0,241.145,0.813,0.239,0.384,0.191,0.813,8.15e-4,0.002,8.088e-5,0,0,0,0,-9.45e-7,2.188,90.0116696,7.732,886.2,0.001099,335.985,0.737,2.711e7,10.6,90,0.05,0.073,0.032
4.33,1130.464,1130.464,245.613,245.684,-39.961,39.973,26.241,1.613e-4,26.241,90.0116696,5.92,0.952,28.61,-80.6,0.0083595,1.6679438e-8,-7.9577472e-4,3.2833665e-5,88.1209089,90.0116696,7814,2032,2.149,0.023,9.789,144.6,115.2,2.782,0,0,235.865,0.809,0.239,0.381,0.19,0.809,0.002,0.006,-1.082e-4,0,0,0,0,-6.909e-7,2.223,90.0116696,7.652,884.9,0.001098,335.936,0.732,2.686e7,10.6,90,0.05,0.073,0.031
4.38,1142.695,1142.695,243.631,243.702,-39.31,39.323,26.536,1.697e-4,26.536,90.0116696,5.873,1.007,28.61,-80.6,0.0011998,1.7522959e-8,-7.163564e-5,-9.2787332e-6,88.0636131,89.9543738,7814,2032,2.149,0.023,9.789,144.6,115.2,2.779,0,0,230.793,0.806,0.239,0.378,0.188,0.806,3.221e-4,7.802e-4,-3.294e-4,0,0,0,0,-5.214e-9,2.265,90.0116696,7.572,883.6,0.001096,335.888,0.726,2.662e7,10.6,90,0.05,0.074,0.031
4.43,1154.828,1154.828,241.681,241.751,-38.682,38.694,26.829,1.919e-4,26.829,90.0116696,5.821,0.986,28.61,-80.6,0.001398,1.7140987e-8,-3.1830989e-4,-1.5915494e-4,88.0636131,89.9543738,7814,2032,2.149,0.023,9.789,144.5,115.2,2.774,0,0,225.881,0.803,0.24,0.376,0.187,0.803,3.747e-4,6.785e-4,-3.635e-5,0,0,0,0,-1.283e-7,2.27,90.0116696,7.494,882.3,0.001095,335.84,0.72,2.638e7,10.6,90,0.05,0.075,0.031
4.48,1166.864,1166.864,239.762,239.832,-38.071,38.084,27.118,2.261e-4,27.118,90.0116696,5.773,1.001,28.61,-80.6,0.0022116,1.6854508e-8,8.5832261e-5,7.4468598e-5,88.0636131,90.0116696,7814,2032,2.149,0.023,9.789,144.5,115.2,2.77,0,0,221.12,0.799,0.24,0.373,0.186,0.799,5.92e-4,0.002,4.206e-4,0,0,0,0,7.727e-9,2.284,90.0116696,7.415,881,0.001094,335.793,0.714,2.615e7,10.6,90,0.05,0.075,0.031
4.53,1178.804,1178.804,237.874,237.943,-37.482,37.493,27.406,2.551e-4,27.406,90.0116696,5.723,0.929,28.61,-80.6,0.0036314,1.6838593e-8,-3.1830989e-4,8.1964796e-5,88.0636131,90.0116696,7814,2032,2.149,0.023,9.789,144.5,115.2,2.765,0,0,216.499,0.796,0.24,0.37,0.185,0.796,9.708e-4,0.003,-3.082e-4,0,0,0,0,-1.413e-7,2.268,90.0116696,7.338,879.7,0.001093,335.746,0.709,2.592e7,10.6,90,0.05,0.076,0.03
4.58,1190.652,1190.652,236.014,236.082,-36.909,36.92,27.691,2.709e-4,27.691,90.0116696,5.679,0.874,28.61,-80.6,0.0075974,1.7491128e-8,3.1830989e-4,1.769803e-5,88.0636131,90.0116696,7814,2032,2.149,0.023,9.789,144.4,115.2,2.761,0,0,212.013,0.793,0.241,0.368,0.184,0.793,0.002,0.005,-4.359e-4,0,0,0,0,8.661e-8,2.237,90.0116696,7.261,878.5,0.001091,335.699,0.703,2.569e7,10.6,90,0.05,0.077,0.03
4.63,1202.406,1202.406,234.183,234.25,-36.35,36.363,27.974,2.833e-4,27.974,90.0116696,5.633,0.996,28.61,-80.6,0.0083881,1.7713945e-8,-4.7746483e-4,-2.3714087e-5,88.0636131,90.0116696,7814,2032,2.149,0.023,9.788,144.4,115.2,2.756,0,0,207.674,0.79,0.241,0.365,0.183,0.79,0.002,0.006,-2.379e-4,0,0,0,0,-1.819e-7,2.255,90.0116696,7.184,877.2,0.00109,335.653,0.698,2.547e7,10.6,90,0.05,0.078,0.03
4.68,1214.07,1214.07,232.379,232.446,-35.81,35.826,28.254,3.058e-4,28.254,90.0116696,5.581,1.077,28.61,-80.6,0.0196983,1.7507044e-8,7.9577472e-4,-4.4070004e-5,88.0636131,89.9543738,7814,2032,2.149,0.023,9.788,144.3,115.2,2.751,0,0,203.482,0.787,0.241,0.363,0.182,0.787,0.005,0.014,8.809e-5,0,0,0,0,5.813e-7,2.301,90.0116696,7.109,876,0.001089,335.607,0.693,2.525e7,10.6,90,0.05,0.078,0.03
4.73,1225.645,1225.645,230.601,230.667,-35.293,35.305,28.532,3.464e-4,28.532,90.0116696,5.529,0.93,28.61,-80.6,0.0039494,1.755479e-8,0.0017507,-3.1830989e-4,88.0636131,89.9543738,7814,2032,2.149,0.023,9.788,144.3,115.2,2.749,0,0,199.407,0.784,0.242,0.36,0.181,0.784,0.001,0.003,-1.711e-4,0,0,0,0,3.484e-6,2.327,90.0116696,7.033,874.7,0.001088,335.561,0.688,2.503e7,10.6,90,0.05,0.079,0.03
4.78,1237.131,1237.131,228.849,228.915,-34.795,34.801,28.807,4.005e-4,28.807,90.0116696,5.489,0.647,28.61,-80.6,0.0286995,1.7904931e-8,-9.5492966e-4,-5.6436343e-5,88.0063173,90.0116696,7814,2032,2.149,0.023,9.788,144.2,115.2,2.742,0,0,195.442,0.781,0.242,0.358,0.181,0.781,0.008,0.02,-3.959e-4,0,0,0,0,-1.09e-6,2.289,90.0116696,6.959,873.5,0.001086,335.516,0.682,2.482e7,10.6,90,0.05,0.08,0.029
4.83,1248.53,1248.53,227.122,227.187,-34.301,34.307,29.081,4.517e-4,29.081,90.0116696,5.459,0.645,28.61,-80.6,0.0272441,1.5331396e-8,0.0012732,-3.6335074e-5,88.0063173,90.0116696,7814,2032,2.149,0.023,9.788,144.2,115.2,2.739,0,0,191.587,0.778,0.242,0.356,0.18,0.778,0.007,0.02,8.225e-5,0,0,0,0,2.137e-6,2.25,90.0116696,6.885,872.3,0.001085,335.471,0.677,2.461e7,10.6,90,0.05,0.08,0.029
4.88,1259.843,1259.843,225.419,225.484,-33.81,33.824,29.353,4.895e-4,29.353,90.0116696,5.419,0.983,28.61,-80.6,0.0172346,1.5624241e-8,-0.0019099,-7.8797612e-5,88.0636131,90.0116696,7814,2032,2.149,0.023,9.788,144.2,115.2,2.737,0,0,187.841,0.775,0.243,0.354,0.179,0.775,0.005,0.012,2.392e-4,0,0,0,0,-4.194e-6,2.275,90.0116696,6.811,871.1,0.001084,335.426,0.672,2.44e7,10.6,90,0.05,0.081,0.029
4.93,1271.072,1271.072,223.74,223.805,-33.339,33.358,29.622,5.236e-4,29.622,90.0116696,5.365,1.106,28.61,-80.6,0.0354489,1.432872e-8,3.1830989e-4,-4.6393666e-5,88.0636131,89.9543738,7814,2032,2.149,0.023,9.788,144.1,115.2,2.731,0,0,184.197,0.772,0.243,0.351,0.178,0.772,0.009,0.026,8.677e-5,0,0,0,0,1.186e-7,2.284,90.0116696,6.738,869.9,0.001083,335.382,0.668,2.42e7,10.6,90,0.05,0.082,0.029
4.98,1282.218,1282.218,222.084,222.148,-32.895,32.904,29.889,5.68e-4,29.889,90.0116696,5.316,0.804,28.61,-80.6,0.0014249,1.4662945e-8,-0.0014324,-0.0011141,88.0636131,89.9543738,7814,2032,2.149,0.023,9.788,144.1,115.2,2.732,0,0,180.645,0.77,0.243,0.349,0.177,0.77,3.77e-4,7.229e-4,4.554e-5,0,0,0,0,-2.303e-6,2.221,90.0116696,6.666,868.7,0.001082,335.338,0.663,2.4e7,10.6,90,0.05,0.083,0.028
5.03,1293.281,1293.281,220.451,220.514,-32.462,32.466,30.154,6.281e-4,30.154,90.0116696,5.284,0.511,28.61,-80.6,0.0377579,1.1561015e-8,-3.1830989e-4,-4.426099e-5,88.0063173,89.9543738,7814,2032,2.149,0.023,9.788,144,115.2,2.724,0,0,177.187,0.767,0.244,0.347,0.176,0.767,0.01,0.028,3.884e-4,0,0,0,0,-9.691e-8,2.138,90.0116696,6.594,867.5,0.00108,335.295,0.658,2.38e7,10.6,90,0.05,0.083,0.028
5.08,1304.263,1304.263,218.838,218.901,-32.026,32.033,30.418,6.949e-4,30.418,90.0116696,5.257,0.647,28.61,-80.6,0.0179278,9.8357755e-9,0.0019099,-1.1258621e-4,88.0636131,90.0116696,7814,2032,2.149,0.023,9.788,144,115.2,2.723,0,0,173.823,0.764,0.244,0.345,0.175,0.764,0.005,0.013,4.304e-4,0,0,0,0,4.749e-6,2.12,90.0116696,6.522,866.4,0.001079,335.251,0.653,2.361e7,10.6,90,0.05,0.084,0.028
5.13,1315.165,1315.165,217.248,217.31,-31.597,31.612,30.68,7.53e-4,30.68,90.0116696,5.217,0.971,28.61,-80.6,0.0283442,9.8787473e-9,-0.0015915,-5.9173808e-5,88.0636131,90.0116696,7814,2032,2.149,0.023,9.788,144,115.2,2.719,0,0,170.556,0.762,0.244,0.343,0.175,0.762,0.007,0.02,3.912e-4,0,0,0,0,-2.968e-6,2.149,90.0116696,6.451,865.2,0.001078,335.208,0.648,2.341e7,10.6,90,0.05,0.085,0.028
5.18,1325.988,1325.988,215.678,215.74,-31.186,31.207,30.939,7.938e-4,30.939,90.0116696,5.163,1.131,28.61,-80.6,0.0525116,5.3794371e-9,0.0011141,-4.6457328e-5,88.1209089,90.0116696,7814,2032,2.149,0.023,9.788,143.9,115.2,2.713,0,0,167.389,0.759,0.245,0.341,0.174,0.759,0.014,0.038,1.049e-4,0,0,0,0,1.499e-6,2.218,90.0116696,6.381,864.1,0.001077,335.166,0.644,2.322e7,10.6,90,0.05,0.085,0.028
5.23,1336.733,1336.733,214.129,214.19,-30.796,30.811,31.196,8.29e-4,31.196,90.0116696,5.11,0.949,28.61,-80.6,0.027989,8.0802965e-9,0.0038197,-1.49351e-4,88.0636131,89.9543738,7814,2032,2.149,0.023,9.788,143.9,115.2,2.713,0,0,164.3,0.757,0.245,0.339,0.173,0.757,0.007,0.02,4.194e-6,0,0,0,0,1.897e-5,2.3,90.0116696,6.311,862.9,0.001076,335.124,0.639,2.304e7,10.6,90,0.05,0.086,0.027
5.28,1347.402,1347.402,212.598,212.659,-30.427,30.431,31.451,8.747e-4,31.451,90.0116696,5.073,0.465,28.61,-80.6,0.0405941,6.6256203e-9,-0.0036606,-1.0596536e-4,87.9490216,89.9543738,7814,2032,2.149,0.023,9.788,143.9,115.2,2.708,0,0,161.285,0.755,0.245,0.337,0.172,0.755,0.011,0.029,5.325e-5,0,0,0,0,-1.794e-5,2.301,90.0116696,6.242,861.8,0.001075,335.081,0.635,2.285e7,10.6,90,0.05,0.087,0.027
5.33,1357.994,1357.994,211.086,211.147,-30.056,30.058,31.704,9.367e-4,31.704,90.0116696,5.057,0.324,28.61,-80.6,0.0572958,8.8299162e-9,-8.3635923e-5,-4.5661553e-5,87.9490216,89.9543738,7814,2032,2.149,0.023,9.788,143.8,115.2,2.703,0,0,158.346,0.752,0.246,0.335,0.172,0.752,0.016,0.043,-4.431e-4,0,0,0,0,-9.464e-9,2.318,90.0116696,6.173,860.7,0.001073,335.04,0.63,2.267e7,10.6,90,0.05,0.087,0.027
5.38,1368.51,1368.51,209.593,209.653,-29.682,29.686,31.956,0.001,31.956,90.0116696,5.036,0.507,28.61,-80.6,0.0326701,6.1704371e-9,0.0025465,-8.1471415e-5,87.9490216,90.0116696,7814,2032,2.149,0.023,9.788,143.8,115.2,2.704,0,0,155.476,0.75,0.246,0.333,0.171,0.75,0.009,0.023,2.016e-5,0,0,0,0,8.7e-6,2.302,90.0116696,6.105,859.5,0.001072,334.998,0.626,2.249e7,10.6,90,0.05,0.088,0.027
5.43,1378.953,1378.953,208.118,208.178,-29.314,29.324,32.207,0.001,32.207,90.0116696,5.004,0.734,28.61,-80.6,0.0047223,6.5142118e-9,-0.0031831,-6.3661977e-4,88.0063173,90.0116696,7814,2032,2.149,0.023,9.788,143.8,115.2,2.705,0,0,152.671,0.748,0.246,0.331,0.17,0.748,0.001,0.004,4.849e-4,0,0,0,0,-1.461e-5,2.216,90.0116696,6.037,858.4,0.001071,334.957,0.622,2.231e7,10.6,90,0.05,0.089,0.027
5.48,1389.323,1389.323,206.661,206.721,-28.95,28.975,32.456,0.001,32.456,90.0116696,4.959,1.2,28.61,-80.6,0.0572958,7.259057e-9,-0.0014324,-3.1926482e-5,88.0636131,90.0116696,7814,2032,2.149,0.023,9.788,143.7,115.2,2.693,0,0,149.948,0.746,0.247,0.329,0.17,0.746,0.02,0.055,1.919e-5,0,0,0,0,-3.031e-6,2.3,90.0116696,5.969,857.3,0.00107,334.916,0.617,2.214e7,10.6,90,0.05,0.09,0.026
5.53,1399.62,1399.62,205.222,205.281,-28.614,28.633,32.703,0.001,32.703,90.0116696,4.896,1.043,28.61,-80.6,0.0563504,8.6389303e-9,0.0033423,-4.1523525e-5,88.0636131,90.0116696,7814,2032,2.149,0.023,9.788,143.7,115.2,2.693,0,0,147.281,0.743,0.247,0.328,0.169,0.743,0.015,0.04,2.849e-4,0,0,0,0,1.579e-5,2.304,90.0116696,5.902,856.2,0.001069,334.876,0.613,2.197e7,10.6,90,0.05,0.09,0.026
5.58,1409.845,1409.845,203.8,203.858,-28.297,28.302,32.947,0.001,32.947,90.0116696,4.859,0.543,28.61,-80.6,0.0209244,9.8325924e-9,-0.0039789,-1.0458071e-4,87.9490216,89.9543738,7814,2032,2.149,0.023,9.788,143.7,115.2,2.696,0,0,144.675,0.741,0.247,0.326,0.168,0.741,0.005,0.015,3.597e-4,0,0,0,0,-2.208e-5,2.268,90.0116696,5.836,855.1,0.001068,334.836,0.609,2.18e7,10.6,90,0.05,0.091,0.026
5.63,1420,1420,202.393,202.451,-27.98,27.982,33.189,0.001,33.189,90.0116696,4.838,0.331,28.61,-80.6,0.0549295,6.9439302e-9,-0.0015915,-3.9438595e-5,87.9490216,89.9543738,7814,2032,2.149,0.023,9.788,143.6,115.2,2.689,0,0,142.137,0.739,0.247,0.324,0.168,0.739,0.014,0.038,2.391e-4,0,0,0,0,-3.959e-6,2.304,90.0116696,5.77,854.1,0.001067,334.796,0.605,2.163e7,10.6,90,0.05,0.092,0.026
